{
  "candidates": [
    {
      "business_status": "OPERATIONAL",
      "formatted_address": "日本、〒389-2253 長野県飯山市飯山愛宕町３０５２",
      "geometry": {
        "location": {
          "lat": 36.8556872,
          "lng": 138.3620768
        },
        "viewport": {
          "northeast": {
            "lat": 36.85703972989272,
            "lng": 138.3634177298927
          },
          "southwest": {
            "lat": 36.85434007010728,
            "lng": 138.3607180701073
          }
        }
      },
      "icon": "https://maps.gstatic.com/mapfiles/place_api/icons/v1/png_71/restaurant-71.png",
      "name": "GOOD MOUNTAINS グッドマウンテンズ",
      "photos": [
        {
          "height": 745,
          "html_attributions": [
            "<a href=\"https://maps.google.com/maps/contrib/115598766628593109711\">A Google User</a>"
          ],
          "photo_reference": "Aap_uEA9rEKbIofYcqzbhlDkQ6x5XlcPNPh0TSspR2x0Llf6M6hZ5zV-6wEP0ApLmGauZlcLbK0ajlOMW34cNvs6NZOGXUv3CXxreEjWH1yGoc_waTQ9YoWwcoYI-PQWDi6oXixleglhBOEI6YZ-HBrJbrVsv8L0uItMAr_qaxY6ORw0epqs",
          "width": 750
        }
      ],
      "place_id": "ChIJhWNlyjYZ9l8RAzxJPnfJMus",
      "plus_code": {
        "compound_code": "V946+7R 飯山市、長野県",
        "global_code": "8Q8WV946+7R"
      },
      "types": [
        "restaurant",
        "food",
        "point_of_interest",
        "establishment"
      ]
    },
    {
      "business_status": "OPERATIONAL",
      "formatted_address": "日本、〒389-2253 長野県飯山市飯山",
      "geometry": {
        "location": {
          "lat": 36.8563234,
          "lng": 138.3621861
        },
        "viewport": {
          "northeast": {
            "lat": 36.85767057989272,
            "lng": 138.3635485298927
          },
          "southwest": {
            "lat": 36.85497092010728,
            "lng": 138.3608488701072
          }
        }
      },
      "icon": "https://maps.gstatic.com/mapfiles/place_api/icons/v1/png_71/generic_business-71.png",
      "name": "愛宕町",
      "place_id": "ChIJ3zkb0iQZ9l8R8DCr7mNQZOM",
      "plus_code": {
        "compound_code": "V946+GV 飯山市、長野県",
        "global_code": "8Q8WV946+GV"
      },
      "types": [
        "transit_station",
        "point_of_interest",
        "establishment"
      ]
    }
  ],
  "status": "OK"
}