[
  {
    "address_components": [
      {
        "long_name": "飯山市",
        "short_name": "飯山市",
        "types": [
          "locality",
          "political"
        ]
      },
      {
        "long_name": "長野県",
        "short_name": "長野県",
        "types": [
          "administrative_area_level_1",
          "political"
        ]
      },
      {
        "long_name": "日本",
        "short_name": "JP",
        "types": [
          "country",
          "political"
        ]
      }
    ],
    "formatted_address": "日本、長野県飯山市",
    "geometry": {
      "bounds": {
        "northeast": {
          "lat": 37.0296895,
          "lng": 138.5230847
        },
        "southwest": {
          "lat": 36.8036089,
          "lng": 138.2742644
        }
      },
      "location": {
        "lat": 36.8517344,
        "lng": 138.3654889
      },
      "location_type": "APPROXIMATE",
      "viewport": {
        "northeast": {
          "lat": 37.0296895,
          "lng": 138.5230847
        },
        "southwest": {
          "lat": 36.8036089,
          "lng": 138.2742644
        }
      }
    },
    "partial_match": true,
    "place_id": "ChIJWRwQY5Ma9l8R4BO4Q1o2g2Y",
    "types": [
      "locality",
      "political"
    ]
  },
  {
    "address_components": [
      {
        "long_name": "スカイトップ",
        "short_name": "スカイトップ",
        "types": [
          "locality",
          "political"
        ]
      },
      {
        "long_name": "サン・バーナディーノ",
        "short_name": "サン・バーナディーノ",
        "types": [
          "administrative_area_level_2",
          "political"
        ]
      },
      {
        "long_name": "カリフォルニア州",
        "short_name": "CA",
        "types": [
          "administrative_area_level_1",
          "political"
        ]
      },
      {
        "long_name": "アメリカ合衆国",
        "short_name": "US",
        "types": [
          "country",
          "political"
        ]
      }
    ],
    "formatted_address": "アメリカ合衆国 カリフォルニア州 スカイトップ",
    "geometry": {
      "location": {
        "lat": 35.701344,
        "lng": -117.4989485
      },
      "location_type": "APPROXIMATE",
      "viewport": {
        "northeast": {
          "lat": 35.7026929802915,
          "lng": -117.4975995197085
        },
        "southwest": {
          "lat": 35.6999950197085,
          "lng": -117.5002974802915
        }
      }
    },
    "partial_match": true,
    "place_id": "ChIJcwF-tws_wYARuCT1LK6eItQ",
    "types": [
      "locality",
      "political"
    ]
  }
]