[
  {
    "address_components": [
      {
        "long_name": "２６−１４",
        "short_name": "２６−１４",
        "types": [
          "premise"
        ]
      },
      {
        "long_name": "南町",
        "short_name": "南町",
        "types": [
          "political",
          "sublocality",
          "sublocality_level_2"
        ]
      },
      {
        "long_name": "飯山市",
        "short_name": "飯山市",
        "types": [
          "locality",
          "political"
        ]
      },
      {
        "long_name": "長野県",
        "short_name": "長野県",
        "types": [
          "administrative_area_level_1",
          "political"
        ]
      },
      {
        "long_name": "日本",
        "short_name": "JP",
        "types": [
          "country",
          "political"
        ]
      },
      {
        "long_name": "389-2254",
        "short_name": "389-2254",
        "types": [
          "postal_code"
        ]
      }
    ],
    "formatted_address": "日本、〒389-2254 長野県飯山市南町２６−１４",
    "geometry": {
      "bounds": {
        "northeast": {
          "lat": 36.850591,
          "lng": 138.3614903
        },
        "southwest": {
          "lat": 36.850529,
          "lng": 138.3613903
        }
      },
      "location": {
        "lat": 36.8505658,
        "lng": 138.3614323
      },
      "location_type": "ROOFTOP",
      "viewport": {
        "northeast": {
          "lat": 36.8519267302915,
          "lng": 138.3627892802915
        },
        "southwest": {
          "lat": 36.8492287697085,
          "lng": 138.3600913197085
        }
      }
    },
    "place_id": "ChIJ5dxUGikZ9l8R_Kbz7v_jE30",
    "types": [
      "premise"
    ]
  }
]