[
  {
    "address_components": [
      {
        "long_name": "２２０２",
        "short_name": "２２０２",
        "types": [
          "premise"
        ]
      },
      {
        "long_name": "平穏",
        "short_name": "平穏",
        "types": [
          "political",
          "sublocality",
          "sublocality_level_2"
        ]
      },
      {
        "long_name": "山ノ内町",
        "short_name": "山ノ内町",
        "types": [
          "locality",
          "political"
        ]
      },
      {
        "long_name": "下高井郡",
        "short_name": "下高井郡",
        "types": [
          "administrative_area_level_2",
          "political"
        ]
      },
      {
        "long_name": "長野県",
        "short_name": "長野県",
        "types": [
          "administrative_area_level_1",
          "political"
        ]
      },
      {
        "long_name": "日本",
        "short_name": "JP",
        "types": [
          "country",
          "political"
        ]
      },
      {
        "long_name": "381-0401",
        "short_name": "381-0401",
        "types": [
          "postal_code"
        ]
      }
    ],
    "formatted_address": "日本、〒381-0401 長野県下高井郡山ノ内町平穏２２０２",
    "geometry": {
      "bounds": {
        "northeast": {
          "lat": 36.7351716,
          "lng": 138.4331305
        },
        "southwest": {
          "lat": 36.7346649,
          "lng": 138.4325098
        }
      },
      "location": {
        "lat": 36.7349177,
        "lng": 138.4328665
      },
      "location_type": "ROOFTOP",
      "viewport": {
        "northeast": {
          "lat": 36.73626658029149,
          "lng": 138.4341691302915
        },
        "southwest": {
          "lat": 36.73356861970849,
          "lng": 138.4314711697085
        }
      }
    },
    "place_id": "ChIJrQ9o7IP0HWARQkKf-JZAyGs",
    "types": [
      "premise"
    ]
  }
]