{
  "candidates": [
    {
      "business_status": "OPERATIONAL",
      "formatted_address": "日本、〒385-0028 長野県佐久市佐久平駅東１−１",
      "geometry": {
        "location": {
          "lat": 36.2780961,
          "lng": 138.4647679
        },
        "viewport": {
          "northeast": {
            "lat": 36.27926687989272,
            "lng": 138.4661180298927
          },
          "southwest": {
            "lat": 36.27656722010728,
            "lng": 138.4634183701072
          }
        }
      },
      "icon": "https://maps.gstatic.com/mapfiles/place_api/icons/v1/png_71/shopping-71.png",
      "name": "プラザ佐久",
      "photos": [
        {
          "height": 3024,
          "html_attributions": [
            "<a href=\"https://maps.google.com/maps/contrib/111238742476887117825\">Ree YooU</a>"
          ],
          "photo_reference": "Aap_uEAx1N7I0NvDbjTpTEwKRqPnqqNCxxPZrMAOeXFKNStdhZPhTLCX1mGPNVLSQqY5aUg5XDIfmZ_zSdtZC_tQnOT_fGmgTnDqStLdVQ3Ov-Jway_tarH_Bdp2g2w8Gt7kfdVn6Jn_RuX0m5CmO1B99ptbsH04qZzTD2E23mmYm3YSUW1u",
          "width": 4032
        }
      ],
      "place_id": "ChIJs2x-953LHWAR7biB5NqCmvk",
      "plus_code": {
        "compound_code": "7FH7+6W 佐久市、長野県",
        "global_code": "8Q8W7FH7+6W"
      },
      "types": [
        "store",
        "point_of_interest",
        "establishment"
      ]
    },
    {
      "business_status": "OPERATIONAL",
      "formatted_address": "日本、〒385-0028 長野県佐久市佐久平駅東２−６",
      "geometry": {
        "location": {
          "lat": 36.2775,
          "lng": 138.4666667
        },
        "viewport": {
          "northeast": {
            "lat": 36.27865882989273,
            "lng": 138.4681158798927
          },
          "southwest": {
            "lat": 36.27595917010728,
            "lng": 138.4654162201073
          }
        }
      },
      "icon": "https://maps.gstatic.com/mapfiles/place_api/icons/v1/png_71/lodging-71.png",
      "name": "佐久平プラザ21",
      "photos": [
        {
          "height": 444,
          "html_attributions": [
            "<a href=\"https://maps.google.com/maps/contrib/113096142553377634480\">佐久平プラザ21</a>"
          ],
          "photo_reference": "Aap_uEAqAXWA6Q7Ha4fwTNa1ueNnuVGQR8-TdKh2jpIVZTqfHMb_d0VDlbWVXprc6ckH0_J_-cdM50mQqin90suH5X-24ibpOivIpyQCscNPwyguLC7Dx8RMg_-kJXwu9zPfto6UVMx73z3N_0WJ3hAtz8sXygZb5Ogb4uaNuFD_HwYuKF8F",
          "width": 665
        }
      ],
      "place_id": "ChIJZaK6t3fLHWARnAoQoj6V3l0",
      "plus_code": {
        "compound_code": "7FH8+2M 佐久市、長野県",
        "global_code": "8Q8W7FH8+2M"
      },
      "types": [
        "lodging",
        "point_of_interest",
        "establishment"
      ]
    }
  ],
  "status": "OK"
}