[
  {
    "address_components": [
      {
        "long_name": "２２１９",
        "short_name": "２２１９",
        "types": [
          "premise"
        ]
      },
      {
        "long_name": "平穏",
        "short_name": "平穏",
        "types": [
          "political",
          "sublocality",
          "sublocality_level_2"
        ]
      },
      {
        "long_name": "山ノ内町",
        "short_name": "山ノ内町",
        "types": [
          "locality",
          "political"
        ]
      },
      {
        "long_name": "下高井郡",
        "short_name": "下高井郡",
        "types": [
          "administrative_area_level_2",
          "political"
        ]
      },
      {
        "long_name": "長野県",
        "short_name": "長野県",
        "types": [
          "administrative_area_level_1",
          "political"
        ]
      },
      {
        "long_name": "日本",
        "short_name": "JP",
        "types": [
          "country",
          "political"
        ]
      },
      {
        "long_name": "381-0401",
        "short_name": "381-0401",
        "types": [
          "postal_code"
        ]
      }
    ],
    "formatted_address": "日本、〒381-0401 長野県下高井郡山ノ内町平穏２２１９",
    "geometry": {
      "bounds": {
        "northeast": {
          "lat": 36.7347599,
          "lng": 138.4334941
        },
        "southwest": {
          "lat": 36.7345299,
          "lng": 138.4331917
        }
      },
      "location": {
        "lat": 36.7346362,
        "lng": 138.4333151
      },
      "location_type": "ROOFTOP",
      "viewport": {
        "northeast": {
          "lat": 36.7359938802915,
          "lng": 138.4346918802915
        },
        "southwest": {
          "lat": 36.7332959197085,
          "lng": 138.4319939197085
        }
      }
    },
    "place_id": "ChIJA1S-24P0HWAR_9Ta1MwMEUs",
    "types": [
      "premise"
    ]
  }
]