[
  {
    "address_components": [
      {
        "long_name": "１８−５",
        "short_name": "１８−５",
        "types": [
          "premise"
        ]
      },
      {
        "long_name": "佐久平駅南",
        "short_name": "佐久平駅南",
        "types": [
          "political",
          "sublocality",
          "sublocality_level_2"
        ]
      },
      {
        "long_name": "佐久市",
        "short_name": "佐久市",
        "types": [
          "locality",
          "political"
        ]
      },
      {
        "long_name": "長野県",
        "short_name": "長野県",
        "types": [
          "administrative_area_level_1",
          "political"
        ]
      },
      {
        "long_name": "日本",
        "short_name": "JP",
        "types": [
          "country",
          "political"
        ]
      },
      {
        "long_name": "385-0029",
        "short_name": "385-0029",
        "types": [
          "postal_code"
        ]
      }
    ],
    "formatted_address": "日本、〒385-0029 長野県佐久市佐久平駅南１８−５",
    "geometry": {
      "bounds": {
        "northeast": {
          "lat": 36.2743691,
          "lng": 138.4662302
        },
        "southwest": {
          "lat": 36.2742454,
          "lng": 138.466058
        }
      },
      "location": {
        "lat": 36.2743214,
        "lng": 138.4661351
      },
      "location_type": "ROOFTOP",
      "viewport": {
        "northeast": {
          "lat": 36.2757312302915,
          "lng": 138.4674930802915
        },
        "southwest": {
          "lat": 36.27303326970851,
          "lng": 138.4647951197085
        }
      }
    },
    "place_id": "ChIJ0S7Y1XbLHWARjklGb30Qhe8",
    "types": [
      "premise"
    ]
  }
]