[
  {
    "address_components": [
      {
        "long_name": "1f",
        "short_name": "1f",
        "types": [
          "subpremise"
        ]
      },
      {
        "long_name": "２３−１",
        "short_name": "２３−１",
        "types": [
          "premise"
        ]
      },
      {
        "long_name": "佐久平駅北",
        "short_name": "佐久平駅北",
        "types": [
          "political",
          "sublocality",
          "sublocality_level_2"
        ]
      },
      {
        "long_name": "佐久市",
        "short_name": "佐久市",
        "types": [
          "locality",
          "political"
        ]
      },
      {
        "long_name": "長野県",
        "short_name": "長野県",
        "types": [
          "administrative_area_level_1",
          "political"
        ]
      },
      {
        "long_name": "日本",
        "short_name": "JP",
        "types": [
          "country",
          "political"
        ]
      },
      {
        "long_name": "385-0027",
        "short_name": "385-0027",
        "types": [
          "postal_code"
        ]
      }
    ],
    "formatted_address": "日本、〒385-0027 長野県佐久市佐久平駅北２３−１ 1f",
    "geometry": {
      "bounds": {
        "northeast": {
          "lat": 36.2797293,
          "lng": 138.4633336
        },
        "southwest": {
          "lat": 36.2796126,
          "lng": 138.4631317
        }
      },
      "location": {
        "lat": 36.27968,
        "lng": 138.4632465
      },
      "location_type": "ROOFTOP",
      "viewport": {
        "northeast": {
          "lat": 36.28107393029151,
          "lng": 138.4645816302915
        },
        "southwest": {
          "lat": 36.27837596970851,
          "lng": 138.4618836697085
        }
      }
    },
    "partial_match": true,
    "place_id": "EjcxZiwgMjMtMSBTYWt1ZGFpcmFla2lraXRhLCBTYWt1LCBOYWdhbm8gMzg1LTAwMjcsIEphcGFuIh4aHAoWChQKEgnfwcmHnssdYBFml6-4A7HirhICMWY",
    "types": [
      "subpremise"
    ]
  }
]