{
  "candidates": [
    {
      "business_status": "OPERATIONAL",
      "formatted_address": "日本、〒384-0701 長野県南佐久郡佐久穂町畑６８",
      "geometry": {
        "location": {
          "lat": 36.1324804,
          "lng": 138.4715885
        },
        "viewport": {
          "northeast": {
            "lat": 36.13385952989272,
            "lng": 138.4727651798927
          },
          "southwest": {
            "lat": 36.13115987010727,
            "lng": 138.4700655201073
          }
        }
      },
      "icon": "https://maps.gstatic.com/mapfiles/place_api/icons/v1/png_71/generic_business-71.png",
      "name": "八千穂タクシー（有）",
      "place_id": "ChIJRYhDyi43HGARFV9EfV2YQHg",
      "plus_code": {
        "compound_code": "4FJC+XJ 佐久穂町、長野県",
        "global_code": "8Q8W4FJC+XJ"
      },
      "types": [
        "point_of_interest",
        "establishment"
      ]
    },
    {
      "business_status": "OPERATIONAL",
      "formatted_address": "日本、〒385-0051 長野県佐久市中込３７１３−１５６",
      "geometry": {
        "location": {
          "lat": 36.2535222,
          "lng": 138.4667118
        },
        "viewport": {
          "northeast": {
            "lat": 36.25486992989271,
            "lng": 138.4681817298927
          },
          "southwest": {
            "lat": 36.25217027010726,
            "lng": 138.4654820701073
          }
        }
      },
      "icon": "https://maps.gstatic.com/mapfiles/place_api/icons/v1/png_71/generic_business-71.png",
      "name": "八千穂タクシー",
      "place_id": "ChIJ_QJcm1HLHWAR-z6nWZawXNw",
      "plus_code": {
        "compound_code": "7F38+CM 佐久市、長野県",
        "global_code": "8Q8W7F38+CM"
      },
      "types": [
        "point_of_interest",
        "establishment"
      ]
    }
  ],
  "status": "OK"
}