[
  {
    "address_components": [
      {
        "long_name": "６４−３",
        "short_name": "６４−３",
        "types": [
          "premise"
        ]
      },
      {
        "long_name": "長土呂",
        "short_name": "長土呂",
        "types": [
          "political",
          "sublocality",
          "sublocality_level_2"
        ]
      },
      {
        "long_name": "佐久市",
        "short_name": "佐久市",
        "types": [
          "locality",
          "political"
        ]
      },
      {
        "long_name": "長野県",
        "short_name": "長野県",
        "types": [
          "administrative_area_level_1",
          "political"
        ]
      },
      {
        "long_name": "日本",
        "short_name": "JP",
        "types": [
          "country",
          "political"
        ]
      },
      {
        "long_name": "385-0021",
        "short_name": "385-0021",
        "types": [
          "postal_code"
        ]
      }
    ],
    "formatted_address": "日本、〒385-0021 長野県佐久市長土呂６４−３",
    "geometry": {
      "bounds": {
        "northeast": {
          "lat": 36.290441,
          "lng": 138.4809642
        },
        "southwest": {
          "lat": 36.2897825,
          "lng": 138.4800411
        }
      },
      "location": {
        "lat": 36.2901315,
        "lng": 138.4803658
      },
      "location_type": "ROOFTOP",
      "viewport": {
        "northeast": {
          "lat": 36.2914607302915,
          "lng": 138.4818401302915
        },
        "southwest": {
          "lat": 36.2887627697085,
          "lng": 138.4791421697085
        }
      }
    },
    "place_id": "ChIJ7fUbwnjMHWARMuYdx26WnrM",
    "types": [
      "premise"
    ]
  }
]