[
  {
    "address_components": [
      {
        "long_name": "２６−１",
        "short_name": "２６−１",
        "types": [
          "premise"
        ]
      },
      {
        "long_name": "村松",
        "short_name": "村松",
        "types": [
          "political",
          "sublocality",
          "sublocality_level_2"
        ]
      },
      {
        "long_name": "青木村",
        "short_name": "青木村",
        "types": [
          "locality",
          "political"
        ]
      },
      {
        "long_name": "小県郡",
        "short_name": "小県郡",
        "types": [
          "administrative_area_level_2",
          "political"
        ]
      },
      {
        "long_name": "長野県",
        "short_name": "長野県",
        "types": [
          "administrative_area_level_1",
          "political"
        ]
      },
      {
        "long_name": "日本",
        "short_name": "JP",
        "types": [
          "country",
          "political"
        ]
      },
      {
        "long_name": "386-1602",
        "short_name": "386-1602",
        "types": [
          "postal_code"
        ]
      }
    ],
    "formatted_address": "日本、〒386-1602 長野県小県郡青木村村松２６−１",
    "geometry": {
      "bounds": {
        "northeast": {
          "lat": 36.3729551,
          "lng": 138.1403468
        },
        "southwest": {
          "lat": 36.3727887,
          "lng": 138.1398505
        }
      },
      "location": {
        "lat": 36.3728817,
        "lng": 138.1401172
      },
      "location_type": "ROOFTOP",
      "viewport": {
        "northeast": {
          "lat": 36.3739834302915,
          "lng": 138.1414496802915
        },
        "southwest": {
          "lat": 36.3712854697085,
          "lng": 138.1387517197085
        }
      }
    },
    "place_id": "ChIJc4YaWZWhHWARbBJdQURGGs8",
    "types": [
      "premise"
    ]
  }
]