[
  {
    "address_components": [
      {
        "long_name": "２４２４−１４",
        "short_name": "２４２４−１４",
        "types": [
          "premise"
        ]
      },
      {
        "long_name": "古町",
        "short_name": "古町",
        "types": [
          "political",
          "sublocality",
          "sublocality_level_2"
        ]
      },
      {
        "long_name": "長和町",
        "short_name": "長和町",
        "types": [
          "locality",
          "political"
        ]
      },
      {
        "long_name": "小県郡",
        "short_name": "小県郡",
        "types": [
          "administrative_area_level_2",
          "political"
        ]
      },
      {
        "long_name": "長野県",
        "short_name": "長野県",
        "types": [
          "administrative_area_level_1",
          "political"
        ]
      },
      {
        "long_name": "日本",
        "short_name": "JP",
        "types": [
          "country",
          "political"
        ]
      },
      {
        "long_name": "386-0603",
        "short_name": "386-0603",
        "types": [
          "postal_code"
        ]
      }
    ],
    "formatted_address": "日本、〒386-0603 長野県小県郡長和町古町２４２４−１４",
    "geometry": {
      "bounds": {
        "northeast": {
          "lat": 36.2742,
          "lng": 138.2578982
        },
        "southwest": {
          "lat": 36.2740336,
          "lng": 138.25754
        }
      },
      "location": {
        "lat": 36.274125,
        "lng": 138.2576662
      },
      "location_type": "ROOFTOP",
      "viewport": {
        "northeast": {
          "lat": 36.2755201302915,
          "lng": 138.2590680802915
        },
        "southwest": {
          "lat": 36.2728221697085,
          "lng": 138.2563701197085
        }
      }
    },
    "place_id": "ChIJfRUr7DiwHWAREUofswsw6XA",
    "types": [
      "premise"
    ]
  }
]