{
  "candidates": [
    {
      "business_status": "OPERATIONAL",
      "formatted_address": "日本、〒384-0032 長野県小諸市乙1210番地",
      "geometry": {
        "location": {
          "lat": 36.3226128,
          "lng": 138.4173279
        },
        "viewport": {
          "northeast": {
            "lat": 36.32371782989273,
            "lng": 138.4185730298927
          },
          "southwest": {
            "lat": 36.32101817010728,
            "lng": 138.4158733701072
          }
        }
      },
      "icon": "https://maps.gstatic.com/mapfiles/place_api/icons/v1/png_71/lodging-71.png",
      "name": "中棚温泉 中棚荘",
      "photos": [
        {
          "height": 3648,
          "html_attributions": [
            "<a href=\"https://maps.google.com/maps/contrib/113781890222094108764\">A Google User</a>"
          ],
          "photo_reference": "Aap_uEAoD7q8hNtmtX0JtLRka_GPAn-SRW7_k8NfsLGxJ4ioxRJg7es5DTz2KeegekyW4UxVIVb2vsJI7hCXdAHW2PeNRkNcuqw3q1ZtoGUR5h9cbkdcbki619OPYIjwxwh97CTekOllizaDJgC9WcdvvPixjBz94mNsC3wL61ChybIIoDPi",
          "width": 5472
        }
      ],
      "place_id": "ChIJASpTRMjJHWARnSea0ePamz8",
      "plus_code": {
        "compound_code": "8CF8+2W 小諸市、長野県",
        "global_code": "8Q8W8CF8+2W"
      },
      "types": [
        "meal_takeaway",
        "lodging",
        "restaurant",
        "point_of_interest",
        "food",
        "establishment"
      ]
    },
    {
      "business_status": "OPERATIONAL",
      "formatted_address": "日本、〒384-0802 長野県小諸市古城 乙1210",
      "geometry": {
        "location": {
          "lat": 36.3221709,
          "lng": 138.4172761
        },
        "viewport": {
          "northeast": {
            "lat": 36.32351572989273,
            "lng": 138.4185890798927
          },
          "southwest": {
            "lat": 36.32081607010728,
            "lng": 138.4158894201073
          }
        }
      },
      "icon": "https://maps.gstatic.com/mapfiles/place_api/icons/v1/png_71/restaurant-71.png",
      "name": "はりこし亭",
      "photos": [
        {
          "height": 2592,
          "html_attributions": [
            "<a href=\"https://maps.google.com/maps/contrib/103911445090984769459\">A Google User</a>"
          ],
          "photo_reference": "Aap_uEAtoT13YdiwkVdU1_23X1mHWX99iSx9LIx5Dnvj71xMmS6nuIWk3ritSOXjk_Iohi1iJXCuF73JKY0FtzsRxwmh1W-b5A2O8QxQdNvsx8s1jK914b5AiR8qDy59JMDGUEVdKSIGijkrB8--5eb_vHhO4h6k9WuYp1zO6VyxORRi7K-I",
          "width": 4608
        }
      ],
      "place_id": "ChIJWVGrT8jJHWARviYHjhXXzUQ",
      "plus_code": {
        "compound_code": "8CC8+VW 小諸市、長野県",
        "global_code": "8Q8W8CC8+VW"
      },
      "types": [
        "restaurant",
        "point_of_interest",
        "food",
        "establishment"
      ]
    }
  ],
  "status": "OK"
}