[
  {
    "address_components": [
      {
        "long_name": "６６−３",
        "short_name": "６６−３",
        "types": [
          "premise"
        ]
      },
      {
        "long_name": "森山",
        "short_name": "森山",
        "types": [
          "political",
          "sublocality",
          "sublocality_level_2"
        ]
      },
      {
        "long_name": "小諸市",
        "short_name": "小諸市",
        "types": [
          "locality",
          "political"
        ]
      },
      {
        "long_name": "長野県",
        "short_name": "長野県",
        "types": [
          "administrative_area_level_1",
          "political"
        ]
      },
      {
        "long_name": "日本",
        "short_name": "JP",
        "types": [
          "country",
          "political"
        ]
      },
      {
        "long_name": "384-0085",
        "short_name": "384-0085",
        "types": [
          "postal_code"
        ]
      }
    ],
    "formatted_address": "日本、〒384-0085 長野県小諸市森山６６−３",
    "geometry": {
      "bounds": {
        "northeast": {
          "lat": 36.3038146,
          "lng": 138.4483711
        },
        "southwest": {
          "lat": 36.3037423,
          "lng": 138.4482825
        }
      },
      "location": {
        "lat": 36.303772,
        "lng": 138.4483275
      },
      "location_type": "ROOFTOP",
      "viewport": {
        "northeast": {
          "lat": 36.3051339802915,
          "lng": 138.4496559302915
        },
        "southwest": {
          "lat": 36.3024360197085,
          "lng": 138.4469579697085
        }
      }
    },
    "place_id": "ChIJ0XwQZ9fLHWARm_w3D93K3eM",
    "types": [
      "premise"
    ]
  }
]