[
  {
    "address_components": [
      {
        "long_name": "３",
        "short_name": "３",
        "types": [
          "premise"
        ]
      },
      {
        "long_name": "３",
        "short_name": "３",
        "types": [
          "political",
          "sublocality",
          "sublocality_level_4"
        ]
      },
      {
        "long_name": "１丁目",
        "short_name": "１丁目",
        "types": [
          "political",
          "sublocality",
          "sublocality_level_3"
        ]
      },
      {
        "long_name": "大手",
        "short_name": "大手",
        "types": [
          "political",
          "sublocality",
          "sublocality_level_2"
        ]
      },
      {
        "long_name": "小諸市",
        "short_name": "小諸市",
        "types": [
          "locality",
          "political"
        ]
      },
      {
        "long_name": "長野県",
        "short_name": "長野県",
        "types": [
          "administrative_area_level_1",
          "political"
        ]
      },
      {
        "long_name": "日本",
        "short_name": "JP",
        "types": [
          "country",
          "political"
        ]
      },
      {
        "long_name": "384-0031",
        "short_name": "384-0031",
        "types": [
          "postal_code"
        ]
      }
    ],
    "formatted_address": "日本、〒384-0031 長野県小諸市大手１丁目３−３",
    "geometry": {
      "bounds": {
        "northeast": {
          "lat": 36.327916,
          "lng": 138.4225679
        },
        "southwest": {
          "lat": 36.327803,
          "lng": 138.4224293
        }
      },
      "location": {
        "lat": 36.3278613,
        "lng": 138.4224934
      },
      "location_type": "ROOFTOP",
      "viewport": {
        "northeast": {
          "lat": 36.3292084802915,
          "lng": 138.4238294302915
        },
        "southwest": {
          "lat": 36.3265105197085,
          "lng": 138.4211314697085
        }
      }
    },
    "place_id": "ChIJByzqIbTJHWARiyvgK3UzIdE",
    "types": [
      "premise"
    ]
  }
]