[
  {
    "address_components": [
      {
        "long_name": "２４",
        "short_name": "２４",
        "types": [
          "premise"
        ]
      },
      {
        "long_name": "１",
        "short_name": "１",
        "types": [
          "political",
          "sublocality",
          "sublocality_level_4"
        ]
      },
      {
        "long_name": "２丁目",
        "short_name": "２丁目",
        "types": [
          "political",
          "sublocality",
          "sublocality_level_3"
        ]
      },
      {
        "long_name": "大手",
        "short_name": "大手",
        "types": [
          "political",
          "sublocality",
          "sublocality_level_2"
        ]
      },
      {
        "long_name": "小諸市",
        "short_name": "小諸市",
        "types": [
          "locality",
          "political"
        ]
      },
      {
        "long_name": "長野県",
        "short_name": "長野県",
        "types": [
          "administrative_area_level_1",
          "political"
        ]
      },
      {
        "long_name": "日本",
        "short_name": "JP",
        "types": [
          "country",
          "political"
        ]
      },
      {
        "long_name": "384-0031",
        "short_name": "384-0031",
        "types": [
          "postal_code"
        ]
      }
    ],
    "formatted_address": "日本、〒384-0031 長野県小諸市大手２丁目１−２４",
    "geometry": {
      "bounds": {
        "northeast": {
          "lat": 36.3286859,
          "lng": 138.4239828
        },
        "southwest": {
          "lat": 36.3285364,
          "lng": 138.4237599
        }
      },
      "location": {
        "lat": 36.3285986,
        "lng": 138.4238942
      },
      "location_type": "ROOFTOP",
      "viewport": {
        "northeast": {
          "lat": 36.3299875802915,
          "lng": 138.4252203302915
        },
        "southwest": {
          "lat": 36.3272896197085,
          "lng": 138.4225223697085
        }
      }
    },
    "place_id": "ChIJKzj0-LPJHWARj992FkC0n5A",
    "types": [
      "premise"
    ]
  }
]