[
  {
    "address_components": [
      {
        "long_name": "１１５２−１",
        "short_name": "１１５２−１",
        "types": [
          "premise"
        ]
      },
      {
        "long_name": "平原",
        "short_name": "平原",
        "types": [
          "political",
          "sublocality",
          "sublocality_level_2"
        ]
      },
      {
        "long_name": "小諸市",
        "short_name": "小諸市",
        "types": [
          "locality",
          "political"
        ]
      },
      {
        "long_name": "長野県",
        "short_name": "長野県",
        "types": [
          "administrative_area_level_1",
          "political"
        ]
      },
      {
        "long_name": "日本",
        "short_name": "JP",
        "types": [
          "country",
          "political"
        ]
      },
      {
        "long_name": "384-0092",
        "short_name": "384-0092",
        "types": [
          "postal_code"
        ]
      }
    ],
    "formatted_address": "日本、〒384-0092 長野県小諸市平原１１５２−１",
    "geometry": {
      "bounds": {
        "northeast": {
          "lat": 36.3139247,
          "lng": 138.4601505
        },
        "southwest": {
          "lat": 36.3136498,
          "lng": 138.4596989
        }
      },
      "location": {
        "lat": 36.31382869999999,
        "lng": 138.4599481
      },
      "location_type": "ROOFTOP",
      "viewport": {
        "northeast": {
          "lat": 36.3152231802915,
          "lng": 138.4612736802915
        },
        "southwest": {
          "lat": 36.3125252197085,
          "lng": 138.4585757197085
        }
      }
    },
    "place_id": "ChIJpw7LyV_JHWAROQ2MdVDl_wI",
    "types": [
      "premise"
    ]
  }
]