{
  "candidates": [
    {
      "business_status": "OPERATIONAL",
      "formatted_address": "日本、〒386-0323 長野県上田市鹿教湯温泉１３７４",
      "geometry": {
        "location": {
          "lat": 36.301256,
          "lng": 138.1367465
        },
        "viewport": {
          "northeast": {
            "lat": 36.30264412989272,
            "lng": 138.1380452298928
          },
          "southwest": {
            "lat": 36.29994447010728,
            "lng": 138.1353455701073
          }
        }
      },
      "icon": "https://maps.gstatic.com/mapfiles/place_api/icons/v1/png_71/lodging-71.png",
      "name": "つるや旅館",
      "photos": [
        {
          "height": 4032,
          "html_attributions": [
            "<a href=\"https://maps.google.com/maps/contrib/100439385081283545912\">Takeshi Kitahara</a>"
          ],
          "photo_reference": "Aap_uEBzMprA3bWiURMC9GvNwmaEb_fsOdIRAQxqaqxoUuHj6ee308MEz1uVPMNnJbSuBeQUHxjI2n1eOWMvBt2GKRSsJFJYrjx416P8l44ko1eMgAuEFvX1xLgFHlcxkubgSKbOkjfitONH7_qJCO0EhNTH5Y17q2W8crUSmaQtCFQsalAH",
          "width": 3024
        }
      ],
      "place_id": "ChIJcWlWs8GmHWARW8xqMNNSir8",
      "plus_code": {
        "compound_code": "842P+GM 上田市、長野県",
        "global_code": "8Q8W842P+GM"
      },
      "types": [
        "tourist_attraction",
        "cafe",
        "lodging",
        "travel_agency",
        "food",
        "point_of_interest",
        "establishment"
      ]
    },
    {
      "business_status": "OPERATIONAL",
      "formatted_address": "日本、〒386-1431 長野県上田市別所温泉２１６",
      "geometry": {
        "location": {
          "lat": 36.3488875,
          "lng": 138.1597362
        },
        "viewport": {
          "northeast": {
            "lat": 36.35039057989272,
            "lng": 138.1612413798927
          },
          "southwest": {
            "lat": 36.34769092010728,
            "lng": 138.1585417201073
          }
        }
      },
      "icon": "https://maps.gstatic.com/mapfiles/place_api/icons/v1/png_71/lodging-71.png",
      "name": "旅館つるや",
      "photos": [
        {
          "height": 2078,
          "html_attributions": [
            "<a href=\"https://maps.google.com/maps/contrib/101986622686355755380\">曽我祐人</a>"
          ],
          "photo_reference": "Aap_uEBWBlYo-Hx9PAEO1ib7RqKtKM11eV6Hv0Zzcj-KIcxtJOAPOUV01MECWEjt6SURKlYVanlFAWmCRwvtJiwoQVOMym87ILI45OB5CGyvmFuY2RepF3H00rbixyXAFihsVAEKRppTOvb0FI8eVDqpP6VDsA4hm8oC0yZjcZpaI2azeCO1",
          "width": 3692
        }
      ],
      "place_id": "ChIJTbV72WGhHWARavJby3xrYU0",
      "plus_code": {
        "compound_code": "85X5+HV 上田市、長野県",
        "global_code": "8Q8W85X5+HV"
      },
      "types": [
        "lodging",
        "point_of_interest",
        "establishment"
      ]
    }
  ],
  "status": "OK"
}