[
  {
    "address_components": [
      {
        "long_name": "３５４−３",
        "short_name": "３５４−３",
        "types": [
          "premise"
        ]
      },
      {
        "long_name": "秋和",
        "short_name": "秋和",
        "types": [
          "political",
          "sublocality",
          "sublocality_level_2"
        ]
      },
      {
        "long_name": "上田市",
        "short_name": "上田市",
        "types": [
          "locality",
          "political"
        ]
      },
      {
        "long_name": "長野県",
        "short_name": "長野県",
        "types": [
          "administrative_area_level_1",
          "political"
        ]
      },
      {
        "long_name": "日本",
        "short_name": "JP",
        "types": [
          "country",
          "political"
        ]
      },
      {
        "long_name": "386-0041",
        "short_name": "386-0041",
        "types": [
          "postal_code"
        ]
      }
    ],
    "formatted_address": "日本、〒386-0041 長野県上田市秋和３５４−３",
    "geometry": {
      "bounds": {
        "northeast": {
          "lat": 36.4158253,
          "lng": 138.2246883
        },
        "southwest": {
          "lat": 36.4153276,
          "lng": 138.2239502
        }
      },
      "location": {
        "lat": 36.4155659,
        "lng": 138.224349
      },
      "location_type": "ROOFTOP",
      "viewport": {
        "northeast": {
          "lat": 36.41686318029151,
          "lng": 138.2256682302915
        },
        "southwest": {
          "lat": 36.41416521970851,
          "lng": 138.2229702697085
        }
      }
    },
    "place_id": "ChIJ_xW6d7yiHWARzpP4c-zZ9zY",
    "types": [
      "premise"
    ]
  }
]