[
  {
    "address_components": [
      {
        "long_name": "２６０",
        "short_name": "２６０",
        "types": [
          "premise"
        ]
      },
      {
        "long_name": "上塩尻",
        "short_name": "上塩尻",
        "types": [
          "political",
          "sublocality",
          "sublocality_level_2"
        ]
      },
      {
        "long_name": "上田市",
        "short_name": "上田市",
        "types": [
          "locality",
          "political"
        ]
      },
      {
        "long_name": "長野県",
        "short_name": "長野県",
        "types": [
          "administrative_area_level_1",
          "political"
        ]
      },
      {
        "long_name": "日本",
        "short_name": "JP",
        "types": [
          "country",
          "political"
        ]
      },
      {
        "long_name": "386-0042",
        "short_name": "386-0042",
        "types": [
          "postal_code"
        ]
      }
    ],
    "formatted_address": "日本、〒386-0042 長野県上田市上塩尻２６０",
    "geometry": {
      "bounds": {
        "northeast": {
          "lat": 36.4179694,
          "lng": 138.2140014
        },
        "southwest": {
          "lat": 36.417702,
          "lng": 138.2137162
        }
      },
      "location": {
        "lat": 36.4178334,
        "lng": 138.2138178
      },
      "location_type": "ROOFTOP",
      "viewport": {
        "northeast": {
          "lat": 36.4191846802915,
          "lng": 138.2152025802915
        },
        "southwest": {
          "lat": 36.4164867197085,
          "lng": 138.2125046197085
        }
      }
    },
    "place_id": "ChIJm_eO5ZuiHWARTfPFvlG445Q",
    "types": [
      "premise"
    ]
  }
]