[
  {
    "address_components": [
      {
        "long_name": "９９１−１",
        "short_name": "９９１−１",
        "types": [
          "premise"
        ]
      },
      {
        "long_name": "上丸子",
        "short_name": "上丸子",
        "types": [
          "political",
          "sublocality",
          "sublocality_level_2"
        ]
      },
      {
        "long_name": "上田市",
        "short_name": "上田市",
        "types": [
          "locality",
          "political"
        ]
      },
      {
        "long_name": "長野県",
        "short_name": "長野県",
        "types": [
          "administrative_area_level_1",
          "political"
        ]
      },
      {
        "long_name": "日本",
        "short_name": "JP",
        "types": [
          "country",
          "political"
        ]
      },
      {
        "long_name": "386-0404",
        "short_name": "386-0404",
        "types": [
          "postal_code"
        ]
      }
    ],
    "formatted_address": "日本、〒386-0404 長野県上田市上丸子９９１−１",
    "geometry": {
      "bounds": {
        "northeast": {
          "lat": 36.3227373,
          "lng": 138.272015
        },
        "southwest": {
          "lat": 36.3226331,
          "lng": 138.2718523
        }
      },
      "location": {
        "lat": 36.3226872,
        "lng": 138.2719206
      },
      "location_type": "ROOFTOP",
      "viewport": {
        "northeast": {
          "lat": 36.32403418029151,
          "lng": 138.2732551802915
        },
        "southwest": {
          "lat": 36.32133621970851,
          "lng": 138.2705572197085
        }
      }
    },
    "place_id": "ChIJCZGkKPO6HWARDn3o8aDT28g",
    "types": [
      "premise"
    ]
  }
]