{
  "candidates": [
    {
      "formatted_address": "日本、〒386-0012 長野県上田市中央２丁目１５",
      "geometry": {
        "location": {
          "lat": 36.3988633,
          "lng": 138.2553718
        },
        "viewport": {
          "northeast": {
            "lat": 36.40023127989272,
            "lng": 138.2568112298927
          },
          "southwest": {
            "lat": 36.39753162010727,
            "lng": 138.2541115701073
          }
        }
      },
      "icon": "https://maps.gstatic.com/mapfiles/place_api/icons/v1/png_71/geocode-71.png",
      "name": "〒386-0012 長野県上田市中央２丁目１５",
      "photos": [
        {
          "height": 1640,
          "html_attributions": [
            "<a href=\"https://maps.google.com/maps/contrib/110694836836904855354\">Deep in Bag Town 酒場探検隊</a>"
          ],
          "photo_reference": "Aap_uEAWPtvzL4QBYCI5rhCH6DOns9BlxrZ3bZCMwpRzKM9t3CXzlrLv_rhHxhWoAMZo-_5i4Gd8ZlmPI2JjwX5XFmOqivRE3m8IWqyJDG9fW85zx9deXk9o8hlKPRZlZW1yma2y5RDDz0loxyLguAtF9f8FNzgZ459rcd58g-o8Z7qSZPvK",
          "width": 2380
        }
      ],
      "place_id": "ChIJRUqzady8HWARyEzRR537O_g",
      "types": [
        "sublocality_level_4",
        "sublocality",
        "political"
      ]
    },
    {
      "formatted_address": "日本、〒386-0012 長野県上田市中央３丁目１５",
      "geometry": {
        "location": {
          "lat": 36.4023616,
          "lng": 138.2556829
        },
        "viewport": {
          "northeast": {
            "lat": 36.40376007989272,
            "lng": 138.2567606298927
          },
          "southwest": {
            "lat": 36.40106042010728,
            "lng": 138.2540609701073
          }
        }
      },
      "icon": "https://maps.gstatic.com/mapfiles/place_api/icons/v1/png_71/geocode-71.png",
      "name": "〒386-0012 長野県上田市中央３丁目１５",
      "photos": [
        {
          "height": 3024,
          "html_attributions": [
            "<a href=\"https://maps.google.com/maps/contrib/109355960235336828694\">濱本高佑</a>"
          ],
          "photo_reference": "Aap_uECo5D9J7e2OMjFbPggXOgjIVQvLUCRB2iAkHs_g_RHArdOvzCmgc3YmE1b-wd7Iwk5u7eHoQArldMUXBF4wca8rKXn0BuPT-mGwn5c9ot-x9I0uqr9t2MU33m14j8jCWlg-WFTQ3ZHq17vzlNw5lFOvtUx_N68Eks18ISITcDl4HD3s",
          "width": 4032
        }
      ],
      "place_id": "ChIJL-_N3d68HWARNU_HuCHemuU",
      "types": [
        "sublocality_level_4",
        "sublocality",
        "political"
      ]
    },
    {
      "formatted_address": "日本、〒386-0012 長野県上田市中央４丁目１５",
      "geometry": {
        "location": {
          "lat": 36.4061213,
          "lng": 138.2517554
        },
        "viewport": {
          "northeast": {
            "lat": 36.40748902989272,
            "lng": 138.2531347798927
          },
          "southwest": {
            "lat": 36.40478937010727,
            "lng": 138.2504351201073
          }
        }
      },
      "icon": "https://maps.gstatic.com/mapfiles/place_api/icons/v1/png_71/geocode-71.png",
      "name": "〒386-0012 長野県上田市中央４丁目１５",
      "place_id": "ChIJrZX8Vya9HWARNAaf42VF5M8",
      "types": [
        "sublocality_level_4",
        "sublocality",
        "political"
      ]
    },
    {
      "business_status": "OPERATIONAL",
      "formatted_address": "日本、〒386-0017 長野県上田市踏入２丁目１−１４",
      "geometry": {
        "location": {
          "lat": 36.3916758,
          "lng": 138.259451
        },
        "viewport": {
          "northeast": {
            "lat": 36.39299837989272,
            "lng": 138.2607596798927
          },
          "southwest": {
            "lat": 36.39029872010727,
            "lng": 138.2580600201073
          }
        }
      },
      "icon": "https://maps.gstatic.com/mapfiles/place_api/icons/v1/png_71/generic_business-71.png",
      "name": "ユダビル",
      "place_id": "ChIJ6Y_pduq8HWARH9pD7P1qLzk",
      "plus_code": {
        "compound_code": "97R5+MQ 上田市、長野県",
        "global_code": "8Q8W97R5+MQ"
      },
      "types": [
        "point_of_interest",
        "establishment"
      ]
    },
    {
      "business_status": "OPERATIONAL",
      "formatted_address": "日本、〒386-0017 長野県上田市踏入２丁目１−１５",
      "geometry": {
        "location": {
          "lat": 36.391776,
          "lng": 138.2594223
        },
        "viewport": {
          "northeast": {
            "lat": 36.39308622989272,
            "lng": 138.2607138798927
          },
          "southwest": {
            "lat": 36.39038657010727,
            "lng": 138.2580142201073
          }
        }
      },
      "icon": "https://maps.gstatic.com/mapfiles/place_api/icons/v1/png_71/restaurant-71.png",
      "name": "マサラ キッチン",
      "photos": [
        {
          "height": 609,
          "html_attributions": [
            "<a href=\"https://maps.google.com/maps/contrib/110538951392269202782\">A Google User</a>"
          ],
          "photo_reference": "Aap_uEA2mENH2NLyfNvSK9G9bHwog0JTSZ1Xu3qbNyRIhot8dTA5aOoYfCm4J3sxrzd2lxJOhJHJcvqea_sg5vX0wlvLQcnumdwxwlK0SiMSwvyin6mXMoNM4uLvIRxOKv-EINJnOf4FV5Tc_iBpJarVkDjahc3xt8F3Y4pDb9scZlbtL9Pg",
          "width": 1080
        }
      ],
      "place_id": "ChIJbX86dOq8HWARw-gYrhbhZPo",
      "plus_code": {
        "compound_code": "97R5+PQ 上田市、長野県",
        "global_code": "8Q8W97R5+PQ"
      },
      "types": [
        "restaurant",
        "point_of_interest",
        "food",
        "establishment"
      ]
    },
    {
      "formatted_address": "日本、〒386-0012 長野県上田市中央２丁目１２",
      "geometry": {
        "location": {
          "lat": 36.399307,
          "lng": 138.2544385
        },
        "viewport": {
          "northeast": {
            "lat": 36.40073527989272,
            "lng": 138.2558025798927
          },
          "southwest": {
            "lat": 36.39803562010728,
            "lng": 138.2531029201072
          }
        }
      },
      "icon": "https://maps.gstatic.com/mapfiles/place_api/icons/v1/png_71/geocode-71.png",
      "name": "〒386-0012 長野県上田市中央２丁目１２",
      "photos": [
        {
          "height": 3024,
          "html_attributions": [
            "<a href=\"https://maps.google.com/maps/contrib/115441485890985215919\">mthr 110</a>"
          ],
          "photo_reference": "Aap_uEDKgkyN_cmaWKMJ1s0dYS65qalx83uWqOBEafQFMgcDoLmQkT2O11T9VHqMdtRQwQdv9PyiRKQHT5FGeePPhL62ciPqNdsxbLKlJrPOdev1_elzLVnCMdaI_7zuddLcvqPa9brAgJwugXkgGaxCrBIMWDI57scA72fxjx4lWXIkAR9t",
          "width": 4032
        }
      ],
      "place_id": "ChIJQXpiCNy8HWAR_cZyNLjwfCU",
      "types": [
        "sublocality_level_4",
        "sublocality",
        "political"
      ]
    },
    {
      "formatted_address": "日本、〒386-0012 長野県上田市中央２丁目２１",
      "geometry": {
        "location": {
          "lat": 36.3997621,
          "lng": 138.2573162
        },
        "viewport": {
          "northeast": {
            "lat": 36.40108162989272,
            "lng": 138.2586887298927
          },
          "southwest": {
            "lat": 36.39838197010728,
            "lng": 138.2559890701073
          }
        }
      },
      "icon": "https://maps.gstatic.com/mapfiles/place_api/icons/v1/png_71/geocode-71.png",
      "name": "〒386-0012 長野県上田市中央２丁目２１",
      "photos": [
        {
          "height": 4160,
          "html_attributions": [
            "<a href=\"https://maps.google.com/maps/contrib/102496485663553537354\">Yoshiki Tanaka</a>"
          ],
          "photo_reference": "Aap_uEBoMyaqoR9b8H6TXt1B1asJ5oZV_WC_1w8tKLCQPZRRtAP2C2b2BKbtKPqINk2NVAPnrZ9b32-wurCfqnYN3hu70pwGHtytPUx5hK-_FsKTDXirJQd25-GAiQKkWli3sMFvMIR084uLszrG15GIyajruw5BkTiwH_marZi4ttoOLIwa",
          "width": 2336
        }
      ],
      "place_id": "ChIJw7mSsN28HWARzRttJQ4ay_Y",
      "types": [
        "sublocality_level_4",
        "sublocality",
        "political"
      ]
    },
    {
      "formatted_address": "日本、〒386-0012 長野県上田市中央２丁目２３",
      "geometry": {
        "location": {
          "lat": 36.3993694,
          "lng": 138.2590273
        },
        "viewport": {
          "northeast": {
            "lat": 36.40065287989272,
            "lng": 138.2602599798927
          },
          "southwest": {
            "lat": 36.39795322010728,
            "lng": 138.2575603201073
          }
        }
      },
      "icon": "https://maps.gstatic.com/mapfiles/place_api/icons/v1/png_71/geocode-71.png",
      "name": "〒386-0012 長野県上田市中央２丁目２３",
      "place_id": "ChIJl06Ne928HWARQiA_iObuoJM",
      "types": [
        "sublocality_level_4",
        "sublocality",
        "political"
      ]
    },
    {
      "formatted_address": "日本、〒386-0012 長野県上田市中央２丁目１",
      "geometry": {
        "location": {
          "lat": 36.3999442,
          "lng": 138.2513277
        },
        "viewport": {
          "northeast": {
            "lat": 36.40128742989273,
            "lng": 138.2526631298927
          },
          "southwest": {
            "lat": 36.39858777010728,
            "lng": 138.2499634701072
          }
        }
      },
      "icon": "https://maps.gstatic.com/mapfiles/place_api/icons/v1/png_71/geocode-71.png",
      "name": "〒386-0012 長野県上田市中央２丁目１",
      "photos": [
        {
          "height": 3024,
          "html_attributions": [
            "<a href=\"https://maps.google.com/maps/contrib/113766481792509938709\">Kazuma Maki</a>"
          ],
          "photo_reference": "Aap_uECycG5Tj1pgqLu-f9IEYwFHJXUzsWayTSRr4RdwxUIgqI_L6cGyrO-2rWdwU_7k9wcS7AGQvX9JUaMi7QGP8KKd4HMfdj-sKt_8Emyp1cDWotxgSzDOAr4cgqThLwPe34wCCMgVdXK3MFFDTqbRYxrZVR511Ol-SAZKgLsMe_ML3fiK",
          "width": 4032
        }
      ],
      "place_id": "ChIJBakDo9m8HWAR0YL4urRBWtE",
      "types": [
        "sublocality_level_4",
        "sublocality",
        "political"
      ]
    },
    {
      "formatted_address": "日本、〒386-0012 長野県上田市中央２丁目１９",
      "geometry": {
        "location": {
          "lat": 36.399446,
          "lng": 138.2559162
        },
        "viewport": {
          "northeast": {
            "lat": 36.40075777989272,
            "lng": 138.2571751298927
          },
          "southwest": {
            "lat": 36.39805812010728,
            "lng": 138.2544754701073
          }
        }
      },
      "icon": "https://maps.gstatic.com/mapfiles/place_api/icons/v1/png_71/geocode-71.png",
      "name": "〒386-0012 長野県上田市中央２丁目１９",
      "place_id": "ChIJQVOxQNy8HWARMC3Ec1oeHhE",
      "types": [
        "sublocality_level_4",
        "sublocality",
        "political"
      ]
    },
    {
      "business_status": "OPERATIONAL",
      "formatted_address": "日本、〒386-0012 長野県上田市中央２丁目１−１５",
      "geometry": {
        "location": {
          "lat": 36.4000102,
          "lng": 138.2516205
        },
        "viewport": {
          "northeast": {
            "lat": 36.40133027989273,
            "lng": 138.2530364298927
          },
          "southwest": {
            "lat": 36.39863062010728,
            "lng": 138.2503367701073
          }
        }
      },
      "icon": "https://maps.gstatic.com/mapfiles/place_api/icons/v1/png_71/restaurant-71.png",
      "name": "Le Cadre",
      "photos": [
        {
          "height": 3024,
          "html_attributions": [
            "<a href=\"https://maps.google.com/maps/contrib/113766481792509938709\">Kazuma Maki</a>"
          ],
          "photo_reference": "Aap_uEBPtmDZ-2d-ruY4mlQzfVw3PmotkAG_PLCFAQ3RZkCLh_p0nLnupyOApwW4ZLLp2UM-JCzfrvXAb2qF8WP3xovWOz7o4SoM_bWRUsppqnaHXFVO_VEUvnrUa0ofydaXQairaZa27u0CE3nyQxny2kZvmXXEN2Ku_ELWUZ2tVEXYaUCB",
          "width": 4032
        }
      ],
      "place_id": "ChIJb6Waodm8HWARaGKY1YC7YEU",
      "plus_code": {
        "compound_code": "C722+2J 上田市、長野県",
        "global_code": "8Q8WC722+2J"
      },
      "types": [
        "restaurant",
        "point_of_interest",
        "food",
        "establishment"
      ]
    },
    {
      "formatted_address": "日本、〒386-0012 長野県上田市中央２丁目１０",
      "geometry": {
        "location": {
          "lat": 36.40039950000001,
          "lng": 138.2542052
        },
        "viewport": {
          "northeast": {
            "lat": 36.40174152989272,
            "lng": 138.2555065798927
          },
          "southwest": {
            "lat": 36.39904187010728,
            "lng": 138.2528069201072
          }
        }
      },
      "icon": "https://maps.gstatic.com/mapfiles/place_api/icons/v1/png_71/geocode-71.png",
      "name": "〒386-0012 長野県上田市中央２丁目１０",
      "photos": [
        {
          "height": 2976,
          "html_attributions": [
            "<a href=\"https://maps.google.com/maps/contrib/113529210939055372928\">MAKO FURU</a>"
          ],
          "photo_reference": "Aap_uEDr0644aAefrgWrjw2ILWjoBhbrhHcRLAGKJEt3gG7iJpGzw9SAoF3no6fvOKa6rz7qlK6ZftHbZh7VNDqRwBGWblTFF-SsXqNf5slEQKihmAxkoFlF-kfux6qg941ZQef8STOE38NQ6_pI-9rZf25-5UM6iIfGHyaJhFnfj2V8evGf",
          "width": 3968
        }
      ],
      "place_id": "ChIJ3ySPUtm8HWARR1JsI8v01TA",
      "types": [
        "sublocality_level_4",
        "sublocality",
        "political"
      ]
    },
    {
      "formatted_address": "日本、〒386-0012 長野県上田市中央２丁目１４",
      "geometry": {
        "location": {
          "lat": 36.3978153,
          "lng": 138.2552162
        },
        "viewport": {
          "northeast": {
            "lat": 36.39928552989272,
            "lng": 138.2564051298928
          },
          "southwest": {
            "lat": 36.39658587010728,
            "lng": 138.2537054701073
          }
        }
      },
      "icon": "https://maps.gstatic.com/mapfiles/place_api/icons/v1/png_71/geocode-71.png",
      "name": "〒386-0012 長野県上田市中央２丁目１４",
      "photos": [
        {
          "height": 3024,
          "html_attributions": [
            "<a href=\"https://maps.google.com/maps/contrib/100071363710160950602\">A Google User</a>"
          ],
          "photo_reference": "Aap_uEB1rDaAJmGIolCbHFGCTkjMYeK4vhEjRclC5W1e5iudi3OBpTrRDVlfcu0zou7cuxqdXK_NZHqzLelOIkfAo4h9ff49KBsMqCDzMNtQOXSCcrWKGD4ForldaabQzPnACLe0L0PkPMMLLhhRQQUCtz-mOXI4FaI_yswVC2mt96qgaHpV",
          "width": 4032
        }
      ],
      "place_id": "ChIJaeo3iNy8HWARzd8G0Lac-D4",
      "types": [
        "sublocality_level_4",
        "sublocality",
        "political"
      ]
    },
    {
      "formatted_address": "日本、〒386-0012 長野県上田市中央２丁目３",
      "geometry": {
        "location": {
          "lat": 36.4013606,
          "lng": 138.2521832
        },
        "viewport": {
          "northeast": {
            "lat": 36.40274012989272,
            "lng": 138.2534714298927
          },
          "southwest": {
            "lat": 36.40004047010728,
            "lng": 138.2507717701073
          }
        }
      },
      "icon": "https://maps.gstatic.com/mapfiles/place_api/icons/v1/png_71/geocode-71.png",
      "name": "〒386-0012 長野県上田市中央２丁目３",
      "photos": [
        {
          "height": 4032,
          "html_attributions": [
            "<a href=\"https://maps.google.com/maps/contrib/116093867387543434329\">Sabin Ghimire</a>"
          ],
          "photo_reference": "Aap_uEBHeNIQzSp1wO_0gSn_qKR4uHbXg-xyjQ5Z54uis6qFV1LiYuklDIKYp2-htOrEV3oIFmROIWX75txGDp6lygrxU7M60StcFFdHMipx2DF-ZfdSduqwgNHCGMZ9PxlPDXrSVYp3_cxM-_FXjpneojx9CGcyLiJUbtg2i5Bh7NeuO5JA",
          "width": 3024
        }
      ],
      "place_id": "ChIJ59aB_ti8HWARrIKiwtItuCs",
      "types": [
        "sublocality_level_4",
        "sublocality",
        "political"
      ]
    },
    {
      "formatted_address": "日本、〒386-0025 長野県上田市天神２丁目１",
      "geometry": {
        "location": {
          "lat": 36.3996378,
          "lng": 138.2466619
        },
        "viewport": {
          "northeast": {
            "lat": 36.40099147989272,
            "lng": 138.2482610798928
          },
          "southwest": {
            "lat": 36.39829182010728,
            "lng": 138.2455614201073
          }
        }
      },
      "icon": "https://maps.gstatic.com/mapfiles/place_api/icons/v1/png_71/geocode-71.png",
      "name": "〒386-0025 長野県上田市天神２丁目１",
      "photos": [
        {
          "height": 2268,
          "html_attributions": [
            "<a href=\"https://maps.google.com/maps/contrib/108706130461399516497\">akira ueda</a>"
          ],
          "photo_reference": "Aap_uECCAWWb3pVzohFKxgznxtGr_UFRFUll16Seb8W-9qLSkEQaRGZIp6BgitPlkG8O09F7jIqKoSRl3GCqsKXFkx9IH7qn8T4TLaCzWd1hd6_3ZYUvLmWmy-HPcLSxw3hvDGWdA9ylENVNMSxYvYYUCvJTsdzkDR_EpORsCVdosHmJ8jAK",
          "width": 4032
        }
      ],
      "place_id": "ChIJUf2Yste8HWARJDY_auCa5ZM",
      "types": [
        "sublocality_level_4",
        "sublocality",
        "political"
      ]
    },
    {
      "formatted_address": "日本、〒386-0012 長野県上田市中央２丁目１７",
      "geometry": {
        "location": {
          "lat": 36.3982858,
          "lng": 138.2574717
        },
        "viewport": {
          "northeast": {
            "lat": 36.39964662989272,
            "lng": 138.2589012298927
          },
          "southwest": {
            "lat": 36.39694697010728,
            "lng": 138.2562015701073
          }
        }
      },
      "icon": "https://maps.gstatic.com/mapfiles/place_api/icons/v1/png_71/geocode-71.png",
      "name": "〒386-0012 長野県上田市中央２丁目１７",
      "place_id": "ChIJl0XZEN28HWARk0ZJWZ-Jyj0",
      "types": [
        "sublocality_level_4",
        "sublocality",
        "political"
      ]
    },
    {
      "formatted_address": "日本、〒386-0012 長野県上田市中央６丁目２",
      "geometry": {
        "location": {
          "lat": 36.40275940000001,
          "lng": 138.2566162
        },
        "viewport": {
          "northeast": {
            "lat": 36.40408012989272,
            "lng": 138.2578677798928
          },
          "southwest": {
            "lat": 36.40138047010728,
            "lng": 138.2551681201073
          }
        }
      },
      "icon": "https://maps.gstatic.com/mapfiles/place_api/icons/v1/png_71/geocode-71.png",
      "name": "〒386-0012 長野県上田市中央６丁目２",
      "place_id": "ChIJmeRz-d68HWARIMAGrEXxHvs",
      "types": [
        "sublocality_level_4",
        "sublocality",
        "political"
      ]
    },
    {
      "formatted_address": "日本、〒386-0012 長野県上田市中央２丁目１８",
      "geometry": {
        "location": {
          "lat": 36.39909790000001,
          "lng": 138.2572384
        },
        "viewport": {
          "northeast": {
            "lat": 36.40031677989272,
            "lng": 138.2585395298927
          },
          "southwest": {
            "lat": 36.39761712010728,
            "lng": 138.2558398701073
          }
        }
      },
      "icon": "https://maps.gstatic.com/mapfiles/place_api/icons/v1/png_71/geocode-71.png",
      "name": "〒386-0012 長野県上田市中央２丁目１８",
      "place_id": "ChIJs0PDqd28HWARyB1TKEqc6U0",
      "types": [
        "sublocality_level_4",
        "sublocality",
        "political"
      ]
    },
    {
      "formatted_address": "日本、〒386-0012 長野県上田市中央２丁目１６",
      "geometry": {
        "location": {
          "lat": 36.3985522,
          "lng": 138.2566162
        },
        "viewport": {
          "northeast": {
            "lat": 36.39996162989272,
            "lng": 138.2578852798927
          },
          "southwest": {
            "lat": 36.39726197010728,
            "lng": 138.2551856201073
          }
        }
      },
      "icon": "https://maps.gstatic.com/mapfiles/place_api/icons/v1/png_71/geocode-71.png",
      "name": "〒386-0012 長野県上田市中央２丁目１６",
      "photos": [
        {
          "height": 3456,
          "html_attributions": [
            "<a href=\"https://maps.google.com/maps/contrib/115050376620114779489\">DO M</a>"
          ],
          "photo_reference": "Aap_uEC4kzqRsaBmx-o-zCW7EBf9cK6w8AkjPeMoNSotp1n1qBnEWrfdd6LimQ5H7_o3uKiC7sKWtsIOmfUY4oAgR72UjOZSzTTjBSLTiZji9VDGYTRifucZTrsIXZef1qChaoL0nkv74xh57I8RaKWpB9D9T7OvQUvqvR8NPbylf19CJnTb",
          "width": 4608
        }
      ],
      "place_id": "ChIJqbxE_9y8HWARa0x7B-Tavww",
      "types": [
        "sublocality_level_4",
        "sublocality",
        "political"
      ]
    },
    {
      "formatted_address": "日本、〒386-0012 長野県上田市中央２丁目２２",
      "geometry": {
        "location": {
          "lat": 36.3998934,
          "lng": 138.259105
        },
        "viewport": {
          "northeast": {
            "lat": 36.40121252989272,
            "lng": 138.2603410298927
          },
          "southwest": {
            "lat": 36.39851287010728,
            "lng": 138.2576413701073
          }
        }
      },
      "icon": "https://maps.gstatic.com/mapfiles/place_api/icons/v1/png_71/geocode-71.png",
      "name": "〒386-0012 長野県上田市中央２丁目２２",
      "photos": [
        {
          "height": 2448,
          "html_attributions": [
            "<a href=\"https://maps.google.com/maps/contrib/118363906290587889686\">A Google User</a>"
          ],
          "photo_reference": "Aap_uEB3PNAcL1rWcXi1ojpVXABKt--aeruIqvNGXDdRF150JESajSJSyes3HQSIpZtXVQcXBe2LYdXzfZxcDmFb075ERgNQr6_Dw1RpTlQ4_q3p5lYS9-4VLxX9OawvsU2uqF9QJBmysszwkAhAf2Mj8nZEkZiqSGqdpcTECCn9zDOehlzF",
          "width": 3264
        }
      ],
      "place_id": "ChIJpyJwgd28HWARouFB6Y6BoHU",
      "types": [
        "sublocality_level_4",
        "sublocality",
        "political"
      ]
    },
    {
      "formatted_address": "日本、〒386-0018 長野県上田市常田２丁目１",
      "geometry": {
        "location": {
          "lat": 36.3952476,
          "lng": 138.2541274
        },
        "viewport": {
          "northeast": {
            "lat": 36.39633107989272,
            "lng": 138.2558251798927
          },
          "southwest": {
            "lat": 36.39363142010728,
            "lng": 138.2531255201073
          }
        }
      },
      "icon": "https://maps.gstatic.com/mapfiles/place_api/icons/v1/png_71/geocode-71.png",
      "name": "〒386-0018 長野県上田市常田２丁目１",
      "photos": [
        {
          "height": 717,
          "html_attributions": [
            "<a href=\"https://maps.google.com/maps/contrib/108246152219822632224\">Yoshikazu Ishihata</a>"
          ],
          "photo_reference": "Aap_uECg8jyFp1ckux7uIffDY6gGCInVKmHbyno1JdSWoHS966NV7Pjtbjl-dBxn9Uq0oCt5xIL2VwIn2q7-GQfYHPMGcb5ZYEbGu7qH0KcJaxdQO4SO_eFJ9ziHtAyDIyI2uYhn9ecyULwBIFy0rYlWDCU8ERrXWRg8iTRwRPk_KJqUdvuD",
          "width": 2500
        }
      ],
      "place_id": "ChIJJdvyV8O8HWARH8SVtIgvT5w",
      "types": [
        "sublocality_level_4",
        "sublocality",
        "political"
      ]
    },
    {
      "business_status": "OPERATIONAL",
      "formatted_address": "日本、〒386-1323 長野県上田市本郷６１１−１５",
      "geometry": {
        "location": {
          "lat": 36.3612079,
          "lng": 138.1993428
        },
        "viewport": {
          "northeast": {
            "lat": 36.36255627989272,
            "lng": 138.2006979298927
          },
          "southwest": {
            "lat": 36.35985662010727,
            "lng": 138.1979982701073
          }
        }
      },
      "icon": "https://maps.gstatic.com/mapfiles/place_api/icons/v1/png_71/generic_business-71.png",
      "name": "プレジデント・ホーム",
      "place_id": "ChIJ3WQa15-jHWARYQTrTVt8PQM",
      "plus_code": {
        "compound_code": "956X+GP 上田市、長野県",
        "global_code": "8Q8W956X+GP"
      },
      "types": [
        "real_estate_agency",
        "point_of_interest",
        "establishment"
      ]
    },
    {
      "formatted_address": "日本、〒386-0012 長野県上田市中央６丁目１",
      "geometry": {
        "location": {
          "lat": 36.4013723,
          "lng": 138.255994
        },
        "viewport": {
          "northeast": {
            "lat": 36.40273332989272,
            "lng": 138.2573123798927
          },
          "southwest": {
            "lat": 36.40003367010728,
            "lng": 138.2546127201073
          }
        }
      },
      "icon": "https://maps.gstatic.com/mapfiles/place_api/icons/v1/png_71/geocode-71.png",
      "name": "〒386-0012 長野県上田市中央６丁目１",
      "photos": [
        {
          "height": 2448,
          "html_attributions": [
            "<a href=\"https://maps.google.com/maps/contrib/110858062868661335496\">mana</a>"
          ],
          "photo_reference": "Aap_uEDRDodMLINGytAulgyX_GVrsX5RZye1nLzjpOlT2mhVF4sa2cvlEnPwWctxmOxMQw4RbZARqpfQJUkrGMlm_FeG_t8erG8HAst2E83ChHu5acLSBqvWL5a2CpChupX1DTSH-YFFGjaA2syD_lq2YNvH6xGG-qVa-4MJHxm4nYpktttb",
          "width": 3264
        }
      ],
      "place_id": "ChIJwTwQkd68HWARnlcMCuhT-10",
      "types": [
        "sublocality_level_4",
        "sublocality",
        "political"
      ]
    },
    {
      "formatted_address": "日本、〒386-0012 長野県上田市中央６丁目１０",
      "geometry": {
        "location": {
          "lat": 36.4038049,
          "lng": 138.2597273
        },
        "viewport": {
          "northeast": {
            "lat": 36.40505757989272,
            "lng": 138.2610502798927
          },
          "southwest": {
            "lat": 36.40235792010728,
            "lng": 138.2583506201073
          }
        }
      },
      "icon": "https://maps.gstatic.com/mapfiles/place_api/icons/v1/png_71/geocode-71.png",
      "name": "〒386-0012 長野県上田市中央６丁目１０",
      "place_id": "ChIJBde3m-C8HWARlc5gA0TemAI",
      "types": [
        "sublocality_level_4",
        "sublocality",
        "political"
      ]
    },
    {
      "formatted_address": "日本、〒386-0012 長野県上田市中央２丁目５",
      "geometry": {
        "location": {
          "lat": 36.4004746,
          "lng": 138.252572
        },
        "viewport": {
          "northeast": {
            "lat": 36.40169757989272,
            "lng": 138.2539103798927
          },
          "southwest": {
            "lat": 36.39899792010727,
            "lng": 138.2512107201073
          }
        }
      },
      "icon": "https://maps.gstatic.com/mapfiles/place_api/icons/v1/png_71/geocode-71.png",
      "name": "〒386-0012 長野県上田市中央２丁目５",
      "photos": [
        {
          "height": 1080,
          "html_attributions": [
            "<a href=\"https://maps.google.com/maps/contrib/117402414608156490705\">佐々木和郎</a>"
          ],
          "photo_reference": "Aap_uEDW1W48Iev4_82b-0CGhmSFRxS5jNVqU0-TMor8GYZzOV7uKgT3rZ5B4YsLv88JIXi1OR4pAW4CPA0m_lYDqIRkvUxZJuynxtYCvo5FdU6OU0O5nKXh85Bfk0RkhWWOkV4_6tYVnx4_O16KZ4Y79C_Z1n7qxvj0_nva5CREZD1wCKD7",
          "width": 1920
        }
      ],
      "place_id": "ChIJL2PQEtm8HWARPH9tsuFRNKQ",
      "types": [
        "sublocality_level_4",
        "sublocality",
        "political"
      ]
    },
    {
      "business_status": "OPERATIONAL",
      "formatted_address": "日本、〒386-1102 長野県上田市上田原８７７−１",
      "geometry": {
        "location": {
          "lat": 36.3916313,
          "lng": 138.2280757
        },
        "viewport": {
          "northeast": {
            "lat": 36.39304992989272,
            "lng": 138.2293932798927
          },
          "southwest": {
            "lat": 36.39035027010728,
            "lng": 138.2266936201073
          }
        }
      },
      "icon": "https://maps.gstatic.com/mapfiles/place_api/icons/v1/png_71/generic_business-71.png",
      "name": "ミニミニFC 上田原店",
      "photos": [
        {
          "height": 1365,
          "html_attributions": [
            "<a href=\"https://maps.google.com/maps/contrib/116773281567545177865\">A Google User</a>"
          ],
          "photo_reference": "Aap_uEAmQiUXbomxJ9INxOrhXqfkDX-q5o_rkr5MF-QfeZnQMo7gRQnbquOI4wgdK8yncqszR_8M3ZEE7FjJpyT2plDCHpF7xqy1nY9LYDZbhktqNzVrSKf03SsQKuf5eQ_GSuUvcw7m2gbmRwns8IgFnWK04j8z-PpEYOgYK9AdWBYyHDqu",
          "width": 2048
        }
      ],
      "place_id": "ChIJ-bXpySejHWARzLt1YheQPus",
      "plus_code": {
        "compound_code": "96RH+M7 上田市、長野県",
        "global_code": "8Q8W96RH+M7"
      },
      "types": [
        "real_estate_agency",
        "point_of_interest",
        "establishment"
      ]
    },
    {
      "formatted_address": "日本、〒386-0012 長野県上田市中央６丁目１１",
      "geometry": {
        "location": {
          "lat": 36.4028309,
          "lng": 138.2594162
        },
        "viewport": {
          "northeast": {
            "lat": 36.40429627989272,
            "lng": 138.2609081798927
          },
          "southwest": {
            "lat": 36.40159662010728,
            "lng": 138.2582085201073
          }
        }
      },
      "icon": "https://maps.gstatic.com/mapfiles/place_api/icons/v1/png_71/geocode-71.png",
      "name": "〒386-0012 長野県上田市中央６丁目１１",
      "place_id": "ChIJqaKepuC8HWARY81VASbH52E",
      "types": [
        "sublocality_level_4",
        "sublocality",
        "political"
      ]
    },
    {
      "formatted_address": "日本、〒386-0012 長野県上田市中央２丁目２４",
      "geometry": {
        "location": {
          "lat": 36.3989194,
          "lng": 138.2587939
        },
        "viewport": {
          "northeast": {
            "lat": 36.40020312989272,
            "lng": 138.2601430798927
          },
          "southwest": {
            "lat": 36.39750347010728,
            "lng": 138.2574434201073
          }
        }
      },
      "icon": "https://maps.gstatic.com/mapfiles/place_api/icons/v1/png_71/geocode-71.png",
      "name": "〒386-0012 長野県上田市中央２丁目２４",
      "photos": [
        {
          "height": 3024,
          "html_attributions": [
            "<a href=\"https://maps.google.com/maps/contrib/117795088623183126024\">A Google User</a>"
          ],
          "photo_reference": "Aap_uEA4V01-tjCak8yD940NxVLuSyyPMdBqB7Q_H5ZRSMptjU8EkBpIAFH7UAWE7GDb80jODynGA8NHASQW6xjWJflcgfwfdUKNzvdIArwjWAJoP8nKgoUw5dFINjFfyHqIprFolHfeDVYHsbdZqn9SJIq0lZXVL8AvskZ-rBnB6vkr6APg",
          "width": 4032
        }
      ],
      "place_id": "ChIJ9ymyZd28HWARTHB3hDJ4VL0",
      "types": [
        "sublocality_level_4",
        "sublocality",
        "political"
      ]
    },
    {
      "formatted_address": "日本、〒386-0012 長野県上田市中央５丁目２",
      "geometry": {
        "location": {
          "lat": 36.406149,
          "lng": 138.2542052
        },
        "viewport": {
          "northeast": {
            "lat": 36.40760487989272,
            "lng": 138.2555930298927
          },
          "southwest": {
            "lat": 36.40490522010728,
            "lng": 138.2528933701073
          }
        }
      },
      "icon": "https://maps.gstatic.com/mapfiles/place_api/icons/v1/png_71/geocode-71.png",
      "name": "〒386-0012 長野県上田市中央５丁目２",
      "photos": [
        {
          "height": 4000,
          "html_attributions": [
            "<a href=\"https://maps.google.com/maps/contrib/112972801854290092382\">styleplusone</a>"
          ],
          "photo_reference": "Aap_uECuqlSXpxbmqQVbeSHdxv7AMSaRzPIUumgu5y2jkc3Z7y8F64tziEZcCm1gvI9OLCc5PilphsqzAVjEzn5DBZ0O5dAJTUchBAH4CrrgSrILndnfSEYzNKk2K8PAaaIap2RoIJ1MHnCIAuBsxjT7FIEcZbJVguyPxp_tiuHVlwUKePW6",
          "width": 6000
        }
      ],
      "place_id": "ChIJ7YnHLCe9HWARV811B6M8UYE",
      "types": [
        "sublocality_level_4",
        "sublocality",
        "political"
      ]
    },
    {
      "business_status": "OPERATIONAL",
      "formatted_address": "日本、〒386-0014 長野県上田市材木町２丁目３−３ 1f 野村ビル",
      "geometry": {
        "location": {
          "lat": 36.3996726,
          "lng": 138.2640733
        },
        "viewport": {
          "northeast": {
            "lat": 36.40098212989272,
            "lng": 138.2653363298927
          },
          "southwest": {
            "lat": 36.39828247010728,
            "lng": 138.2626366701073
          }
        }
      },
      "icon": "https://maps.gstatic.com/mapfiles/place_api/icons/v1/png_71/generic_business-71.png",
      "name": "ミニミニFC上田店",
      "photos": [
        {
          "height": 1366,
          "html_attributions": [
            "<a href=\"https://maps.google.com/maps/contrib/111004784700150558068\">A Google User</a>"
          ],
          "photo_reference": "Aap_uECtA4wYvtC_eaai2Ikd_-2d8EqqG3eeW4hwfA2ylyWCui2J3dYuLer6z_5QryazauzRFXkLorB0wI-mWTVDc7kczLNff_gNoRJiHYN6Bx4g6a0USbw5OsgKtvg1BzhU5EGwEguynQm6YG7ZwSFezWDYXyke7ozLkcFkx1YORUCuNvAM",
          "width": 2048
        }
      ],
      "place_id": "ChIJDXq0Aea8HWARfVg1R9nVmfo",
      "plus_code": {
        "compound_code": "97X7+VJ 上田市、長野県",
        "global_code": "8Q8W97X7+VJ"
      },
      "types": [
        "real_estate_agency",
        "point_of_interest",
        "establishment"
      ]
    }
  ],
  "status": "OK"
}