[
  {
    "address_components": [
      {
        "long_name": "２６",
        "short_name": "２６",
        "types": [
          "premise"
        ]
      },
      {
        "long_name": "５",
        "short_name": "５",
        "types": [
          "political",
          "sublocality",
          "sublocality_level_4"
        ]
      },
      {
        "long_name": "３丁目",
        "short_name": "３丁目",
        "types": [
          "political",
          "sublocality",
          "sublocality_level_3"
        ]
      },
      {
        "long_name": "常田",
        "short_name": "常田",
        "types": [
          "political",
          "sublocality",
          "sublocality_level_2"
        ]
      },
      {
        "long_name": "上田市",
        "short_name": "上田市",
        "types": [
          "locality",
          "political"
        ]
      },
      {
        "long_name": "長野県",
        "short_name": "長野県",
        "types": [
          "administrative_area_level_1",
          "political"
        ]
      },
      {
        "long_name": "日本",
        "short_name": "JP",
        "types": [
          "country",
          "political"
        ]
      },
      {
        "long_name": "386-0018",
        "short_name": "386-0018",
        "types": [
          "postal_code"
        ]
      }
    ],
    "formatted_address": "日本、〒386-0018 長野県上田市常田３丁目５−２６",
    "geometry": {
      "bounds": {
        "northeast": {
          "lat": 36.3952967,
          "lng": 138.2648484
        },
        "southwest": {
          "lat": 36.3952252,
          "lng": 138.2645428
        }
      },
      "location": {
        "lat": 36.3952544,
        "lng": 138.2646957
      },
      "location_type": "ROOFTOP",
      "viewport": {
        "northeast": {
          "lat": 36.3966460302915,
          "lng": 138.2660772802915
        },
        "southwest": {
          "lat": 36.39394806970851,
          "lng": 138.2633793197085
        }
      }
    },
    "place_id": "ChIJXSP-Auy8HWARzFEaKynRFAw",
    "types": [
      "premise"
    ]
  }
]