{
  "candidates": [
    {
      "business_status": "OPERATIONAL",
      "formatted_address": "日本、〒386-0322 長野県上田市西内１２５８",
      "geometry": {
        "location": {
          "lat": 36.303755,
          "lng": 138.1364095
        },
        "viewport": {
          "northeast": {
            "lat": 36.30504092989272,
            "lng": 138.1377490298927
          },
          "southwest": {
            "lat": 36.30234127010728,
            "lng": 138.1350493701073
          }
        }
      },
      "icon": "https://maps.gstatic.com/mapfiles/place_api/icons/v1/png_71/lodging-71.png",
      "name": "大江戸温泉物語 鹿教湯・藤館",
      "photos": [
        {
          "height": 1000,
          "html_attributions": [
            "<a href=\"https://maps.google.com/maps/contrib/111826473723113914846\">大江戸温泉物語 鹿教湯藤館・桜館</a>"
          ],
          "photo_reference": "Aap_uEC7E_I2vgSyumtuLfvCarvZ9h-COc5ClDgedKhsWQoCsiT1Y1YNQ9JlQy2gUTjX4C5M8BCW0b_HTI8R9K8e8Qo-XTdzk6ikhOqNf7K0cwrdZJOO1vlkLpfo8Tw3JZC8tuL61thFu4hPHWUgF0eShrmz_-zA6A9xc8jj0eRTuVq4WrRg",
          "width": 1500
        }
      ],
      "place_id": "ChIJR-Q3P8GmHWARy_a5F5X_plg",
      "plus_code": {
        "compound_code": "843P+GG 上田市、長野県",
        "global_code": "8Q8W843P+GG"
      },
      "types": [
        "lodging",
        "point_of_interest",
        "establishment"
      ]
    },
    {
      "business_status": "OPERATIONAL",
      "formatted_address": "日本、〒386-0322 長野県上田市西内１１６０",
      "geometry": {
        "location": {
          "lat": 36.30559,
          "lng": 138.137119
        },
        "viewport": {
          "northeast": {
            "lat": 36.30688642989271,
            "lng": 138.1385994798927
          },
          "southwest": {
            "lat": 36.30418677010727,
            "lng": 138.1358998201073
          }
        }
      },
      "icon": "https://maps.gstatic.com/mapfiles/place_api/icons/v1/png_71/lodging-71.png",
      "name": "鹿教湯温泉 大江戸温泉物語 桜館",
      "photos": [
        {
          "height": 3024,
          "html_attributions": [
            "<a href=\"https://maps.google.com/maps/contrib/104494201400880126186\">上坂尚己</a>"
          ],
          "photo_reference": "Aap_uEA-HmaIxOWdTv-Mqlg2Da1ktxqeBMao3zjav8sP2SbFA-baaoALaGnG7T4dHC_VcT4JwoTnOnuV47GPxdoPuep-uxYdPpQiFxVY-RmEx8Vg8prn6QYRJ35oaFFUG2WzRxyz_uGG_L0Mmfc1ZmgFJ23MurMjEvmLbtLf0NvyTKtaGvYD",
          "width": 4032
        }
      ],
      "place_id": "ChIJR-Q3P8GmHWARlqNFUpmhmME",
      "plus_code": {
        "compound_code": "844P+6R 上田市、長野県",
        "global_code": "8Q8W844P+6R"
      },
      "types": [
        "lodging",
        "point_of_interest",
        "establishment"
      ]
    }
  ],
  "status": "OK"
}