[
  {
    "address_components": [
      {
        "long_name": "７１０−２",
        "short_name": "７１０−２",
        "types": [
          "premise"
        ]
      },
      {
        "long_name": "前山",
        "short_name": "前山",
        "types": [
          "political",
          "sublocality",
          "sublocality_level_2"
        ]
      },
      {
        "long_name": "上田市",
        "short_name": "上田市",
        "types": [
          "locality",
          "political"
        ]
      },
      {
        "long_name": "長野県",
        "short_name": "長野県",
        "types": [
          "administrative_area_level_1",
          "political"
        ]
      },
      {
        "long_name": "日本",
        "short_name": "JP",
        "types": [
          "country",
          "political"
        ]
      },
      {
        "long_name": "386-1436",
        "short_name": "386-1436",
        "types": [
          "postal_code"
        ]
      }
    ],
    "formatted_address": "日本、〒386-1436 長野県上田市前山７１０−２",
    "geometry": {
      "bounds": {
        "northeast": {
          "lat": 36.348576,
          "lng": 138.193566
        },
        "southwest": {
          "lat": 36.3483736,
          "lng": 138.1933674
        }
      },
      "location": {
        "lat": 36.3485078,
        "lng": 138.1934605
      },
      "location_type": "ROOFTOP",
      "viewport": {
        "northeast": {
          "lat": 36.34982378029149,
          "lng": 138.1950605802915
        },
        "southwest": {
          "lat": 36.34712581970849,
          "lng": 138.1923626197085
        }
      }
    },
    "place_id": "ChIJraJQaoSjHWARgeC39T63MZc",
    "types": [
      "premise"
    ]
  }
]