[
  {
    "address_components": [
      {
        "long_name": "４",
        "short_name": "４",
        "types": [
          "premise"
        ]
      },
      {
        "long_name": "２４",
        "short_name": "２４",
        "types": [
          "political",
          "sublocality",
          "sublocality_level_4"
        ]
      },
      {
        "long_name": "２丁目",
        "short_name": "２丁目",
        "types": [
          "political",
          "sublocality",
          "sublocality_level_3"
        ]
      },
      {
        "long_name": "中央",
        "short_name": "中央",
        "types": [
          "political",
          "sublocality",
          "sublocality_level_2"
        ]
      },
      {
        "long_name": "上田市",
        "short_name": "上田市",
        "types": [
          "locality",
          "political"
        ]
      },
      {
        "long_name": "長野県",
        "short_name": "長野県",
        "types": [
          "administrative_area_level_1",
          "political"
        ]
      },
      {
        "long_name": "日本",
        "short_name": "JP",
        "types": [
          "country",
          "political"
        ]
      },
      {
        "long_name": "386-0012",
        "short_name": "386-0012",
        "types": [
          "postal_code"
        ]
      }
    ],
    "formatted_address": "日本、〒386-0012 長野県上田市中央２丁目２４−４",
    "geometry": {
      "bounds": {
        "northeast": {
          "lat": 36.3992446,
          "lng": 138.258489
        },
        "southwest": {
          "lat": 36.3991035,
          "lng": 138.2582467
        }
      },
      "location": {
        "lat": 36.3991836,
        "lng": 138.2583856
      },
      "location_type": "ROOFTOP",
      "viewport": {
        "northeast": {
          "lat": 36.4005230302915,
          "lng": 138.2596878802915
        },
        "southwest": {
          "lat": 36.3978250697085,
          "lng": 138.2569899197085
        }
      }
    },
    "place_id": "ChIJPcEydN28HWARcppAR7hJwCI",
    "types": [
      "premise"
    ]
  }
]