[
  {
    "address_components": [
      {
        "long_name": "１２",
        "short_name": "１２",
        "types": [
          "premise"
        ]
      },
      {
        "long_name": "１０",
        "short_name": "１０",
        "types": [
          "political",
          "sublocality",
          "sublocality_level_4"
        ]
      },
      {
        "long_name": "３丁目",
        "short_name": "３丁目",
        "types": [
          "political",
          "sublocality",
          "sublocality_level_3"
        ]
      },
      {
        "long_name": "中央",
        "short_name": "中央",
        "types": [
          "political",
          "sublocality",
          "sublocality_level_2"
        ]
      },
      {
        "long_name": "上田市",
        "short_name": "上田市",
        "types": [
          "locality",
          "political"
        ]
      },
      {
        "long_name": "長野県",
        "short_name": "長野県",
        "types": [
          "administrative_area_level_1",
          "political"
        ]
      },
      {
        "long_name": "日本",
        "short_name": "JP",
        "types": [
          "country",
          "political"
        ]
      },
      {
        "long_name": "386-0012",
        "short_name": "386-0012",
        "types": [
          "postal_code"
        ]
      }
    ],
    "formatted_address": "日本、〒386-0012 長野県上田市中央３丁目１０−１２",
    "geometry": {
      "bounds": {
        "northeast": {
          "lat": 36.400822,
          "lng": 138.2547687
        },
        "southwest": {
          "lat": 36.4006274,
          "lng": 138.2544846
        }
      },
      "location": {
        "lat": 36.4006943,
        "lng": 138.2546913
      },
      "location_type": "ROOFTOP",
      "viewport": {
        "northeast": {
          "lat": 36.4020729302915,
          "lng": 138.2559756302915
        },
        "southwest": {
          "lat": 36.3993749697085,
          "lng": 138.2532776697085
        }
      }
    },
    "place_id": "ChIJhy4qst68HWAR47E0klfofDM",
    "types": [
      "premise"
    ]
  }
]