[
  {
    "address_components": [
      {
        "long_name": "６",
        "short_name": "６",
        "types": [
          "premise"
        ]
      },
      {
        "long_name": "７",
        "short_name": "７",
        "types": [
          "political",
          "sublocality",
          "sublocality_level_4"
        ]
      },
      {
        "long_name": "３丁目",
        "short_name": "３丁目",
        "types": [
          "political",
          "sublocality",
          "sublocality_level_3"
        ]
      },
      {
        "long_name": "中央",
        "short_name": "中央",
        "types": [
          "political",
          "sublocality",
          "sublocality_level_2"
        ]
      },
      {
        "long_name": "上田市",
        "short_name": "上田市",
        "types": [
          "locality",
          "political"
        ]
      },
      {
        "long_name": "長野県",
        "short_name": "長野県",
        "types": [
          "administrative_area_level_1",
          "political"
        ]
      },
      {
        "long_name": "日本",
        "short_name": "JP",
        "types": [
          "country",
          "political"
        ]
      },
      {
        "long_name": "386-0012",
        "short_name": "386-0012",
        "types": [
          "postal_code"
        ]
      }
    ],
    "formatted_address": "日本、〒386-0012 長野県上田市中央３丁目７−６",
    "geometry": {
      "bounds": {
        "northeast": {
          "lat": 36.4034341,
          "lng": 138.2537172
        },
        "southwest": {
          "lat": 36.4033575,
          "lng": 138.2535252
        }
      },
      "location": {
        "lat": 36.4033984,
        "lng": 138.2536122
      },
      "location_type": "ROOFTOP",
      "viewport": {
        "northeast": {
          "lat": 36.4047472802915,
          "lng": 138.2549285802915
        },
        "southwest": {
          "lat": 36.4020493197085,
          "lng": 138.2522306197085
        }
      }
    },
    "place_id": "ChIJldRxuti8HWAR6Zj2N4Vkc3w",
    "types": [
      "premise"
    ]
  }
]