[
  {
    "address_components": [
      {
        "long_name": "４",
        "short_name": "４",
        "types": [
          "premise"
        ]
      },
      {
        "long_name": "８",
        "short_name": "８",
        "types": [
          "political",
          "sublocality",
          "sublocality_level_4"
        ]
      },
      {
        "long_name": "４丁目",
        "short_name": "４丁目",
        "types": [
          "political",
          "sublocality",
          "sublocality_level_3"
        ]
      },
      {
        "long_name": "中央",
        "short_name": "中央",
        "types": [
          "political",
          "sublocality",
          "sublocality_level_2"
        ]
      },
      {
        "long_name": "上田市",
        "short_name": "上田市",
        "types": [
          "locality",
          "political"
        ]
      },
      {
        "long_name": "長野県",
        "short_name": "長野県",
        "types": [
          "administrative_area_level_1",
          "political"
        ]
      },
      {
        "long_name": "日本",
        "short_name": "JP",
        "types": [
          "country",
          "political"
        ]
      },
      {
        "long_name": "386-0012",
        "short_name": "386-0012",
        "types": [
          "postal_code"
        ]
      }
    ],
    "formatted_address": "日本、〒386-0012 長野県上田市中央４丁目８−４",
    "geometry": {
      "bounds": {
        "northeast": {
          "lat": 36.4049511,
          "lng": 138.2532483
        },
        "southwest": {
          "lat": 36.4048787,
          "lng": 138.2531481
        }
      },
      "location": {
        "lat": 36.4049209,
        "lng": 138.2531747
      },
      "location_type": "ROOFTOP",
      "viewport": {
        "northeast": {
          "lat": 36.4062638802915,
          "lng": 138.2545103802915
        },
        "southwest": {
          "lat": 36.4035659197085,
          "lng": 138.2518124197085
        }
      }
    },
    "place_id": "ChIJEZIAQSe9HWAR94V7KiSH1Yk",
    "types": [
      "premise"
    ]
  }
]