[
  {
    "address_components": [
      {
        "long_name": "８",
        "short_name": "８",
        "types": [
          "premise"
        ]
      },
      {
        "long_name": "９",
        "short_name": "９",
        "types": [
          "political",
          "sublocality",
          "sublocality_level_4"
        ]
      },
      {
        "long_name": "４丁目",
        "short_name": "４丁目",
        "types": [
          "political",
          "sublocality",
          "sublocality_level_3"
        ]
      },
      {
        "long_name": "中央",
        "short_name": "中央",
        "types": [
          "political",
          "sublocality",
          "sublocality_level_2"
        ]
      },
      {
        "long_name": "上田市",
        "short_name": "上田市",
        "types": [
          "locality",
          "political"
        ]
      },
      {
        "long_name": "長野県",
        "short_name": "長野県",
        "types": [
          "administrative_area_level_1",
          "political"
        ]
      },
      {
        "long_name": "日本",
        "short_name": "JP",
        "types": [
          "country",
          "political"
        ]
      },
      {
        "long_name": "386-0012",
        "short_name": "386-0012",
        "types": [
          "postal_code"
        ]
      }
    ],
    "formatted_address": "日本、〒386-0012 長野県上田市中央４丁目９−８",
    "geometry": {
      "bounds": {
        "northeast": {
          "lat": 36.4065709,
          "lng": 138.2534159
        },
        "southwest": {
          "lat": 36.4063862,
          "lng": 138.2532137
        }
      },
      "location": {
        "lat": 36.4065039,
        "lng": 138.2533108
      },
      "location_type": "ROOFTOP",
      "viewport": {
        "northeast": {
          "lat": 36.4078275302915,
          "lng": 138.2546562302915
        },
        "southwest": {
          "lat": 36.4051295697085,
          "lng": 138.2519582697085
        }
      }
    },
    "place_id": "ChIJQdm63ia9HWAR82igYZsHHIo",
    "types": [
      "premise"
    ]
  }
]