[
  {
    "address_components": [
      {
        "long_name": "１０",
        "short_name": "１０",
        "types": [
          "premise"
        ]
      },
      {
        "long_name": "８",
        "short_name": "８",
        "types": [
          "political",
          "sublocality",
          "sublocality_level_4"
        ]
      },
      {
        "long_name": "２丁目",
        "short_name": "２丁目",
        "types": [
          "political",
          "sublocality",
          "sublocality_level_3"
        ]
      },
      {
        "long_name": "中央北",
        "short_name": "中央北",
        "types": [
          "political",
          "sublocality",
          "sublocality_level_2"
        ]
      },
      {
        "long_name": "上田市",
        "short_name": "上田市",
        "types": [
          "locality",
          "political"
        ]
      },
      {
        "long_name": "長野県",
        "short_name": "長野県",
        "types": [
          "administrative_area_level_1",
          "political"
        ]
      },
      {
        "long_name": "日本",
        "short_name": "JP",
        "types": [
          "country",
          "political"
        ]
      },
      {
        "long_name": "386-0011",
        "short_name": "386-0011",
        "types": [
          "postal_code"
        ]
      }
    ],
    "formatted_address": "日本、〒386-0011 長野県上田市中央北２丁目８−１０",
    "geometry": {
      "bounds": {
        "northeast": {
          "lat": 36.4106631,
          "lng": 138.2540604
        },
        "southwest": {
          "lat": 36.4105465,
          "lng": 138.253956
        }
      },
      "location": {
        "lat": 36.4105975,
        "lng": 138.2539913
      },
      "location_type": "ROOFTOP",
      "viewport": {
        "northeast": {
          "lat": 36.41190458029149,
          "lng": 138.2553571802915
        },
        "southwest": {
          "lat": 36.40920661970849,
          "lng": 138.2526592197085
        }
      }
    },
    "place_id": "ChIJVQB6eSS9HWARaI-tOLm_azc",
    "types": [
      "premise"
    ]
  }
]