[
  {
    "address_components": [
      {
        "long_name": "１４９",
        "short_name": "１４９",
        "types": [
          "premise"
        ]
      },
      {
        "long_name": "別所温泉",
        "short_name": "別所温泉",
        "types": [
          "political",
          "sublocality",
          "sublocality_level_2"
        ]
      },
      {
        "long_name": "上田市",
        "short_name": "上田市",
        "types": [
          "locality",
          "political"
        ]
      },
      {
        "long_name": "長野県",
        "short_name": "長野県",
        "types": [
          "administrative_area_level_1",
          "political"
        ]
      },
      {
        "long_name": "日本",
        "short_name": "JP",
        "types": [
          "country",
          "political"
        ]
      },
      {
        "long_name": "386-1431",
        "short_name": "386-1431",
        "types": [
          "postal_code"
        ]
      }
    ],
    "formatted_address": "日本、〒386-1431 長野県上田市別所温泉１４９",
    "geometry": {
      "bounds": {
        "northeast": {
          "lat": 36.3498341,
          "lng": 138.1595933
        },
        "southwest": {
          "lat": 36.3496783,
          "lng": 138.1594225
        }
      },
      "location": {
        "lat": 36.3497589,
        "lng": 138.1595034
      },
      "location_type": "ROOFTOP",
      "viewport": {
        "northeast": {
          "lat": 36.3510965802915,
          "lng": 138.1608403802915
        },
        "southwest": {
          "lat": 36.3483986197085,
          "lng": 138.1581424197085
        }
      }
    },
    "place_id": "ChIJJWt35GGhHWARZJWbVZ13PKs",
    "types": [
      "premise"
    ]
  }
]