[
  {
    "address_components": [
      {
        "long_name": "１６２１",
        "short_name": "１６２１",
        "types": [
          "premise"
        ]
      },
      {
        "long_name": "別所温泉",
        "short_name": "別所温泉",
        "types": [
          "political",
          "sublocality",
          "sublocality_level_2"
        ]
      },
      {
        "long_name": "上田市",
        "short_name": "上田市",
        "types": [
          "locality",
          "political"
        ]
      },
      {
        "long_name": "長野県",
        "short_name": "長野県",
        "types": [
          "administrative_area_level_1",
          "political"
        ]
      },
      {
        "long_name": "日本",
        "short_name": "JP",
        "types": [
          "country",
          "political"
        ]
      },
      {
        "long_name": "386-1431",
        "short_name": "386-1431",
        "types": [
          "postal_code"
        ]
      }
    ],
    "formatted_address": "日本、〒386-1431 長野県上田市別所温泉１６２１",
    "geometry": {
      "bounds": {
        "northeast": {
          "lat": 36.3511656,
          "lng": 138.155538
        },
        "southwest": {
          "lat": 36.3509276,
          "lng": 138.1551278
        }
      },
      "location": {
        "lat": 36.3510768,
        "lng": 138.1553306
      },
      "location_type": "ROOFTOP",
      "viewport": {
        "northeast": {
          "lat": 36.35239558029151,
          "lng": 138.1566818802915
        },
        "southwest": {
          "lat": 36.34969761970851,
          "lng": 138.1539839197085
        }
      }
    },
    "place_id": "ChIJP14SeGOhHWARc5WWSlm9UcE",
    "types": [
      "premise"
    ]
  }
]