[
  {
    "address_components": [
      {
        "long_name": "上田市",
        "short_name": "上田市",
        "types": [
          "locality",
          "political"
        ]
      },
      {
        "long_name": "長野県",
        "short_name": "長野県",
        "types": [
          "administrative_area_level_1",
          "political"
        ]
      },
      {
        "long_name": "日本",
        "short_name": "JP",
        "types": [
          "country",
          "political"
        ]
      }
    ],
    "formatted_address": "日本、長野県上田市",
    "geometry": {
      "bounds": {
        "northeast": {
          "lat": 36.5546787,
          "lng": 138.4139217
        },
        "southwest": {
          "lat": 36.2172081,
          "lng": 138.0690946
        }
      },
      "location": {
        "lat": 36.4019126,
        "lng": 138.249075
      },
      "location_type": "APPROXIMATE",
      "viewport": {
        "northeast": {
          "lat": 36.5546787,
          "lng": 138.4139217
        },
        "southwest": {
          "lat": 36.2172081,
          "lng": 138.0690946
        }
      }
    },
    "partial_match": true,
    "place_id": "ChIJsaSJhsy8HWARTFv1slYL1uE",
    "types": [
      "locality",
      "political"
    ]
  },
  {
    "address_components": [
      {
        "long_name": "ビラン",
        "short_name": "ビラン",
        "types": [
          "locality",
          "political"
        ]
      },
      {
        "long_name": "クエト",
        "short_name": "クエト",
        "types": [
          "administrative_area_level_2",
          "political"
        ]
      },
      {
        "long_name": "オルギン",
        "short_name": "オルギン",
        "types": [
          "administrative_area_level_1",
          "political"
        ]
      },
      {
        "long_name": "キューバ",
        "short_name": "CU",
        "types": [
          "country",
          "political"
        ]
      }
    ],
    "formatted_address": "キューバ ビラン",
    "geometry": {
      "bounds": {
        "northeast": {
          "lat": 20.5451241,
          "lng": -75.8689213
        },
        "southwest": {
          "lat": 20.5077467,
          "lng": -75.90428349999999
        }
      },
      "location": {
        "lat": 20.5278867,
        "lng": -75.8824422
      },
      "location_type": "APPROXIMATE",
      "viewport": {
        "northeast": {
          "lat": 20.5451241,
          "lng": -75.8689213
        },
        "southwest": {
          "lat": 20.5077467,
          "lng": -75.90428349999999
        }
      }
    },
    "partial_match": true,
    "place_id": "ChIJmW8pQe7XzY4R-CCz6DiEelw",
    "types": [
      "locality",
      "political"
    ]
  }
]