{
  "candidates": [
    {
      "business_status": "OPERATIONAL",
      "formatted_address": "日本、〒389-0514 長野県東御市加沢６８２−２",
      "geometry": {
        "location": {
          "lat": 36.3469903,
          "lng": 138.3475636
        },
        "viewport": {
          "northeast": {
            "lat": 36.34832552989273,
            "lng": 138.3487388298927
          },
          "southwest": {
            "lat": 36.34562587010728,
            "lng": 138.3460391701073
          }
        }
      },
      "icon": "https://maps.gstatic.com/mapfiles/place_api/icons/v1/png_71/restaurant-71.png",
      "name": "ノンナジーニャ",
      "photos": [
        {
          "height": 2048,
          "html_attributions": [
            "<a href=\"https://maps.google.com/maps/contrib/108909845615905747463\">せがわていこ</a>"
          ],
          "photo_reference": "Aap_uEDHsSHlfGUoQFLbApwQdk_D-KscKjDVVRZ5zE23K_SW7LP192rQbPVmfigGUq5z-n957Jcbu65fCjGgYma6jc16OPJIymACOGYh29BCcXrRF3rWFfj1yAFd39U2T6-cIY1VDX8THth7UGeKbHUrS0BqiZhzynlfJ0Eq2-BuWzD6Fw9R",
          "width": 3264
        }
      ],
      "place_id": "ChIJs_KAEsW5HWAR05K0dRcUIjc",
      "plus_code": {
        "compound_code": "88WX+Q2 東御市、長野県",
        "global_code": "8Q8W88WX+Q2"
      },
      "types": [
        "restaurant",
        "food",
        "point_of_interest",
        "establishment"
      ]
    },
    {
      "business_status": "OPERATIONAL",
      "formatted_address": "日本、〒389-0514 長野県東御市加沢６８２−２",
      "geometry": {
        "location": {
          "lat": 36.3468206,
          "lng": 138.3476443
        },
        "viewport": {
          "northeast": {
            "lat": 36.34815107989272,
            "lng": 138.3487917798927
          },
          "southwest": {
            "lat": 36.34545142010728,
            "lng": 138.3460921201072
          }
        }
      },
      "icon": "https://maps.gstatic.com/mapfiles/place_api/icons/v1/png_71/parking-71.png",
      "name": "ぐるめパーク イタリア料理 ノンナジーニャ",
      "place_id": "ChIJmRKKvo65HWARXpFObf8SkO8",
      "plus_code": {
        "compound_code": "88WX+P3 東御市、長野県",
        "global_code": "8Q8W88WX+P3"
      },
      "types": [
        "parking",
        "point_of_interest",
        "establishment"
      ]
    }
  ],
  "status": "OK"
}