{
  "candidates": [
    {
      "business_status": "OPERATIONAL",
      "formatted_address": "日本、〒389-0506 長野県東御市祢津字下宿２０７５−５",
      "geometry": {
        "location": {
          "lat": 36.3721088,
          "lng": 138.3481571
        },
        "viewport": {
          "northeast": {
            "lat": 36.37346952989272,
            "lng": 138.3495659298927
          },
          "southwest": {
            "lat": 36.37076987010728,
            "lng": 138.3468662701073
          }
        }
      },
      "icon": "https://maps.gstatic.com/mapfiles/place_api/icons/v1/png_71/generic_business-71.png",
      "name": "東部湯の丸SA (上り)",
      "photos": [
        {
          "height": 2160,
          "html_attributions": [
            "<a href=\"https://maps.google.com/maps/contrib/100500053348934685100\">A Google User</a>"
          ],
          "photo_reference": "Aap_uEBJHtAVSYIgYQt3J6Lvl09wqdYpwJ3hDvuZTL1F_PDNzGNEF7-sI9OIvksRoKgxt6f5f95wHgsp265A6VNGv3P2NoNT1y6xgqsU4nMy6An_PyAIhe9N19svc7NO6LSd-0HuPtF0RnUMQW1Df0V-WSCnYEvH4DVOeNNqrurBZ59qc_K9",
          "width": 3840
        }
      ],
      "place_id": "ChIJ5Y8o46e5HWAR_GZXNHqmUGw",
      "plus_code": {
        "compound_code": "98CX+R7 東御市、長野県",
        "global_code": "8Q8W98CX+R7"
      },
      "types": [
        "point_of_interest",
        "establishment"
      ]
    },
    {
      "business_status": "OPERATIONAL",
      "formatted_address": "日本、〒389-0506 長野県東御市祢津１８５３−１",
      "geometry": {
        "location": {
          "lat": 36.370684,
          "lng": 138.3466937
        },
        "viewport": {
          "northeast": {
            "lat": 36.37209142989272,
            "lng": 138.3481767298927
          },
          "southwest": {
            "lat": 36.36939177010728,
            "lng": 138.3454770701073
          }
        }
      },
      "icon": "https://maps.gstatic.com/mapfiles/place_api/icons/v1/png_71/generic_business-71.png",
      "name": "上信越自動車道東部湯の丸SA(下り)",
      "photos": [
        {
          "height": 1192,
          "html_attributions": [
            "<a href=\"https://maps.google.com/maps/contrib/106321132236986240462\">A Google User</a>"
          ],
          "photo_reference": "Aap_uECbDzgwSHJTJ5bveqE4TzXPWayQaObzqYv2ihAeMANmtW_3agWYgalE8ouJt6X-BrtD10d7wy_Jd56jY2dFFemwUh0rYT_70X8uvexYwuVD_IIMfEJnJUXKcGVR-Gg2OCZnXvDLYx90uJJOp7KUQgQ2oO40BaxB2sBLA2hUd9TG9STb",
          "width": 2118
        }
      ],
      "place_id": "ChIJ80Ynmae5HWAR1LO57LpGZug",
      "plus_code": {
        "compound_code": "98CW+7M 東御市、長野県",
        "global_code": "8Q8W98CW+7M"
      },
      "types": [
        "restaurant",
        "point_of_interest",
        "food",
        "store",
        "establishment"
      ]
    }
  ],
  "status": "OK"
}