[
  {
    "address_components": [
      {
        "long_name": "２０７５−５",
        "short_name": "２０７５−５",
        "types": [
          "premise"
        ]
      },
      {
        "long_name": "祢津",
        "short_name": "祢津",
        "types": [
          "political",
          "sublocality",
          "sublocality_level_2"
        ]
      },
      {
        "long_name": "東御市",
        "short_name": "東御市",
        "types": [
          "locality",
          "political"
        ]
      },
      {
        "long_name": "長野県",
        "short_name": "長野県",
        "types": [
          "administrative_area_level_1",
          "political"
        ]
      },
      {
        "long_name": "日本",
        "short_name": "JP",
        "types": [
          "country",
          "political"
        ]
      },
      {
        "long_name": "389-0506",
        "short_name": "389-0506",
        "types": [
          "postal_code"
        ]
      }
    ],
    "formatted_address": "日本、〒389-0506 長野県東御市祢津２０７５−５",
    "geometry": {
      "bounds": {
        "northeast": {
          "lat": 36.3727156,
          "lng": 138.3488327
        },
        "southwest": {
          "lat": 36.3721688,
          "lng": 138.3483241
        }
      },
      "location": {
        "lat": 36.372464,
        "lng": 138.348585
      },
      "location_type": "ROOFTOP",
      "viewport": {
        "northeast": {
          "lat": 36.3737911802915,
          "lng": 138.3499273802915
        },
        "southwest": {
          "lat": 36.3710932197085,
          "lng": 138.3472294197085
        }
      }
    },
    "place_id": "ChIJjbH9-6e5HWARWHVHSlb9BuY",
    "types": [
      "premise"
    ]
  }
]