{
  "candidates": [
    {
      "business_status": "OPERATIONAL",
      "formatted_address": "日本、〒389-0103 長野県北佐久郡軽井沢町軽井沢６０１−１",
      "geometry": {
        "location": {
          "lat": 36.3590611,
          "lng": 138.6348636
        },
        "viewport": {
          "northeast": {
            "lat": 36.36062027989271,
            "lng": 138.6361823298927
          },
          "southwest": {
            "lat": 36.35792062010727,
            "lng": 138.6334826701072
          }
        }
      },
      "icon": "https://maps.gstatic.com/mapfiles/place_api/icons/v1/png_71/shopping-71.png",
      "name": "チャーチストリート軽井沢",
      "photos": [
        {
          "height": 2992,
          "html_attributions": [
            "<a href=\"https://maps.google.com/maps/contrib/106016198257900798925\">Eriecaledoniee erieri</a>"
          ],
          "photo_reference": "Aap_uEAPwHg--rvT09aUPMANN1C9pleUG8Pt9wRn5nFAmtQ-hE90D8SPVVbX2iG_eoDpEB2jZOL57cG2LfuNKgrqD8QTbobS9maplx3hggalRmPg9K26djwAmjq_fAqu5FP7IHyWi_uZH2SJiJSv-oDbGDAEQVAFT3SaggjGK8y03i6Ea7-2",
          "width": 2992
        }
      ],
      "place_id": "ChIJ4bz3o4jTHWARzIhmoH20apA",
      "plus_code": {
        "compound_code": "9J5M+JW 軽井沢町、長野県",
        "global_code": "8Q8W9J5M+JW"
      },
      "types": [
        "shopping_mall",
        "point_of_interest",
        "establishment"
      ]
    },
    {
      "business_status": "OPERATIONAL",
      "formatted_address": "日本、〒389-0102 長野県北佐久郡軽井沢町軽井沢６０１−１",
      "geometry": {
        "location": {
          "lat": 36.3587053,
          "lng": 138.6352612
        },
        "viewport": {
          "northeast": {
            "lat": 36.35998242989272,
            "lng": 138.6367221798928
          },
          "southwest": {
            "lat": 36.35728277010728,
            "lng": 138.6340225201073
          }
        }
      },
      "icon": "https://maps.gstatic.com/mapfiles/place_api/icons/v1/png_71/restaurant-71.png",
      "name": "軽井沢チョコレートファクトリー チャーチストリート軽井沢店",
      "photos": [
        {
          "height": 3024,
          "html_attributions": [
            "<a href=\"https://maps.google.com/maps/contrib/107053134209866759729\">加藤美千代</a>"
          ],
          "photo_reference": "Aap_uEBR1jK14zW_7Kzz9N6HYKt5Phqi4gPfSClmHy61dA9vpJNcSE8yH2NVqNT5g22DJywjANhw_p474DcuAkUsg7KuxqrH0-XiR4i-xrhqxIODqY3ItNmRXV4RUB9jHWlgAOg0k86TWcAd1OV-PXqiE-s_pjOu-5cBNQURAL6WAFNadX0a",
          "width": 4032
        }
      ],
      "place_id": "ChIJETWUo4jTHWARzFuTZDK4fEM",
      "plus_code": {
        "compound_code": "9J5P+F4 軽井沢町、長野県",
        "global_code": "8Q8W9J5P+F4"
      },
      "types": [
        "bakery",
        "food",
        "store",
        "point_of_interest",
        "establishment"
      ]
    }
  ],
  "status": "OK"
}