{
  "candidates": [
    {
      "business_status": "OPERATIONAL",
      "formatted_address": "日本、〒389-0102 長野県北佐久郡軽井沢町軽井沢",
      "geometry": {
        "location": {
          "lat": 36.3405106,
          "lng": 138.6436871
        },
        "viewport": {
          "northeast": {
            "lat": 36.34204062989272,
            "lng": 138.6448762798927
          },
          "southwest": {
            "lat": 36.33934097010728,
            "lng": 138.6421766201073
          }
        }
      },
      "icon": "https://maps.gstatic.com/mapfiles/place_api/icons/v1/png_71/generic_business-71.png",
      "name": "軽井沢プリンスホテルスキー場 Karuizawa Princehotel Snow Resort",
      "photos": [
        {
          "height": 1235,
          "html_attributions": [
            "<a href=\"https://maps.google.com/maps/contrib/106993007111557218175\">A Google User</a>"
          ],
          "photo_reference": "Aap_uECk5SXEvCoQigtkLkB2JbKvFMAykpl1xnLtxVzcI1-qF50mgm7WDzxlgOAxb9C8dyyUJoEGb1xxW8v2ge39-ZvfXSn8BwfB4cS28lh_A5wvNnfolPJLtm_hpixSXk8p4b_Lsfjza8Nz5ABQaDeindYFU34uqe_-6nXIa5y-cAe3rU02",
          "width": 1998
        }
      ],
      "place_id": "ChIJRybfDJzUHWARK46DdvT5pH8",
      "plus_code": {
        "compound_code": "8JRV+6F 軽井沢町、長野県",
        "global_code": "8Q8W8JRV+6F"
      },
      "types": [
        "tourist_attraction",
        "point_of_interest",
        "establishment"
      ]
    },
    {
      "business_status": "OPERATIONAL",
      "formatted_address": "日本、〒389-0102 長野県北佐久郡軽井沢町軽井沢",
      "geometry": {
        "location": {
          "lat": 36.3395923,
          "lng": 138.6404178
        },
        "viewport": {
          "northeast": {
            "lat": 36.34098922989272,
            "lng": 138.6418222298927
          },
          "southwest": {
            "lat": 36.33828957010728,
            "lng": 138.6391225701073
          }
        }
      },
      "icon": "https://maps.gstatic.com/mapfiles/place_api/icons/v1/png_71/generic_business-71.png",
      "name": "イースト観光リフト",
      "photos": [
        {
          "height": 2269,
          "html_attributions": [
            "<a href=\"https://maps.google.com/maps/contrib/101547897321662298659\">A Google User</a>"
          ],
          "photo_reference": "Aap_uEAQhMn-DEBBivs9L9wIx0QysTZUEGVD3Chs6g5oX_p6YSYjdskrp7bocPZmi0eMyxM-Byp8TV_gjo0I1vSJUT5miw0vsp50655yHn0bsK9GJ3Td23oDVVXQUqifRlr2LQ7QQ877QZDDI2Bw1PBBzqPee_27JKMapj1lx-22J0AH1GZb",
          "width": 4032
        }
      ],
      "place_id": "ChIJP-1Zv53UHWARym6suWkRy7A",
      "plus_code": {
        "compound_code": "8JQR+R5 軽井沢町、長野県",
        "global_code": "8Q8W8JQR+R5"
      },
      "types": [
        "point_of_interest",
        "establishment"
      ]
    }
  ],
  "status": "OK"
}