[
  {
    "address_components": [
      {
        "long_name": "１０７４−５",
        "short_name": "１０７４−５",
        "types": [
          "premise"
        ]
      },
      {
        "long_name": "軽井沢",
        "short_name": "軽井沢",
        "types": [
          "political",
          "sublocality",
          "sublocality_level_2"
        ]
      },
      {
        "long_name": "軽井沢町",
        "short_name": "軽井沢町",
        "types": [
          "locality",
          "political"
        ]
      },
      {
        "long_name": "北佐久郡",
        "short_name": "北佐久郡",
        "types": [
          "administrative_area_level_2",
          "political"
        ]
      },
      {
        "long_name": "長野県",
        "short_name": "長野県",
        "types": [
          "administrative_area_level_1",
          "political"
        ]
      },
      {
        "long_name": "日本",
        "short_name": "JP",
        "types": [
          "country",
          "political"
        ]
      },
      {
        "long_name": "389-0102",
        "short_name": "389-0102",
        "types": [
          "postal_code"
        ]
      }
    ],
    "formatted_address": "日本、〒389-0102 長野県北佐久郡軽井沢町軽井沢１０７４−５",
    "geometry": {
      "bounds": {
        "northeast": {
          "lat": 36.3367048,
          "lng": 138.6309424
        },
        "southwest": {
          "lat": 36.3364861,
          "lng": 138.6307287
        }
      },
      "location": {
        "lat": 36.3366133,
        "lng": 138.6308609
      },
      "location_type": "ROOFTOP",
      "viewport": {
        "northeast": {
          "lat": 36.3379023302915,
          "lng": 138.6321845302915
        },
        "southwest": {
          "lat": 36.3352043697085,
          "lng": 138.6294865697085
        }
      }
    },
    "place_id": "ChIJX72TqGXTHWAR3k94XZKeIrE",
    "types": [
      "premise"
    ]
  }
]