{
  "candidates": [
    {
      "business_status": "OPERATIONAL",
      "formatted_address": "日本、〒389-0102 長野県北佐久郡軽井沢町軽井沢１１７８ 軽井沢プリンスショッピングプラザ ニューウエスト内",
      "geometry": {
        "location": {
          "lat": 36.3409673,
          "lng": 138.6320527
        },
        "viewport": {
          "northeast": {
            "lat": 36.34235217989272,
            "lng": 138.6333128798927
          },
          "southwest": {
            "lat": 36.33965252010728,
            "lng": 138.6306132201073
          }
        }
      },
      "icon": "https://maps.gstatic.com/mapfiles/place_api/icons/v1/png_71/shopping-71.png",
      "name": "軽井沢ファーマーズギフト",
      "photos": [
        {
          "height": 2620,
          "html_attributions": [
            "<a href=\"https://maps.google.com/maps/contrib/110437362226511318774\">seiki toriumi</a>"
          ],
          "photo_reference": "Aap_uEDOVfDM11ao9wm4NrV1swsXJVlQgaNR-Xc7XrhoC-croxYp1yJPcVXOilqcTE2SjUUoEFpm6XncyMPenCSzGAiF3GH01a7-62swNNSgSrcZ_BO77sslPtA-Wk0sOPRhcwI5NAG6qNw28YpbU8H_fyDnFsi3icW-J4uY1P4ovfLjezYe",
          "width": 4656
        }
      ],
      "place_id": "ChIJ_URUHX_THWAR1XlaGiaytK8",
      "plus_code": {
        "compound_code": "8JRJ+9R 軽井沢町、長野県",
        "global_code": "8Q8W8JRJ+9R"
      },
      "types": [
        "grocery_or_supermarket",
        "food",
        "store",
        "point_of_interest",
        "establishment"
      ]
    },
    {
      "business_status": "OPERATIONAL",
      "formatted_address": "日本、〒389-0102 長野県北佐久郡軽井沢町軽井沢旧軽井沢６２８",
      "geometry": {
        "location": {
          "lat": 36.359548,
          "lng": 138.6361764
        },
        "viewport": {
          "northeast": {
            "lat": 36.36083462989271,
            "lng": 138.6376212298927
          },
          "southwest": {
            "lat": 36.35813497010727,
            "lng": 138.6349215701073
          }
        }
      },
      "icon": "https://maps.gstatic.com/mapfiles/place_api/icons/v1/png_71/shopping-71.png",
      "name": "軽井沢芳光本店",
      "photos": [
        {
          "height": 3648,
          "html_attributions": [
            "<a href=\"https://maps.google.com/maps/contrib/109417687256959633693\">A Google User</a>"
          ],
          "photo_reference": "Aap_uEBtp6HKbizO7win_rHnXUZh6ti0vpj8vrk6nZqTxKSRkiipdlTc2K4yUMAwSks9rJn92tsEGPNCq7DoBWdLiYfwMAW92LjJRXezsj-1EmLaKRUzQQ_ea5nenrhcPKUN5UU-fHGIYaifAFUFeWzjbh1bq9lDaJyQfhYepnhLa0kIFtJs",
          "width": 5472
        }
      ],
      "place_id": "ChIJaeLDhojTHWARdzkLtc4NC7s",
      "plus_code": {
        "compound_code": "9J5P+RF 軽井沢町、長野県",
        "global_code": "8Q8W9J5P+RF"
      },
      "types": [
        "store",
        "point_of_interest",
        "establishment"
      ]
    }
  ],
  "status": "OK"
}