[
  {
    "address_components": [
      {
        "long_name": "５９３",
        "short_name": "５９３",
        "types": [
          "premise"
        ]
      },
      {
        "long_name": "軽井沢",
        "short_name": "軽井沢",
        "types": [
          "political",
          "sublocality",
          "sublocality_level_2"
        ]
      },
      {
        "long_name": "軽井沢町",
        "short_name": "軽井沢町",
        "types": [
          "locality",
          "political"
        ]
      },
      {
        "long_name": "北佐久郡",
        "short_name": "北佐久郡",
        "types": [
          "administrative_area_level_2",
          "political"
        ]
      },
      {
        "long_name": "長野県",
        "short_name": "長野県",
        "types": [
          "administrative_area_level_1",
          "political"
        ]
      },
      {
        "long_name": "日本",
        "short_name": "JP",
        "types": [
          "country",
          "political"
        ]
      },
      {
        "long_name": "389-0102",
        "short_name": "389-0102",
        "types": [
          "postal_code"
        ]
      }
    ],
    "formatted_address": "日本、〒389-0102 長野県北佐久郡軽井沢町軽井沢５９３",
    "geometry": {
      "bounds": {
        "northeast": {
          "lat": 36.358664,
          "lng": 138.6350186
        },
        "southwest": {
          "lat": 36.3585124,
          "lng": 138.6348621
        }
      },
      "location": {
        "lat": 36.3585839,
        "lng": 138.6349428
      },
      "location_type": "ROOFTOP",
      "viewport": {
        "northeast": {
          "lat": 36.3598385302915,
          "lng": 138.6362081802915
        },
        "southwest": {
          "lat": 36.3571405697085,
          "lng": 138.6335102197085
        }
      }
    },
    "place_id": "ChIJNTJaHobTHWAR5_WXbtRVgBk",
    "types": [
      "premise"
    ]
  }
]