[
  {
    "address_components": [
      {
        "long_name": "７０４",
        "short_name": "７０４",
        "types": [
          "premise"
        ]
      },
      {
        "long_name": "軽井沢",
        "short_name": "軽井沢",
        "types": [
          "political",
          "sublocality",
          "sublocality_level_2"
        ]
      },
      {
        "long_name": "軽井沢町",
        "short_name": "軽井沢町",
        "types": [
          "locality",
          "political"
        ]
      },
      {
        "long_name": "北佐久郡",
        "short_name": "北佐久郡",
        "types": [
          "administrative_area_level_2",
          "political"
        ]
      },
      {
        "long_name": "長野県",
        "short_name": "長野県",
        "types": [
          "administrative_area_level_1",
          "political"
        ]
      },
      {
        "long_name": "日本",
        "short_name": "JP",
        "types": [
          "country",
          "political"
        ]
      },
      {
        "long_name": "389-0102",
        "short_name": "389-0102",
        "types": [
          "postal_code"
        ]
      }
    ],
    "formatted_address": "日本、〒389-0102 長野県北佐久郡軽井沢町軽井沢７０４",
    "geometry": {
      "bounds": {
        "northeast": {
          "lat": 36.36015769999999,
          "lng": 138.6373043
        },
        "southwest": {
          "lat": 36.3600125,
          "lng": 138.6371139
        }
      },
      "location": {
        "lat": 36.3600796,
        "lng": 138.6372236
      },
      "location_type": "ROOFTOP",
      "viewport": {
        "northeast": {
          "lat": 36.3614340802915,
          "lng": 138.6385528802915
        },
        "southwest": {
          "lat": 36.3587361197085,
          "lng": 138.6358549197085
        }
      }
    },
    "place_id": "ChIJAzgGcYjTHWARwgIv9-CkHTU",
    "types": [
      "premise"
    ]
  }
]