[
  {
    "address_components": [
      {
        "long_name": "軽井沢",
        "short_name": "軽井沢",
        "types": [
          "political",
          "sublocality",
          "sublocality_level_2"
        ]
      },
      {
        "long_name": "軽井沢町",
        "short_name": "軽井沢町",
        "types": [
          "locality",
          "political"
        ]
      },
      {
        "long_name": "北佐久郡",
        "short_name": "北佐久郡",
        "types": [
          "administrative_area_level_2",
          "political"
        ]
      },
      {
        "long_name": "長野県",
        "short_name": "長野県",
        "types": [
          "administrative_area_level_1",
          "political"
        ]
      },
      {
        "long_name": "日本",
        "short_name": "JP",
        "types": [
          "country",
          "political"
        ]
      },
      {
        "long_name": "389-0102",
        "short_name": "389-0102",
        "types": [
          "postal_code"
        ]
      }
    ],
    "formatted_address": "日本、〒389-0102 長野県北佐久郡軽井沢町軽井沢",
    "geometry": {
      "location": {
        "lat": 36.3407074,
        "lng": 138.6360469
      },
      "location_type": "GEOMETRIC_CENTER",
      "viewport": {
        "northeast": {
          "lat": 36.3422971,
          "lng": 138.6369213
        },
        "southwest": {
          "lat": 36.3391097,
          "lng": 138.6310926
        }
      }
    },
    "partial_match": true,
    "place_id": "ChIJs2bRqHvTHWARcl6bPa7ly-g",
    "plus_code": {
      "compound_code": "8JRP+7C 長野県軽井沢町",
      "global_code": "8Q8W8JRP+7C"
    },
    "types": [
      "establishment",
      "point_of_interest",
      "shopping_mall"
    ]
  },
  {
    "address_components": [
      {
        "long_name": "軽井沢",
        "short_name": "軽井沢",
        "types": [
          "political",
          "sublocality",
          "sublocality_level_2"
        ]
      },
      {
        "long_name": "軽井沢町",
        "short_name": "軽井沢町",
        "types": [
          "locality",
          "political"
        ]
      },
      {
        "long_name": "北佐久郡",
        "short_name": "北佐久郡",
        "types": [
          "administrative_area_level_2",
          "political"
        ]
      },
      {
        "long_name": "長野県",
        "short_name": "長野県",
        "types": [
          "administrative_area_level_1",
          "political"
        ]
      },
      {
        "long_name": "日本",
        "short_name": "JP",
        "types": [
          "country",
          "political"
        ]
      },
      {
        "long_name": "389-0102",
        "short_name": "389-0102",
        "types": [
          "postal_code"
        ]
      }
    ],
    "formatted_address": "日本、〒389-0102 長野県北佐久郡軽井沢町軽井沢",
    "geometry": {
      "bounds": {
        "northeast": {
          "lat": 36.3401239,
          "lng": 138.6325146
        },
        "southwest": {
          "lat": 36.3396878,
          "lng": 138.6322479
        }
      },
      "location": {
        "lat": 36.3398799,
        "lng": 138.6323566
      },
      "location_type": "ROOFTOP",
      "viewport": {
        "northeast": {
          "lat": 36.3411885302915,
          "lng": 138.6337689802915
        },
        "southwest": {
          "lat": 36.3384905697085,
          "lng": 138.6310710197085
        }
      }
    },
    "partial_match": true,
    "place_id": "ChIJo3JMNHvTHWARD3KVHVqo4vo",
    "types": [
      "establishment",
      "point_of_interest",
      "subpremise"
    ]
  }
]