[
  {
    "address_components": [
      {
        "long_name": "８１３−１０",
        "short_name": "８１３−１０",
        "types": [
          "premise"
        ]
      },
      {
        "long_name": "軽井沢",
        "short_name": "軽井沢",
        "types": [
          "political",
          "sublocality",
          "sublocality_level_2"
        ]
      },
      {
        "long_name": "軽井沢町",
        "short_name": "軽井沢町",
        "types": [
          "locality",
          "political"
        ]
      },
      {
        "long_name": "北佐久郡",
        "short_name": "北佐久郡",
        "types": [
          "administrative_area_level_2",
          "political"
        ]
      },
      {
        "long_name": "長野県",
        "short_name": "長野県",
        "types": [
          "administrative_area_level_1",
          "political"
        ]
      },
      {
        "long_name": "日本",
        "short_name": "JP",
        "types": [
          "country",
          "political"
        ]
      },
      {
        "long_name": "389-0102",
        "short_name": "389-0102",
        "types": [
          "postal_code"
        ]
      }
    ],
    "formatted_address": "日本、〒389-0102 長野県北佐久郡軽井沢町軽井沢８１３−１０",
    "geometry": {
      "bounds": {
        "northeast": {
          "lat": 36.3576925,
          "lng": 138.6352619
        },
        "southwest": {
          "lat": 36.3576116,
          "lng": 138.635157
        }
      },
      "location": {
        "lat": 36.3576541,
        "lng": 138.635212
      },
      "location_type": "ROOFTOP",
      "viewport": {
        "northeast": {
          "lat": 36.3589112802915,
          "lng": 138.6367138302915
        },
        "southwest": {
          "lat": 36.3562133197085,
          "lng": 138.6340158697085
        }
      }
    },
    "partial_match": true,
    "place_id": "ChIJAThtQIbTHWARQF1ZH1vxNSc",
    "types": [
      "premise"
    ]
  },
  {
    "address_components": [
      {
        "long_name": "旧軽井沢",
        "short_name": "旧軽井沢",
        "types": [
          "establishment",
          "point_of_interest",
          "transit_station"
        ]
      },
      {
        "long_name": "軽井沢",
        "short_name": "軽井沢",
        "types": [
          "political",
          "sublocality",
          "sublocality_level_2"
        ]
      },
      {
        "long_name": "軽井沢町",
        "short_name": "軽井沢町",
        "types": [
          "locality",
          "political"
        ]
      },
      {
        "long_name": "北佐久郡",
        "short_name": "北佐久郡",
        "types": [
          "administrative_area_level_2",
          "political"
        ]
      },
      {
        "long_name": "長野県",
        "short_name": "長野県",
        "types": [
          "administrative_area_level_1",
          "political"
        ]
      },
      {
        "long_name": "日本",
        "short_name": "JP",
        "types": [
          "country",
          "political"
        ]
      },
      {
        "long_name": "389-0103",
        "short_name": "389-0103",
        "types": [
          "postal_code"
        ]
      }
    ],
    "formatted_address": "日本、〒389-0103 長野県北佐久郡軽井沢町軽井沢 旧軽井沢",
    "geometry": {
      "location": {
        "lat": 36.356448,
        "lng": 138.633847
      },
      "location_type": "GEOMETRIC_CENTER",
      "viewport": {
        "northeast": {
          "lat": 36.35781213029149,
          "lng": 138.6352017302915
        },
        "southwest": {
          "lat": 36.3551141697085,
          "lng": 138.6325037697085
        }
      }
    },
    "partial_match": true,
    "place_id": "ChIJpwnR14XTHWARWX5iwgBsZyg",
    "plus_code": {
      "compound_code": "9J4M+HG 長野県軽井沢町",
      "global_code": "8Q8W9J4M+HG"
    },
    "types": [
      "establishment",
      "point_of_interest",
      "transit_station"
    ]
  }
]