[
  {
    "address_components": [
      {
        "long_name": "北佐久郡",
        "short_name": "北佐久郡",
        "types": [
          "administrative_area_level_2",
          "political"
        ]
      },
      {
        "long_name": "軽井沢",
        "short_name": "軽井沢",
        "types": [
          "political",
          "sublocality",
          "sublocality_level_2"
        ]
      },
      {
        "long_name": "軽井沢町",
        "short_name": "軽井沢町",
        "types": [
          "locality",
          "political"
        ]
      },
      {
        "long_name": "長野県",
        "short_name": "長野県",
        "types": [
          "administrative_area_level_1",
          "political"
        ]
      },
      {
        "long_name": "日本",
        "short_name": "JP",
        "types": [
          "country",
          "political"
        ]
      },
      {
        "long_name": "389-0102",
        "short_name": "389-0102",
        "types": [
          "postal_code"
        ]
      }
    ],
    "formatted_address": "日本、〒389-0102 長野県北佐久郡軽井沢町軽井沢",
    "geometry": {
      "bounds": {
        "northeast": {
          "lat": 36.3422804,
          "lng": 138.6340848
        },
        "southwest": {
          "lat": 36.3421589,
          "lng": 138.6330356
        }
      },
      "location": {
        "lat": 36.3422282,
        "lng": 138.6334654
      },
      "location_type": "ROOFTOP",
      "viewport": {
        "northeast": {
          "lat": 36.3436153802915,
          "lng": 138.6349091802915
        },
        "southwest": {
          "lat": 36.3409174197085,
          "lng": 138.6322112197085
        }
      }
    },
    "partial_match": true,
    "place_id": "ChIJj0K9fnvTHWARU6dD7Nv5s2M",
    "types": [
      "establishment",
      "point_of_interest",
      "subpremise"
    ]
  },
  {
    "address_components": [
      {
        "long_name": "軽井沢",
        "short_name": "軽井沢",
        "types": [
          "political",
          "sublocality",
          "sublocality_level_2"
        ]
      },
      {
        "long_name": "軽井沢町",
        "short_name": "軽井沢町",
        "types": [
          "locality",
          "political"
        ]
      },
      {
        "long_name": "北佐久郡",
        "short_name": "北佐久郡",
        "types": [
          "administrative_area_level_2",
          "political"
        ]
      },
      {
        "long_name": "長野県",
        "short_name": "長野県",
        "types": [
          "administrative_area_level_1",
          "political"
        ]
      },
      {
        "long_name": "日本",
        "short_name": "JP",
        "types": [
          "country",
          "political"
        ]
      },
      {
        "long_name": "389-0102",
        "short_name": "389-0102",
        "types": [
          "postal_code"
        ]
      }
    ],
    "formatted_address": "日本、〒389-0102 長野県北佐久郡軽井沢町軽井沢 軽井沢・プリンスショッピングプラザ ツリーモール TM-16",
    "geometry": {
      "location": {
        "lat": 36.3398695,
        "lng": 138.6323907
      },
      "location_type": "GEOMETRIC_CENTER",
      "viewport": {
        "northeast": {
          "lat": 36.3410577802915,
          "lng": 138.6338328302915
        },
        "southwest": {
          "lat": 36.3383598197085,
          "lng": 138.6311348697085
        }
      }
    },
    "partial_match": true,
    "place_id": "ChIJ70c-tnzTHWARzRkiG8Bc-Q8",
    "plus_code": {
      "compound_code": "8JQJ+WX 長野県軽井沢町",
      "global_code": "8Q8W8JQJ+WX"
    },
    "types": [
      "establishment",
      "home_goods_store",
      "point_of_interest",
      "store"
    ]
  }
]