{
  "candidates": [
    {
      "business_status": "OPERATIONAL",
      "formatted_address": "日本、〒389-0104 長野県北佐久郡軽井沢町軽井沢東１６−７",
      "geometry": {
        "location": {
          "lat": 36.3456608,
          "lng": 138.6353395
        },
        "viewport": {
          "northeast": {
            "lat": 36.34699107989272,
            "lng": 138.6366596798927
          },
          "southwest": {
            "lat": 36.34429142010728,
            "lng": 138.6339600201073
          }
        }
      },
      "icon": "https://maps.gstatic.com/mapfiles/place_api/icons/v1/png_71/shopping-71.png",
      "name": "（株）白樺堂 菓房白樺堂",
      "photos": [
        {
          "height": 1536,
          "html_attributions": [
            "<a href=\"https://maps.google.com/maps/contrib/100342887344357745720\">A Google User</a>"
          ],
          "photo_reference": "Aap_uEB0mxoaGPSxA5v8JJHZI9fDa_-y_JWOtdLjnW4gspSfiQ53TgfXxfg1AMp7Q7cxJGydDLHT4G_4zMUUtzP6RiRHxQIK6FFHi5A6_gxIhoTQKNNf1_XA1oGhpU6Jf6ZhGHsODHyUxfRwvJkthF_5pLeVGbmwBYaCFVFlKgZxlLXWp1rC",
          "width": 2048
        }
      ],
      "place_id": "ChIJiUupnn7THWARUhbb0vq2Ld4",
      "plus_code": {
        "compound_code": "8JWP+75 軽井沢町、長野県",
        "global_code": "8Q8W8JWP+75"
      },
      "types": [
        "store",
        "point_of_interest",
        "food",
        "establishment"
      ]
    },
    {
      "business_status": "OPERATIONAL",
      "formatted_address": "日本、〒389-0102 長野県北佐久郡軽井沢町軽井沢６０５",
      "geometry": {
        "location": {
          "lat": 36.3587379,
          "lng": 138.6352462
        },
        "viewport": {
          "northeast": {
            "lat": 36.36000562989273,
            "lng": 138.6367216298927
          },
          "southwest": {
            "lat": 36.35730597010728,
            "lng": 138.6340219701073
          }
        }
      },
      "icon": "https://maps.gstatic.com/mapfiles/place_api/icons/v1/png_71/restaurant-71.png",
      "name": "白樺堂 旧軽井沢銀座本店",
      "photos": [
        {
          "height": 3024,
          "html_attributions": [
            "<a href=\"https://maps.google.com/maps/contrib/108318727523045565363\">A Google User</a>"
          ],
          "photo_reference": "Aap_uEDPkfdQeBTw2DxtjRdx5t_IYKnp2qTkNoNC5kCojwp0hjt8wYY-lAwsCEKk-VRJdU6QdM7Z1zrrwq5hfZ3YCPMKC2-FZyL0wKab2BjpTnNjj1c7iCFDb4urHtV3QUijHYqBRrATJjmcGlJ4H4bKyujy0hRSfKO74m_LvaOpr_EPO2CQ",
          "width": 4032
        }
      ],
      "place_id": "ChIJfw7ovY7THWAR0qJdPHLUhPs",
      "plus_code": {
        "compound_code": "9J5P+F3 軽井沢町、長野県",
        "global_code": "8Q8W9J5P+F3"
      },
      "types": [
        "bakery",
        "store",
        "point_of_interest",
        "food",
        "establishment"
      ]
    }
  ],
  "status": "OK"
}