[
  {
    "address_components": [
      {
        "long_name": "１６−７",
        "short_name": "１６−７",
        "types": [
          "premise"
        ]
      },
      {
        "long_name": "軽井沢東",
        "short_name": "軽井沢東",
        "types": [
          "political",
          "sublocality",
          "sublocality_level_2"
        ]
      },
      {
        "long_name": "軽井沢町",
        "short_name": "軽井沢町",
        "types": [
          "locality",
          "political"
        ]
      },
      {
        "long_name": "北佐久郡",
        "short_name": "北佐久郡",
        "types": [
          "administrative_area_level_2",
          "political"
        ]
      },
      {
        "long_name": "長野県",
        "short_name": "長野県",
        "types": [
          "administrative_area_level_1",
          "political"
        ]
      },
      {
        "long_name": "日本",
        "short_name": "JP",
        "types": [
          "country",
          "political"
        ]
      },
      {
        "long_name": "389-0104",
        "short_name": "389-0104",
        "types": [
          "postal_code"
        ]
      }
    ],
    "formatted_address": "日本、〒389-0104 長野県北佐久郡軽井沢町軽井沢東１６−７",
    "geometry": {
      "bounds": {
        "northeast": {
          "lat": 36.3457221,
          "lng": 138.6355213
        },
        "southwest": {
          "lat": 36.3456008,
          "lng": 138.6353184
        }
      },
      "location": {
        "lat": 36.3456613,
        "lng": 138.6354224
      },
      "location_type": "ROOFTOP",
      "viewport": {
        "northeast": {
          "lat": 36.3470104302915,
          "lng": 138.6367083802915
        },
        "southwest": {
          "lat": 36.3443124697085,
          "lng": 138.6340104197085
        }
      }
    },
    "place_id": "ChIJuaGmnn7THWAR78p8dgHjE0Y",
    "types": [
      "premise"
    ]
  }
]