{
  "candidates": [
    {
      "business_status": "OPERATIONAL",
      "formatted_address": "日本、〒389-0104 長野県北佐久郡軽井沢町軽井沢東２３６",
      "geometry": {
        "location": {
          "lat": 36.3438302,
          "lng": 138.6312796
        },
        "viewport": {
          "northeast": {
            "lat": 36.34517622989272,
            "lng": 138.6326312298927
          },
          "southwest": {
            "lat": 36.34247657010728,
            "lng": 138.6299315701073
          }
        }
      },
      "icon": "https://maps.gstatic.com/mapfiles/place_api/icons/v1/png_71/shopping-71.png",
      "name": "信州ハム（株） 軽井沢工房",
      "photos": [
        {
          "height": 3264,
          "html_attributions": [
            "<a href=\"https://maps.google.com/maps/contrib/116325483624882159787\">槐島寛晃</a>"
          ],
          "photo_reference": "Aap_uEBBuPQdf-7pnnaIN68iTWfDltb8GAs0ab6zjsMiNVMknEq1o9T08yMbuiD6pzgYaW6ewY4G2GHsvNCayIMYuf8l2-r-cJDYaGgm0QxWE-zURwDauJeP3tFoY1JGd3-0_Es1AmaIEb2lxFxEjS4jclgYaAU8lC56dXhX3hDbi5IjQtU",
          "width": 2448
        }
      ],
      "place_id": "ChIJOcNGgHnTHWARbfZRayOeaCs",
      "plus_code": {
        "compound_code": "8JVJ+FG 軽井沢町、長野県",
        "global_code": "8Q8W8JVJ+FG"
      },
      "types": [
        "store",
        "point_of_interest",
        "food",
        "establishment"
      ]
    },
    {
      "business_status": "OPERATIONAL",
      "formatted_address": "日本、〒389-0102 長野県北佐久郡軽井沢町軽井沢１１７８ しなの鉄道軽井沢駅 3F「しなの屋KARUIZAWA」内",
      "geometry": {
        "location": {
          "lat": 36.3429192,
          "lng": 138.6351949
        },
        "viewport": {
          "northeast": {
            "lat": 36.34427912989273,
            "lng": 138.6365451298927
          },
          "southwest": {
            "lat": 36.34157947010728,
            "lng": 138.6338454701073
          }
        }
      },
      "icon": "https://maps.gstatic.com/mapfiles/place_api/icons/v1/png_71/shopping-71.png",
      "name": "信州ハム 軽井沢工房 軽井沢駅店",
      "photos": [
        {
          "height": 2048,
          "html_attributions": [
            "<a href=\"https://maps.google.com/maps/contrib/118163435244627160229\">anonymous anonymous</a>"
          ],
          "photo_reference": "Aap_uEA8nP2PCI-xr-HBrUEVLSBdd1268qlOaYQyHSWp1MRlNPz59Ocy5PelBzeXXd4QGiH1dsCXqQBPqfuitm6ntm3lYKGNkGON8uPBn35UbTAGk5sbrdHSva3sBdIPlxUXlwVTpDfgo-RrKRLOUYP9bsZdbXdcpZFNv05ml4Qz9Ds4d1V-",
          "width": 1536
        }
      ],
      "place_id": "ChIJEVc983zTHWARLP1fVxI4CK4",
      "plus_code": {
        "compound_code": "8JVP+53 軽井沢町、長野県",
        "global_code": "8Q8W8JVP+53"
      },
      "types": [
        "store",
        "point_of_interest",
        "establishment"
      ]
    }
  ],
  "status": "OK"
}