[
  {
    "address_components": [
      {
        "long_name": "２８７−１",
        "short_name": "２８７−１",
        "types": [
          "premise"
        ]
      },
      {
        "long_name": "軽井沢東",
        "short_name": "軽井沢東",
        "types": [
          "political",
          "sublocality",
          "sublocality_level_2"
        ]
      },
      {
        "long_name": "軽井沢町",
        "short_name": "軽井沢町",
        "types": [
          "locality",
          "political"
        ]
      },
      {
        "long_name": "北佐久郡",
        "short_name": "北佐久郡",
        "types": [
          "administrative_area_level_2",
          "political"
        ]
      },
      {
        "long_name": "長野県",
        "short_name": "長野県",
        "types": [
          "administrative_area_level_1",
          "political"
        ]
      },
      {
        "long_name": "日本",
        "short_name": "JP",
        "types": [
          "country",
          "political"
        ]
      },
      {
        "long_name": "389-0104",
        "short_name": "389-0104",
        "types": [
          "postal_code"
        ]
      }
    ],
    "formatted_address": "日本、〒389-0104 長野県北佐久郡軽井沢町軽井沢東２８７−１",
    "geometry": {
      "bounds": {
        "northeast": {
          "lat": 36.3442267,
          "lng": 138.6266071
        },
        "southwest": {
          "lat": 36.3441108,
          "lng": 138.6264777
        }
      },
      "location": {
        "lat": 36.3441785,
        "lng": 138.6265347
      },
      "location_type": "ROOFTOP",
      "viewport": {
        "northeast": {
          "lat": 36.3455177302915,
          "lng": 138.6278693802915
        },
        "southwest": {
          "lat": 36.3428197697085,
          "lng": 138.6251714197085
        }
      }
    },
    "place_id": "ChIJb2A2r3fTHWARiA_53RFP3Iw",
    "types": [
      "premise"
    ]
  }
]