[
  {
    "address_components": [
      {
        "long_name": "９２５",
        "short_name": "９２５",
        "types": [
          "premise"
        ]
      },
      {
        "long_name": "軽井沢",
        "short_name": "軽井沢",
        "types": [
          "political",
          "sublocality",
          "sublocality_level_2"
        ]
      },
      {
        "long_name": "軽井沢町",
        "short_name": "軽井沢町",
        "types": [
          "locality",
          "political"
        ]
      },
      {
        "long_name": "北佐久郡",
        "short_name": "北佐久郡",
        "types": [
          "administrative_area_level_2",
          "political"
        ]
      },
      {
        "long_name": "長野県",
        "short_name": "長野県",
        "types": [
          "administrative_area_level_1",
          "political"
        ]
      },
      {
        "long_name": "日本",
        "short_name": "JP",
        "types": [
          "country",
          "political"
        ]
      },
      {
        "long_name": "389-0102",
        "short_name": "389-0102",
        "types": [
          "postal_code"
        ]
      }
    ],
    "formatted_address": "日本、〒389-0102 長野県北佐久郡軽井沢町軽井沢９２５",
    "geometry": {
      "bounds": {
        "northeast": {
          "lat": 36.3579219,
          "lng": 138.6416545
        },
        "southwest": {
          "lat": 36.3578148,
          "lng": 138.6415138
        }
      },
      "location": {
        "lat": 36.3578577,
        "lng": 138.6415703
      },
      "location_type": "ROOFTOP",
      "viewport": {
        "northeast": {
          "lat": 36.3592173302915,
          "lng": 138.6429331302915
        },
        "southwest": {
          "lat": 36.3565193697085,
          "lng": 138.6402351697085
        }
      }
    },
    "place_id": "ChIJ6TktIXnUHWAR9HOBkTBRUUs",
    "types": [
      "premise"
    ]
  }
]