{
  "candidates": [
    {
      "business_status": "OPERATIONAL",
      "formatted_address": "日本、〒389-0102 長野県北佐久郡軽井沢町軽井沢９２５ 万平ホテル内",
      "geometry": {
        "location": {
          "lat": 36.3578558,
          "lng": 138.6415855
        },
        "viewport": {
          "northeast": {
            "lat": 36.35920562989272,
            "lng": 138.6429353298927
          },
          "southwest": {
            "lat": 36.35650597010727,
            "lng": 138.6402356701073
          }
        }
      },
      "icon": "https://maps.gstatic.com/mapfiles/place_api/icons/v1/png_71/restaurant-71.png",
      "name": "熊魚菴たん熊北店 軽井沢万平ホテル店",
      "photos": [
        {
          "height": 279,
          "html_attributions": [
            "<a href=\"https://maps.google.com/maps/contrib/105321533485641050535\">熊魚菴たん熊北店 軽井沢万平ホテル店</a>"
          ],
          "photo_reference": "Aap_uECIbsmkOAPRDMYXDYLUx27CVdM-RqBO0B-ezMOFQ7TEUo3z0bRCyWPrHPCm6cUL0PSYBEN7lDdvIJ5RyaDDDuEKw1B8SVVOJsZ826RYUZZssbXsGgdVW7SsDKC6qFUCqdCPqdoS5coGyLqV5lKUWF9iFi8-gk6cYIysLjbH4ndunAsR",
          "width": 389
        }
      ],
      "place_id": "ChIJ1TxK0XjUHWARrGED_3hCMDM",
      "plus_code": {
        "compound_code": "9J5R+4J 軽井沢町、長野県",
        "global_code": "8Q8W9J5R+4J"
      },
      "types": [
        "restaurant",
        "food",
        "point_of_interest",
        "establishment"
      ]
    },
    {
      "business_status": "OPERATIONAL",
      "formatted_address": "日本、〒389-0102 長野県北佐久郡軽井沢町軽井沢９２５ 万平ホテル内",
      "geometry": {
        "location": {
          "lat": 36.3576801,
          "lng": 138.6418018
        },
        "viewport": {
          "northeast": {
            "lat": 36.35889687989272,
            "lng": 138.6430156298927
          },
          "southwest": {
            "lat": 36.35619722010728,
            "lng": 138.6403159701073
          }
        }
      },
      "icon": "https://maps.gstatic.com/mapfiles/place_api/icons/v1/png_71/restaurant-71.png",
      "name": "割烹熊魚庵",
      "photos": [
        {
          "height": 1536,
          "html_attributions": [
            "<a href=\"https://maps.google.com/maps/contrib/108875068690879005883\">竹原幸一郎</a>"
          ],
          "photo_reference": "Aap_uEBSrEWzLEvwqFMdBfgQxDIyjOINsZ1wpfpmzcWhPulqZ6EAC8YmyDtP_fn4hvSLlx8cxR1esmmRlsFq6SfZObzO9CI4RsNKjNOnhVZv8IYLDB4c-6ZKUQ8Xn01xrJTIq91lz4y-fiYyfaaUK5z5k8ygi74v15GunY4QvXNTIh6neUES",
          "width": 2048
        }
      ],
      "place_id": "ChIJhUb3dqXVHWARBlKoXegwuVw",
      "plus_code": {
        "compound_code": "9J5R+3P 軽井沢町、長野県",
        "global_code": "8Q8W9J5R+3P"
      },
      "types": [
        "restaurant",
        "food",
        "point_of_interest",
        "establishment"
      ]
    }
  ],
  "status": "OK"
}