{
  "candidates": [
    {
      "business_status": "OPERATIONAL",
      "formatted_address": "日本、〒389-0102 長野県北佐久郡軽井沢町軽井沢９２５ 万平ホテル 1F",
      "geometry": {
        "location": {
          "lat": 36.3576053,
          "lng": 138.6418515
        },
        "viewport": {
          "northeast": {
            "lat": 36.35885947989272,
            "lng": 138.6430404798927
          },
          "southwest": {
            "lat": 36.35615982010728,
            "lng": 138.6403408201073
          }
        }
      },
      "icon": "https://maps.gstatic.com/mapfiles/place_api/icons/v1/png_71/restaurant-71.png",
      "name": "メインダイニング／万平ホテル",
      "photos": [
        {
          "height": 3508,
          "html_attributions": [
            "<a href=\"https://maps.google.com/maps/contrib/102504861519834189059\">One7</a>"
          ],
          "photo_reference": "Aap_uEDgE4uyzoVbcwS9sqN3MyLBR0u_GrOK_PD7uhdS0Xap1OFJYgCQb0ia4Q8DMgsG1_ibk64JSBpbsEeIjgcSv-0kKSSOzV3Sy_xENm8gtWFRmg_sN0DXqQxfRwfdRPHuGvnGe13OiFq6kMHBsuLDsq2jBXbWWRb_zpBPf__xjT1jieeC",
          "width": 5261
        }
      ],
      "place_id": "ChIJAQAAAPDTHWAR_OjUNpvyFko",
      "plus_code": {
        "compound_code": "9J5R+2P 軽井沢町、長野県",
        "global_code": "8Q8W9J5R+2P"
      },
      "types": [
        "restaurant",
        "food",
        "point_of_interest",
        "establishment"
      ]
    },
    {
      "business_status": "OPERATIONAL",
      "formatted_address": "日本、〒389-0102 長野県北佐久郡軽井沢町軽井沢９２５",
      "geometry": {
        "location": {
          "lat": 36.3575023,
          "lng": 138.6418346
        },
        "viewport": {
          "northeast": {
            "lat": 36.35880797989272,
            "lng": 138.6430320298927
          },
          "southwest": {
            "lat": 36.35610832010728,
            "lng": 138.6403323701072
          }
        }
      },
      "icon": "https://maps.gstatic.com/mapfiles/place_api/icons/v1/png_71/lodging-71.png",
      "name": "万平ホテル",
      "photos": [
        {
          "height": 3024,
          "html_attributions": [
            "<a href=\"https://maps.google.com/maps/contrib/111441633430114615311\">淳</a>"
          ],
          "photo_reference": "Aap_uEBQ1F-8OOKCuRX7Pi7Z8lx1LvcmJggD8QoWlCVvZ3XtA8SnOQlw8z0j3Cx4OYzyomdNtP4-_lDLraADGdzf_4jQ3AKWbPpnO4lNiXD3CxBAzWu8FOT7xdehwKfkSS_pOEsBSwQ45h98g-DLTj54uEMDsf0oGBOHvURTbdVjg6Suc1Xf",
          "width": 4032
        }
      ],
      "place_id": "ChIJ1TxK0XjUHWAR15jfw3aOkiI",
      "plus_code": {
        "compound_code": "9J5R+2P 軽井沢町、長野県",
        "global_code": "8Q8W9J5R+2P"
      },
      "types": [
        "lodging",
        "point_of_interest",
        "establishment"
      ]
    }
  ],
  "status": "OK"
}