[
  {
    "address_components": [
      {
        "long_name": "軽井沢町",
        "short_name": "軽井沢町",
        "types": [
          "locality",
          "political"
        ]
      },
      {
        "long_name": "北佐久郡",
        "short_name": "北佐久郡",
        "types": [
          "administrative_area_level_2",
          "political"
        ]
      },
      {
        "long_name": "長野県",
        "short_name": "長野県",
        "types": [
          "administrative_area_level_1",
          "political"
        ]
      },
      {
        "long_name": "日本",
        "short_name": "JP",
        "types": [
          "country",
          "political"
        ]
      }
    ],
    "formatted_address": "日本、長野県北佐久郡軽井沢町",
    "geometry": {
      "bounds": {
        "northeast": {
          "lat": 36.424134,
          "lng": 138.6571931
        },
        "southwest": {
          "lat": 36.27847089999999,
          "lng": 138.5075049
        }
      },
      "location": {
        "lat": 36.3483927,
        "lng": 138.5970297
      },
      "location_type": "APPROXIMATE",
      "viewport": {
        "northeast": {
          "lat": 36.424134,
          "lng": 138.6571931
        },
        "southwest": {
          "lat": 36.27847089999999,
          "lng": 138.5075049
        }
      }
    },
    "partial_match": true,
    "place_id": "ChIJk6PBPzzSHWAR-XHag0iPEZk",
    "types": [
      "locality",
      "political"
    ]
  },
  {
    "address_components": [
      {
        "long_name": "１７３１",
        "short_name": "１７３１",
        "types": [
          "premise"
        ]
      },
      {
        "long_name": "相俣",
        "short_name": "相俣",
        "types": [
          "political",
          "sublocality",
          "sublocality_level_2"
        ]
      },
      {
        "long_name": "みなかみ町",
        "short_name": "みなかみ町",
        "types": [
          "locality",
          "political"
        ]
      },
      {
        "long_name": "利根郡",
        "short_name": "利根郡",
        "types": [
          "administrative_area_level_2",
          "political"
        ]
      },
      {
        "long_name": "群馬県",
        "short_name": "群馬県",
        "types": [
          "administrative_area_level_1",
          "political"
        ]
      },
      {
        "long_name": "日本",
        "short_name": "JP",
        "types": [
          "country",
          "political"
        ]
      },
      {
        "long_name": "379-1404",
        "short_name": "379-1404",
        "types": [
          "postal_code"
        ]
      }
    ],
    "formatted_address": "日本、〒379-1404 群馬県利根郡みなかみ町相俣１７３１",
    "geometry": {
      "location": {
        "lat": 36.726965,
        "lng": 138.89355
      },
      "location_type": "ROOFTOP",
      "viewport": {
        "northeast": {
          "lat": 36.7283323302915,
          "lng": 138.8950711302915
        },
        "southwest": {
          "lat": 36.7256343697085,
          "lng": 138.8923731697085
        }
      }
    },
    "partial_match": true,
    "place_id": "ChIJtZaEvr0SHmARfSV_PPsMxnI",
    "plus_code": {
      "compound_code": "PVGV+QC 日本、群馬県みなかみ町",
      "global_code": "8Q8WPVGV+QC"
    },
    "types": [
      "establishment",
      "lodging",
      "point_of_interest"
    ]
  }
]