{
  "candidates": [
    {
      "business_status": "OPERATIONAL",
      "formatted_address": "日本、〒389-0194 長野県北佐久郡軽井沢町長倉２１４８ ハルニレテラス",
      "geometry": {
        "location": {
          "lat": 36.3592426,
          "lng": 138.5904056
        },
        "viewport": {
          "northeast": {
            "lat": 36.36055447989273,
            "lng": 138.5915970298927
          },
          "southwest": {
            "lat": 36.35785482010728,
            "lng": 138.5888973701072
          }
        }
      },
      "icon": "https://maps.gstatic.com/mapfiles/place_api/icons/v1/png_71/restaurant-71.png",
      "name": "CERCLE(セルクル) wine & deli KARUIZAWA",
      "photos": [
        {
          "height": 3024,
          "html_attributions": [
            "<a href=\"https://maps.google.com/maps/contrib/112170375465241984631\">山浦修</a>"
          ],
          "photo_reference": "Aap_uEDuyVhSeb7UocyhGJLUvoczGe0DG2b2yLShUmnwBlLwKUxrXzNnBbgotN28cFSmFKFvcBH26WiV7-iwh4k3UIaAkzdppwHwA6JUEfdJ8NDdgvlI5OMFboZS1LPN7l-IdA0ly8jUVlxvyEAeppImE5XyZqvyCzkSQQAemzVfdk6iJpHF",
          "width": 4032
        }
      ],
      "place_id": "ChIJT0FRvy_SHWARr7g4cNsNoUQ",
      "plus_code": {
        "compound_code": "9H5R+M5 軽井沢町、長野県",
        "global_code": "8Q8W9H5R+M5"
      },
      "types": [
        "liquor_store",
        "bar",
        "store",
        "restaurant",
        "point_of_interest",
        "food",
        "establishment"
      ]
    },
    {
      "business_status": "OPERATIONAL",
      "formatted_address": "日本、〒389-0111 長野県北佐久郡軽井沢町長倉２１４５−５",
      "geometry": {
        "location": {
          "lat": 36.3593351,
          "lng": 138.5902665
        },
        "viewport": {
          "northeast": {
            "lat": 36.36065242989272,
            "lng": 138.5915068798927
          },
          "southwest": {
            "lat": 36.35795277010727,
            "lng": 138.5888072201072
          }
        }
      },
      "icon": "https://maps.gstatic.com/mapfiles/place_api/icons/v1/png_71/generic_business-71.png",
      "name": "セルクル",
      "place_id": "ChIJayOfvi_SHWARZCrjKI9UzZ0",
      "plus_code": {
        "compound_code": "9H5R+P4 軽井沢町、長野県",
        "global_code": "8Q8W9H5R+P4"
      },
      "types": [
        "point_of_interest",
        "establishment"
      ]
    }
  ],
  "status": "OK"
}