[
  {
    "address_components": [
      {
        "long_name": "軽井沢",
        "short_name": "軽井沢",
        "types": [
          "political",
          "sublocality",
          "sublocality_level_2"
        ]
      },
      {
        "long_name": "軽井沢町",
        "short_name": "軽井沢町",
        "types": [
          "locality",
          "political"
        ]
      },
      {
        "long_name": "北佐久郡",
        "short_name": "北佐久郡",
        "types": [
          "administrative_area_level_2",
          "political"
        ]
      },
      {
        "long_name": "長野県",
        "short_name": "長野県",
        "types": [
          "administrative_area_level_1",
          "political"
        ]
      },
      {
        "long_name": "日本",
        "short_name": "JP",
        "types": [
          "country",
          "political"
        ]
      },
      {
        "long_name": "389-0102",
        "short_name": "389-0102",
        "types": [
          "postal_code"
        ]
      }
    ],
    "formatted_address": "日本、〒389-0102 長野県北佐久郡軽井沢町軽井沢",
    "geometry": {
      "bounds": {
        "northeast": {
          "lat": 36.41791449999999,
          "lng": 138.6545133
        },
        "southwest": {
          "lat": 36.31933730000001,
          "lng": 138.6110868
        }
      },
      "location": {
        "lat": 36.3741834,
        "lng": 138.6288642
      },
      "location_type": "APPROXIMATE",
      "viewport": {
        "northeast": {
          "lat": 36.41791449999999,
          "lng": 138.6545133
        },
        "southwest": {
          "lat": 36.31933730000001,
          "lng": 138.6110868
        }
      }
    },
    "partial_match": true,
    "place_id": "ChIJ116rGYLTHWARUjaA27PxUjk",
    "types": [
      "political",
      "sublocality",
      "sublocality_level_2"
    ]
  },
  {
    "address_components": [
      {
        "long_name": "８４０６−２",
        "short_name": "８４０６−２",
        "types": [
          "premise"
        ]
      },
      {
        "long_name": "和",
        "short_name": "和",
        "types": [
          "political",
          "sublocality",
          "sublocality_level_2"
        ]
      },
      {
        "long_name": "東御市",
        "short_name": "東御市",
        "types": [
          "locality",
          "political"
        ]
      },
      {
        "long_name": "長野県",
        "short_name": "長野県",
        "types": [
          "administrative_area_level_1",
          "political"
        ]
      },
      {
        "long_name": "日本",
        "short_name": "JP",
        "types": [
          "country",
          "political"
        ]
      },
      {
        "long_name": "389-0505",
        "short_name": "389-0505",
        "types": [
          "postal_code"
        ]
      }
    ],
    "formatted_address": "日本、〒389-0505 長野県東御市和８４０６−２",
    "geometry": {
      "location": {
        "lat": 36.372409,
        "lng": 138.33313
      },
      "location_type": "ROOFTOP",
      "viewport": {
        "northeast": {
          "lat": 36.37391308029149,
          "lng": 138.3345470802915
        },
        "southwest": {
          "lat": 36.3712151197085,
          "lng": 138.3318491197085
        }
      }
    },
    "partial_match": true,
    "place_id": "ChIJj3e-cXG5HWARLl0Dxa31eHU",
    "plus_code": {
      "compound_code": "98CM+X7 日本、長野県東御市",
      "global_code": "8Q8W98CM+X7"
    },
    "types": [
      "cafe",
      "establishment",
      "food",
      "point_of_interest",
      "store"
    ]
  }
]