[
  {
    "address_components": [
      {
        "long_name": "２３４８−１２",
        "short_name": "２３４８−１２",
        "types": [
          "premise"
        ]
      },
      {
        "long_name": "長倉",
        "short_name": "長倉",
        "types": [
          "political",
          "sublocality",
          "sublocality_level_2"
        ]
      },
      {
        "long_name": "軽井沢町",
        "short_name": "軽井沢町",
        "types": [
          "locality",
          "political"
        ]
      },
      {
        "long_name": "北佐久郡",
        "short_name": "北佐久郡",
        "types": [
          "administrative_area_level_2",
          "political"
        ]
      },
      {
        "long_name": "長野県",
        "short_name": "長野県",
        "types": [
          "administrative_area_level_1",
          "political"
        ]
      },
      {
        "long_name": "日本",
        "short_name": "JP",
        "types": [
          "country",
          "political"
        ]
      },
      {
        "long_name": "389-0111",
        "short_name": "389-0111",
        "types": [
          "postal_code"
        ]
      }
    ],
    "formatted_address": "日本、〒389-0111 長野県北佐久郡軽井沢町長倉２３４８−１２",
    "geometry": {
      "bounds": {
        "northeast": {
          "lat": 36.3514768,
          "lng": 138.6000477
        },
        "southwest": {
          "lat": 36.3513011,
          "lng": 138.5998263
        }
      },
      "location": {
        "lat": 36.3513938,
        "lng": 138.5999192
      },
      "location_type": "ROOFTOP",
      "viewport": {
        "northeast": {
          "lat": 36.35275353029149,
          "lng": 138.6012537802915
        },
        "southwest": {
          "lat": 36.35005556970849,
          "lng": 138.5985558197085
        }
      }
    },
    "place_id": "ChIJWV8WPbXTHWARbhBmQLAVChE",
    "types": [
      "premise"
    ]
  }
]