[
  {
    "address_components": [
      {
        "long_name": "８１５",
        "short_name": "８１５",
        "types": [
          "premise"
        ]
      },
      {
        "long_name": "長倉",
        "short_name": "長倉",
        "types": [
          "political",
          "sublocality",
          "sublocality_level_2"
        ]
      },
      {
        "long_name": "軽井沢町",
        "short_name": "軽井沢町",
        "types": [
          "locality",
          "political"
        ]
      },
      {
        "long_name": "北佐久郡",
        "short_name": "北佐久郡",
        "types": [
          "administrative_area_level_2",
          "political"
        ]
      },
      {
        "long_name": "長野県",
        "short_name": "長野県",
        "types": [
          "administrative_area_level_1",
          "political"
        ]
      },
      {
        "long_name": "日本",
        "short_name": "JP",
        "types": [
          "country",
          "political"
        ]
      },
      {
        "long_name": "389-0111",
        "short_name": "389-0111",
        "types": [
          "postal_code"
        ]
      }
    ],
    "formatted_address": "日本、〒389-0111 長野県北佐久郡軽井沢町長倉８１５",
    "geometry": {
      "bounds": {
        "northeast": {
          "lat": 36.3359282,
          "lng": 138.5970372
        },
        "southwest": {
          "lat": 36.3357724,
          "lng": 138.5967309
        }
      },
      "location": {
        "lat": 36.3358532,
        "lng": 138.596867
      },
      "location_type": "ROOFTOP",
      "viewport": {
        "northeast": {
          "lat": 36.3371900802915,
          "lng": 138.5982330302915
        },
        "southwest": {
          "lat": 36.3344921197085,
          "lng": 138.5955350697085
        }
      }
    },
    "place_id": "ChIJDQ_THFXSHWARNp7mZwOYoR4",
    "types": [
      "premise"
    ]
  }
]