[
  {
    "address_components": [
      {
        "long_name": "１１９−７",
        "short_name": "１１９−７",
        "types": [
          "premise"
        ]
      },
      {
        "long_name": "追分",
        "short_name": "追分",
        "types": [
          "political",
          "sublocality",
          "sublocality_level_2"
        ]
      },
      {
        "long_name": "軽井沢町",
        "short_name": "軽井沢町",
        "types": [
          "locality",
          "political"
        ]
      },
      {
        "long_name": "北佐久郡",
        "short_name": "北佐久郡",
        "types": [
          "administrative_area_level_2",
          "political"
        ]
      },
      {
        "long_name": "長野県",
        "short_name": "長野県",
        "types": [
          "administrative_area_level_1",
          "political"
        ]
      },
      {
        "long_name": "日本",
        "short_name": "JP",
        "types": [
          "country",
          "political"
        ]
      },
      {
        "long_name": "389-0115",
        "short_name": "389-0115",
        "types": [
          "postal_code"
        ]
      }
    ],
    "formatted_address": "日本、〒389-0115 長野県北佐久郡軽井沢町追分１１９−７",
    "geometry": {
      "bounds": {
        "northeast": {
          "lat": 36.3364295,
          "lng": 138.5360597
        },
        "southwest": {
          "lat": 36.3362493,
          "lng": 138.53581
        }
      },
      "location": {
        "lat": 36.3363316,
        "lng": 138.5359376
      },
      "location_type": "ROOFTOP",
      "viewport": {
        "northeast": {
          "lat": 36.3377013802915,
          "lng": 138.5372838302915
        },
        "southwest": {
          "lat": 36.3350034197085,
          "lng": 138.5345858697085
        }
      }
    },
    "place_id": "ChIJycYv4dzNHWARqhujoR2E3Vs",
    "types": [
      "premise"
    ]
  }
]