[
  {
    "address_components": [
      {
        "long_name": "２０８５",
        "short_name": "２０８５",
        "types": [
          "premise"
        ]
      },
      {
        "long_name": "馬瀬口",
        "short_name": "馬瀬口",
        "types": [
          "political",
          "sublocality",
          "sublocality_level_2"
        ]
      },
      {
        "long_name": "御代田町",
        "short_name": "御代田町",
        "types": [
          "locality",
          "political"
        ]
      },
      {
        "long_name": "北佐久郡",
        "short_name": "北佐久郡",
        "types": [
          "administrative_area_level_2",
          "political"
        ]
      },
      {
        "long_name": "長野県",
        "short_name": "長野県",
        "types": [
          "administrative_area_level_1",
          "political"
        ]
      },
      {
        "long_name": "日本",
        "short_name": "JP",
        "types": [
          "country",
          "political"
        ]
      },
      {
        "long_name": "389-0207",
        "short_name": "389-0207",
        "types": [
          "postal_code"
        ]
      }
    ],
    "formatted_address": "日本、〒389-0207 長野県北佐久郡御代田町馬瀬口２０８５",
    "geometry": {
      "bounds": {
        "northeast": {
          "lat": 36.3222303,
          "lng": 138.4988868
        },
        "southwest": {
          "lat": 36.3220841,
          "lng": 138.4985905
        }
      },
      "location": {
        "lat": 36.3221471,
        "lng": 138.4987403
      },
      "location_type": "ROOFTOP",
      "viewport": {
        "northeast": {
          "lat": 36.32346998029149,
          "lng": 138.5001126302915
        },
        "southwest": {
          "lat": 36.3207720197085,
          "lng": 138.4974146697085
        }
      }
    },
    "place_id": "ChIJf-wBeCLMHWARfAsAN71fsoo",
    "types": [
      "premise"
    ]
  }
]