[
  {
    "address_components": [
      {
        "long_name": "御代田町",
        "short_name": "御代田町",
        "types": [
          "locality",
          "political"
        ]
      },
      {
        "long_name": "北佐久郡",
        "short_name": "北佐久郡",
        "types": [
          "administrative_area_level_2",
          "political"
        ]
      },
      {
        "long_name": "長野県",
        "short_name": "長野県",
        "types": [
          "administrative_area_level_1",
          "political"
        ]
      },
      {
        "long_name": "日本",
        "short_name": "JP",
        "types": [
          "country",
          "political"
        ]
      }
    ],
    "formatted_address": "日本、長野県北佐久郡御代田町",
    "geometry": {
      "bounds": {
        "northeast": {
          "lat": 36.4138973,
          "lng": 138.5798592
        },
        "southwest": {
          "lat": 36.279532,
          "lng": 138.4576675
        }
      },
      "location": {
        "lat": 36.3212828,
        "lng": 138.508717
      },
      "location_type": "APPROXIMATE",
      "viewport": {
        "northeast": {
          "lat": 36.4138973,
          "lng": 138.5798592
        },
        "southwest": {
          "lat": 36.279532,
          "lng": 138.4576675
        }
      }
    },
    "partial_match": true,
    "place_id": "ChIJF0-EoGLOHWARXGLjCIjA0EE",
    "types": [
      "locality",
      "political"
    ]
  },
  {
    "address_components": [
      {
        "long_name": "久保",
        "short_name": "久保",
        "types": [
          "political",
          "sublocality",
          "sublocality_level_3"
        ]
      },
      {
        "long_name": "鉢",
        "short_name": "鉢",
        "types": [
          "political",
          "sublocality",
          "sublocality_level_2"
        ]
      },
      {
        "long_name": "那賀町",
        "short_name": "那賀町",
        "types": [
          "locality",
          "political"
        ]
      },
      {
        "long_name": "那賀郡",
        "short_name": "那賀郡",
        "types": [
          "administrative_area_level_2",
          "political"
        ]
      },
      {
        "long_name": "徳島県",
        "short_name": "徳島県",
        "types": [
          "administrative_area_level_1",
          "political"
        ]
      },
      {
        "long_name": "日本",
        "short_name": "JP",
        "types": [
          "country",
          "political"
        ]
      },
      {
        "long_name": "771-5409",
        "short_name": "771-5409",
        "types": [
          "postal_code"
        ]
      }
    ],
    "formatted_address": "日本、〒771-5409 徳島県那賀郡那賀町鉢久保",
    "geometry": {
      "bounds": {
        "northeast": {
          "lat": 33.7996453,
          "lng": 134.462098
        },
        "southwest": {
          "lat": 33.7968429,
          "lng": 134.4591741
        }
      },
      "location": {
        "lat": 33.7984071,
        "lng": 134.4603575
      },
      "location_type": "APPROXIMATE",
      "viewport": {
        "northeast": {
          "lat": 33.7996453,
          "lng": 134.462098
        },
        "southwest": {
          "lat": 33.7968429,
          "lng": 134.4591741
        }
      }
    },
    "partial_match": true,
    "place_id": "ChIJRdy-xxD-UjURRjlSxov2o8Q",
    "types": [
      "political",
      "sublocality",
      "sublocality_level_3"
    ]
  }
]