[
  {
    "address_components": [
      {
        "long_name": "三郷温",
        "short_name": "三郷温",
        "types": [
          "political",
          "sublocality",
          "sublocality_level_2"
        ]
      },
      {
        "long_name": "安曇野市",
        "short_name": "安曇野市",
        "types": [
          "locality",
          "political"
        ]
      },
      {
        "long_name": "長野県",
        "short_name": "長野県",
        "types": [
          "administrative_area_level_1",
          "political"
        ]
      },
      {
        "long_name": "日本",
        "short_name": "JP",
        "types": [
          "country",
          "political"
        ]
      },
      {
        "long_name": "399-8102",
        "short_name": "399-8102",
        "types": [
          "postal_code"
        ]
      }
    ],
    "formatted_address": "日本、〒399-8102 長野県安曇野市三郷温",
    "geometry": {
      "bounds": {
        "northeast": {
          "lat": 36.2875011,
          "lng": 137.8983425
        },
        "southwest": {
          "lat": 36.2388599,
          "lng": 137.8640833
        }
      },
      "location": {
        "lat": 36.2562529,
        "lng": 137.8773175
      },
      "location_type": "APPROXIMATE",
      "viewport": {
        "northeast": {
          "lat": 36.2875011,
          "lng": 137.8983425
        },
        "southwest": {
          "lat": 36.2388599,
          "lng": 137.8640833
        }
      }
    },
    "partial_match": true,
    "place_id": "ChIJKUTkFiATHWARBzCGlOBvrY4",
    "types": [
      "political",
      "sublocality",
      "sublocality_level_2"
    ]
  },
  {
    "address_components": [
      {
        "long_name": "いばらきフラワーパーク",
        "short_name": "いばらきフラワーパーク",
        "types": [
          "establishment",
          "park",
          "point_of_interest",
          "tourist_attraction"
        ]
      },
      {
        "long_name": "200番地",
        "short_name": "200番地",
        "types": [
          "premise"
        ]
      },
      {
        "long_name": "下青柳",
        "short_name": "下青柳",
        "types": [
          "political",
          "sublocality",
          "sublocality_level_2"
        ]
      },
      {
        "long_name": "石岡市",
        "short_name": "石岡市",
        "types": [
          "locality",
          "political"
        ]
      },
      {
        "long_name": "茨城県",
        "short_name": "茨城県",
        "types": [
          "administrative_area_level_1",
          "political"
        ]
      },
      {
        "long_name": "日本",
        "short_name": "JP",
        "types": [
          "country",
          "political"
        ]
      },
      {
        "long_name": "315-0153",
        "short_name": "315-0153",
        "types": [
          "postal_code"
        ]
      }
    ],
    "formatted_address": "日本、〒315-0153 茨城県石岡市下青柳200番地 いばらきフラワーパーク",
    "geometry": {
      "location": {
        "lat": 36.21211,
        "lng": 140.1725499
      },
      "location_type": "ROOFTOP",
      "viewport": {
        "northeast": {
          "lat": 36.21338093029149,
          "lng": 140.1739823802915
        },
        "southwest": {
          "lat": 36.21068296970849,
          "lng": 140.1712844197085
        }
      }
    },
    "partial_match": true,
    "place_id": "ChIJRzhI3fkPImARrP52BLDwbK8",
    "plus_code": {
      "compound_code": "656F+R2 茨城県石岡市",
      "global_code": "8R82656F+R2"
    },
    "types": [
      "establishment",
      "park",
      "point_of_interest",
      "tourist_attraction"
    ]
  }
]