[
  {
    "address_components": [
      {
        "long_name": "８２０８−５",
        "short_name": "８２０８−５",
        "types": [
          "premise"
        ]
      },
      {
        "long_name": "穂高有明",
        "short_name": "穂高有明",
        "types": [
          "political",
          "sublocality",
          "sublocality_level_2"
        ]
      },
      {
        "long_name": "安曇野市",
        "short_name": "安曇野市",
        "types": [
          "locality",
          "political"
        ]
      },
      {
        "long_name": "長野県",
        "short_name": "長野県",
        "types": [
          "administrative_area_level_1",
          "political"
        ]
      },
      {
        "long_name": "日本",
        "short_name": "JP",
        "types": [
          "country",
          "political"
        ]
      },
      {
        "long_name": "399-8301",
        "short_name": "399-8301",
        "types": [
          "postal_code"
        ]
      }
    ],
    "formatted_address": "日本、〒399-8301 長野県安曇野市穂高有明８２０８−５",
    "geometry": {
      "bounds": {
        "northeast": {
          "lat": 36.3377037,
          "lng": 137.841878
        },
        "southwest": {
          "lat": 36.3375695,
          "lng": 137.8415915
        }
      },
      "location": {
        "lat": 36.3376242,
        "lng": 137.8416879
      },
      "location_type": "ROOFTOP",
      "viewport": {
        "northeast": {
          "lat": 36.33895563029149,
          "lng": 137.8430837302915
        },
        "southwest": {
          "lat": 36.33625766970849,
          "lng": 137.8403857697085
        }
      }
    },
    "place_id": "ChIJRQvU3FRpHWARlexsy7i47dk",
    "types": [
      "premise"
    ]
  }
]