[
  {
    "address_components": [
      {
        "long_name": "９４３５",
        "short_name": "９４３５",
        "types": [
          "premise"
        ]
      },
      {
        "long_name": "穂高有明",
        "short_name": "穂高有明",
        "types": [
          "political",
          "sublocality",
          "sublocality_level_2"
        ]
      },
      {
        "long_name": "安曇野市",
        "short_name": "安曇野市",
        "types": [
          "locality",
          "political"
        ]
      },
      {
        "long_name": "長野県",
        "short_name": "長野県",
        "types": [
          "administrative_area_level_1",
          "political"
        ]
      },
      {
        "long_name": "日本",
        "short_name": "JP",
        "types": [
          "country",
          "political"
        ]
      },
      {
        "long_name": "399-8301",
        "short_name": "399-8301",
        "types": [
          "postal_code"
        ]
      }
    ],
    "formatted_address": "日本、〒399-8301 長野県安曇野市穂高有明９４３５",
    "geometry": {
      "bounds": {
        "northeast": {
          "lat": 36.345416,
          "lng": 137.8669797
        },
        "southwest": {
          "lat": 36.345145,
          "lng": 137.8665674
        }
      },
      "location": {
        "lat": 36.34524750000001,
        "lng": 137.8667767
      },
      "location_type": "ROOFTOP",
      "viewport": {
        "northeast": {
          "lat": 36.3465542302915,
          "lng": 137.8681225302915
        },
        "southwest": {
          "lat": 36.3438562697085,
          "lng": 137.8654245697085
        }
      }
    },
    "place_id": "ChIJt-bFpSBsHWARwwnw9fVgVes",
    "types": [
      "premise"
    ]
  }
]