[
  {
    "address_components": [
      {
        "long_name": "４６７７−１",
        "short_name": "４６７７−１",
        "types": [
          "premise"
        ]
      },
      {
        "long_name": "豊科",
        "short_name": "豊科",
        "types": [
          "political",
          "sublocality",
          "sublocality_level_2"
        ]
      },
      {
        "long_name": "安曇野市",
        "short_name": "安曇野市",
        "types": [
          "locality",
          "political"
        ]
      },
      {
        "long_name": "長野県",
        "short_name": "長野県",
        "types": [
          "administrative_area_level_1",
          "political"
        ]
      },
      {
        "long_name": "日本",
        "short_name": "JP",
        "types": [
          "country",
          "political"
        ]
      },
      {
        "long_name": "399-8205",
        "short_name": "399-8205",
        "types": [
          "postal_code"
        ]
      }
    ],
    "formatted_address": "日本、〒399-8205 長野県安曇野市豊科４６７７−１",
    "geometry": {
      "bounds": {
        "northeast": {
          "lat": 36.2990456,
          "lng": 137.9014922
        },
        "southwest": {
          "lat": 36.2985212,
          "lng": 137.9011228
        }
      },
      "location": {
        "lat": 36.2987459,
        "lng": 137.9013027
      },
      "location_type": "ROOFTOP",
      "viewport": {
        "northeast": {
          "lat": 36.30013238029149,
          "lng": 137.9026564802915
        },
        "southwest": {
          "lat": 36.29743441970849,
          "lng": 137.8999585197085
        }
      }
    },
    "place_id": "ChIJi6DtEThtHWARkpMDElU6ev4",
    "types": [
      "premise"
    ]
  }
]