[
  {
    "address_components": [
      {
        "long_name": "５６３７−１７",
        "short_name": "５６３７−１７",
        "types": [
          "premise"
        ]
      },
      {
        "long_name": "豊科",
        "short_name": "豊科",
        "types": [
          "political",
          "sublocality",
          "sublocality_level_2"
        ]
      },
      {
        "long_name": "安曇野市",
        "short_name": "安曇野市",
        "types": [
          "locality",
          "political"
        ]
      },
      {
        "long_name": "長野県",
        "short_name": "長野県",
        "types": [
          "administrative_area_level_1",
          "political"
        ]
      },
      {
        "long_name": "日本",
        "short_name": "JP",
        "types": [
          "country",
          "political"
        ]
      },
      {
        "long_name": "399-8205",
        "short_name": "399-8205",
        "types": [
          "postal_code"
        ]
      }
    ],
    "formatted_address": "日本、〒399-8205 長野県安曇野市豊科５６３７−１７",
    "geometry": {
      "bounds": {
        "northeast": {
          "lat": 36.3034926,
          "lng": 137.905006
        },
        "southwest": {
          "lat": 36.3034112,
          "lng": 137.9049573
        }
      },
      "location": {
        "lat": 36.3034541,
        "lng": 137.9049826
      },
      "location_type": "ROOFTOP",
      "viewport": {
        "northeast": {
          "lat": 36.3048212802915,
          "lng": 137.9063891802915
        },
        "southwest": {
          "lat": 36.3021233197085,
          "lng": 137.9036912197085
        }
      }
    },
    "place_id": "ChIJtc6F2kZtHWAReWEB1fS-CB0",
    "types": [
      "premise"
    ]
  }
]