[
  {
    "address_components": [
      {
        "long_name": "６７８０",
        "short_name": "６７８０",
        "types": [
          "premise"
        ]
      },
      {
        "long_name": "豊科南穂高",
        "short_name": "豊科南穂高",
        "types": [
          "political",
          "sublocality",
          "sublocality_level_2"
        ]
      },
      {
        "long_name": "安曇野市",
        "short_name": "安曇野市",
        "types": [
          "locality",
          "political"
        ]
      },
      {
        "long_name": "長野県",
        "short_name": "長野県",
        "types": [
          "administrative_area_level_1",
          "political"
        ]
      },
      {
        "long_name": "日本",
        "short_name": "JP",
        "types": [
          "country",
          "political"
        ]
      },
      {
        "long_name": "399-8201",
        "short_name": "399-8201",
        "types": [
          "postal_code"
        ]
      }
    ],
    "formatted_address": "日本、〒399-8201 長野県安曇野市豊科南穂高６７８０",
    "geometry": {
      "bounds": {
        "northeast": {
          "lat": 36.3264324,
          "lng": 137.9057682
        },
        "southwest": {
          "lat": 36.3259576,
          "lng": 137.9053168
        }
      },
      "location": {
        "lat": 36.32618,
        "lng": 137.9055524
      },
      "location_type": "ROOFTOP",
      "viewport": {
        "northeast": {
          "lat": 36.3274151802915,
          "lng": 137.9068562802915
        },
        "southwest": {
          "lat": 36.3247172197085,
          "lng": 137.9041583197085
        }
      }
    },
    "place_id": "ChIJSy8ljHVtHWAROOzKsQJ_qXw",
    "types": [
      "premise"
    ]
  }
]