[
  {
    "address_components": [
      {
        "long_name": "柿沢",
        "short_name": "柿沢",
        "types": [
          "political",
          "sublocality",
          "sublocality_level_2"
        ]
      },
      {
        "long_name": "塩尻市",
        "short_name": "塩尻市",
        "types": [
          "locality",
          "political"
        ]
      },
      {
        "long_name": "長野県",
        "short_name": "長野県",
        "types": [
          "administrative_area_level_1",
          "political"
        ]
      },
      {
        "long_name": "日本",
        "short_name": "JP",
        "types": [
          "country",
          "political"
        ]
      },
      {
        "long_name": "399-0722",
        "short_name": "399-0722",
        "types": [
          "postal_code"
        ]
      }
    ],
    "formatted_address": "日本、〒399-0722 長野県塩尻市柿沢",
    "geometry": {
      "bounds": {
        "northeast": {
          "lat": 36.1076505,
          "lng": 138.029676
        },
        "southwest": {
          "lat": 36.0917966,
          "lng": 137.9786993
        }
      },
      "location": {
        "lat": 36.1003928,
        "lng": 137.9973127
      },
      "location_type": "APPROXIMATE",
      "viewport": {
        "northeast": {
          "lat": 36.1076505,
          "lng": 138.029676
        },
        "southwest": {
          "lat": 36.0917966,
          "lng": 137.9786993
        }
      }
    },
    "partial_match": true,
    "place_id": "ChIJ4SebOl4BHWARMaimb-A2-qs",
    "types": [
      "political",
      "sublocality",
      "sublocality_level_2"
    ]
  },
  {
    "address_components": [
      {
        "long_name": "一番町",
        "short_name": "一番町",
        "types": [
          "political",
          "sublocality",
          "sublocality_level_2"
        ]
      },
      {
        "long_name": "千代田区",
        "short_name": "千代田区",
        "types": [
          "locality",
          "political"
        ]
      },
      {
        "long_name": "東京都",
        "short_name": "東京都",
        "types": [
          "administrative_area_level_1",
          "political"
        ]
      },
      {
        "long_name": "日本",
        "short_name": "JP",
        "types": [
          "country",
          "political"
        ]
      },
      {
        "long_name": "102-0082",
        "short_name": "102-0082",
        "types": [
          "postal_code"
        ]
      }
    ],
    "formatted_address": "日本、〒102-0082 東京都千代田区一番町",
    "geometry": {
      "location": {
        "lat": 35.6863985,
        "lng": 139.7416523
      },
      "location_type": "GEOMETRIC_CENTER",
      "viewport": {
        "northeast": {
          "lat": 35.6877441802915,
          "lng": 139.7430403802915
        },
        "southwest": {
          "lat": 35.6850462197085,
          "lng": 139.7403424197085
        }
      }
    },
    "partial_match": true,
    "place_id": "ChIJr38YXWWMGGAR-m5mqTPXdMI",
    "plus_code": {
      "compound_code": "MPPR+HM 東京都千代田区",
      "global_code": "8Q7XMPPR+HM"
    },
    "types": [
      "establishment",
      "point_of_interest",
      "tourist_attraction"
    ]
  }
]