[
  {
    "address_components": [
      {
        "long_name": "１０８７",
        "short_name": "１０８７",
        "types": [
          "premise"
        ]
      },
      {
        "long_name": "広丘吉田",
        "short_name": "広丘吉田",
        "types": [
          "political",
          "sublocality",
          "sublocality_level_2"
        ]
      },
      {
        "long_name": "塩尻市",
        "short_name": "塩尻市",
        "types": [
          "locality",
          "political"
        ]
      },
      {
        "long_name": "長野県",
        "short_name": "長野県",
        "types": [
          "administrative_area_level_1",
          "political"
        ]
      },
      {
        "long_name": "日本",
        "short_name": "JP",
        "types": [
          "country",
          "political"
        ]
      },
      {
        "long_name": "399-0701",
        "short_name": "399-0701",
        "types": [
          "postal_code"
        ]
      }
    ],
    "formatted_address": "日本、〒399-0701 長野県塩尻市広丘吉田１０８７",
    "geometry": {
      "bounds": {
        "northeast": {
          "lat": 36.1640628,
          "lng": 137.9538741
        },
        "southwest": {
          "lat": 36.16384830000001,
          "lng": 137.9536276
        }
      },
      "location": {
        "lat": 36.1639663,
        "lng": 137.9537911
      },
      "location_type": "ROOFTOP",
      "viewport": {
        "northeast": {
          "lat": 36.16530453029151,
          "lng": 137.9550598302915
        },
        "southwest": {
          "lat": 36.16260656970851,
          "lng": 137.9523618697085
        }
      }
    },
    "place_id": "ChIJX8nFhnwFHWARa9UXVMMjd4M",
    "types": [
      "premise"
    ]
  }
]