[
  {
    "address_components": [
      {
        "long_name": "３",
        "short_name": "３",
        "types": [
          "premise"
        ]
      },
      {
        "long_name": "３",
        "short_name": "３",
        "types": [
          "political",
          "sublocality",
          "sublocality_level_4"
        ]
      },
      {
        "long_name": "大門一番町",
        "short_name": "大門一番町",
        "types": [
          "political",
          "sublocality",
          "sublocality_level_2"
        ]
      },
      {
        "long_name": "塩尻市",
        "short_name": "塩尻市",
        "types": [
          "locality",
          "political"
        ]
      },
      {
        "long_name": "長野県",
        "short_name": "長野県",
        "types": [
          "administrative_area_level_1",
          "political"
        ]
      },
      {
        "long_name": "日本",
        "short_name": "JP",
        "types": [
          "country",
          "political"
        ]
      },
      {
        "long_name": "399-0736",
        "short_name": "399-0736",
        "types": [
          "postal_code"
        ]
      }
    ],
    "formatted_address": "日本、〒399-0736 長野県塩尻市大門一番町３−３",
    "geometry": {
      "bounds": {
        "northeast": {
          "lat": 36.1108615,
          "lng": 137.9523657
        },
        "southwest": {
          "lat": 36.1106172,
          "lng": 137.9520794
        }
      },
      "location": {
        "lat": 36.11070369999999,
        "lng": 137.9522443
      },
      "location_type": "ROOFTOP",
      "viewport": {
        "northeast": {
          "lat": 36.1121476302915,
          "lng": 137.9535292802915
        },
        "southwest": {
          "lat": 36.1094496697085,
          "lng": 137.9508313197085
        }
      }
    },
    "place_id": "ChIJi7NvkI0EHWARrQbl6EQ3g1Y",
    "types": [
      "premise"
    ]
  }
]