[
  {
    "address_components": [
      {
        "long_name": "２８９",
        "short_name": "２８９",
        "types": [
          "premise"
        ]
      },
      {
        "long_name": "奈良井",
        "short_name": "奈良井",
        "types": [
          "political",
          "sublocality",
          "sublocality_level_2"
        ]
      },
      {
        "long_name": "塩尻市",
        "short_name": "塩尻市",
        "types": [
          "locality",
          "political"
        ]
      },
      {
        "long_name": "長野県",
        "short_name": "長野県",
        "types": [
          "administrative_area_level_1",
          "political"
        ]
      },
      {
        "long_name": "日本",
        "short_name": "JP",
        "types": [
          "country",
          "political"
        ]
      },
      {
        "long_name": "399-6303",
        "short_name": "399-6303",
        "types": [
          "postal_code"
        ]
      }
    ],
    "formatted_address": "日本、〒399-6303 長野県塩尻市奈良井２８９",
    "geometry": {
      "bounds": {
        "northeast": {
          "lat": 35.9629396,
          "lng": 137.8085566
        },
        "southwest": {
          "lat": 35.9628363,
          "lng": 137.8083711
        }
      },
      "location": {
        "lat": 35.9628977,
        "lng": 137.8084634
      },
      "location_type": "ROOFTOP",
      "viewport": {
        "northeast": {
          "lat": 35.9642369302915,
          "lng": 137.8098231802915
        },
        "southwest": {
          "lat": 35.9615389697085,
          "lng": 137.8071252197085
        }
      }
    },
    "place_id": "ChIJfft19CkeHWARW2mKdwqkEGs",
    "types": [
      "premise"
    ]
  }
]