[
  {
    "address_components": [
      {
        "long_name": "１８００",
        "short_name": "１８００",
        "types": [
          "premise"
        ]
      },
      {
        "long_name": "木曽平沢",
        "short_name": "木曽平沢",
        "types": [
          "political",
          "sublocality",
          "sublocality_level_2"
        ]
      },
      {
        "long_name": "塩尻市",
        "short_name": "塩尻市",
        "types": [
          "locality",
          "political"
        ]
      },
      {
        "long_name": "長野県",
        "short_name": "長野県",
        "types": [
          "administrative_area_level_1",
          "political"
        ]
      },
      {
        "long_name": "日本",
        "short_name": "JP",
        "types": [
          "country",
          "political"
        ]
      },
      {
        "long_name": "399-6302",
        "short_name": "399-6302",
        "types": [
          "postal_code"
        ]
      }
    ],
    "formatted_address": "日本、〒399-6302 長野県塩尻市木曽平沢１８００",
    "geometry": {
      "bounds": {
        "northeast": {
          "lat": 35.9819173,
          "lng": 137.8334328
        },
        "southwest": {
          "lat": 35.981797,
          "lng": 137.8332801
        }
      },
      "location": {
        "lat": 35.9818637,
        "lng": 137.8333726
      },
      "location_type": "ROOFTOP",
      "viewport": {
        "northeast": {
          "lat": 35.9832061302915,
          "lng": 137.8346849802915
        },
        "southwest": {
          "lat": 35.9805081697085,
          "lng": 137.8319870197085
        }
      }
    },
    "place_id": "ChIJn6e8-Q8eHWARxmc9NZ6zdSo",
    "types": [
      "premise"
    ]
  }
]