[
  {
    "address_components": [
      {
        "long_name": "北山",
        "short_name": "北山",
        "types": [
          "political",
          "sublocality",
          "sublocality_level_2"
        ]
      },
      {
        "long_name": "茅野市",
        "short_name": "茅野市",
        "types": [
          "locality",
          "political"
        ]
      },
      {
        "long_name": "長野県",
        "short_name": "長野県",
        "types": [
          "administrative_area_level_1",
          "political"
        ]
      },
      {
        "long_name": "日本",
        "short_name": "JP",
        "types": [
          "country",
          "political"
        ]
      },
      {
        "long_name": "391-0301",
        "short_name": "391-0301",
        "types": [
          "postal_code"
        ]
      }
    ],
    "formatted_address": "日本、〒391-0301 長野県茅野市北山",
    "geometry": {
      "bounds": {
        "northeast": {
          "lat": 36.112594,
          "lng": 138.3529138
        },
        "southwest": {
          "lat": 36.0212718,
          "lng": 138.1903393
        }
      },
      "location": {
        "lat": 36.0611342,
        "lng": 138.2294017
      },
      "location_type": "APPROXIMATE",
      "viewport": {
        "northeast": {
          "lat": 36.112594,
          "lng": 138.3529138
        },
        "southwest": {
          "lat": 36.0212718,
          "lng": 138.1903393
        }
      }
    },
    "partial_match": true,
    "place_id": "ChIJPab2CF1OHGARVnAqkvEp2fc",
    "types": [
      "political",
      "sublocality",
      "sublocality_level_2"
    ]
  },
  {
    "address_components": [
      {
        "long_name": "鹿山",
        "short_name": "鹿山",
        "types": [
          "political",
          "sublocality",
          "sublocality_level_2"
        ]
      },
      {
        "long_name": "緑区",
        "short_name": "緑区",
        "types": [
          "political",
          "sublocality",
          "sublocality_level_1"
        ]
      },
      {
        "long_name": "名古屋市",
        "short_name": "名古屋市",
        "types": [
          "locality",
          "political"
        ]
      },
      {
        "long_name": "愛知県",
        "short_name": "愛知県",
        "types": [
          "administrative_area_level_1",
          "political"
        ]
      },
      {
        "long_name": "日本",
        "short_name": "JP",
        "types": [
          "country",
          "political"
        ]
      },
      {
        "long_name": "458-0045",
        "short_name": "458-0045",
        "types": [
          "postal_code"
        ]
      }
    ],
    "formatted_address": "日本、〒458-0045 愛知県名古屋市緑区鹿山",
    "geometry": {
      "bounds": {
        "northeast": {
          "lat": 35.091742,
          "lng": 136.9696803
        },
        "southwest": {
          "lat": 35.086401,
          "lng": 136.9579589
        }
      },
      "location": {
        "lat": 35.0895672,
        "lng": 136.9641163
      },
      "location_type": "APPROXIMATE",
      "viewport": {
        "northeast": {
          "lat": 35.091742,
          "lng": 136.9696803
        },
        "southwest": {
          "lat": 35.086401,
          "lng": 136.9579589
        }
      }
    },
    "partial_match": true,
    "place_id": "ChIJFXIg_KB8A2ARUiebr9aUcNk",
    "types": [
      "political",
      "sublocality",
      "sublocality_level_2"
    ]
  }
]