[
  {
    "address_components": [
      {
        "long_name": "５５１３−１５７",
        "short_name": "５５１３−１５７",
        "types": [
          "premise"
        ]
      },
      {
        "long_name": "蓼科",
        "short_name": "蓼科",
        "types": [
          "political",
          "sublocality",
          "sublocality_level_3"
        ]
      },
      {
        "long_name": "北山",
        "short_name": "北山",
        "types": [
          "political",
          "sublocality",
          "sublocality_level_2"
        ]
      },
      {
        "long_name": "茅野市",
        "short_name": "茅野市",
        "types": [
          "locality",
          "political"
        ]
      },
      {
        "long_name": "長野県",
        "short_name": "長野県",
        "types": [
          "administrative_area_level_1",
          "political"
        ]
      },
      {
        "long_name": "日本",
        "short_name": "JP",
        "types": [
          "country",
          "political"
        ]
      },
      {
        "long_name": "391-0301",
        "short_name": "391-0301",
        "types": [
          "postal_code"
        ]
      }
    ],
    "formatted_address": "日本、〒391-0301 長野県茅野市北山蓼科５５１３−１５７",
    "geometry": {
      "location": {
        "lat": 36.0447161,
        "lng": 138.2766357
      },
      "location_type": "ROOFTOP",
      "viewport": {
        "northeast": {
          "lat": 36.0460946802915,
          "lng": 138.2780744302915
        },
        "southwest": {
          "lat": 36.0433967197085,
          "lng": 138.2753764697085
        }
      }
    },
    "partial_match": true,
    "place_id": "ChIJUVzbTsdPHGARkpXmOAjoD8w",
    "plus_code": {
      "compound_code": "27VG+VM 日本、長野県茅野市",
      "global_code": "8Q8W27VG+VM"
    },
    "types": [
      "establishment",
      "point_of_interest"
    ]
  },
  {
    "address_components": [
      {
        "long_name": "喜多山",
        "short_name": "喜多山",
        "types": [
          "political",
          "sublocality",
          "sublocality_level_2"
        ]
      },
      {
        "long_name": "守山区",
        "short_name": "守山区",
        "types": [
          "political",
          "sublocality",
          "sublocality_level_1"
        ]
      },
      {
        "long_name": "名古屋市",
        "short_name": "名古屋市",
        "types": [
          "locality",
          "political"
        ]
      },
      {
        "long_name": "愛知県",
        "short_name": "愛知県",
        "types": [
          "administrative_area_level_1",
          "political"
        ]
      },
      {
        "long_name": "日本",
        "short_name": "JP",
        "types": [
          "country",
          "political"
        ]
      },
      {
        "long_name": "463-0017",
        "short_name": "463-0017",
        "types": [
          "postal_code"
        ]
      }
    ],
    "formatted_address": "日本、〒463-0017 愛知県名古屋市守山区喜多山",
    "geometry": {
      "bounds": {
        "northeast": {
          "lat": 35.2086486,
          "lng": 136.9924522
        },
        "southwest": {
          "lat": 35.2038008,
          "lng": 136.9856624
        }
      },
      "location": {
        "lat": 35.20639329999999,
        "lng": 136.9896204
      },
      "location_type": "APPROXIMATE",
      "viewport": {
        "northeast": {
          "lat": 35.2086486,
          "lng": 136.9924522
        },
        "southwest": {
          "lat": 35.2038008,
          "lng": 136.9856624
        }
      }
    },
    "partial_match": true,
    "place_id": "ChIJQRimPdJvA2ARRE_VTXu__gs",
    "types": [
      "political",
      "sublocality",
      "sublocality_level_2"
    ]
  }
]