[
  {
    "address_components": [
      {
        "long_name": "８８６",
        "short_name": "８８６",
        "types": [
          "premise"
        ]
      },
      {
        "long_name": "上木島",
        "short_name": "上木島",
        "types": [
          "political",
          "sublocality",
          "sublocality_level_2"
        ]
      },
      {
        "long_name": "木島平村",
        "short_name": "木島平村",
        "types": [
          "locality",
          "political"
        ]
      },
      {
        "long_name": "下高井郡",
        "short_name": "下高井郡",
        "types": [
          "administrative_area_level_2",
          "political"
        ]
      },
      {
        "long_name": "長野県",
        "short_name": "長野県",
        "types": [
          "administrative_area_level_1",
          "political"
        ]
      },
      {
        "long_name": "日本",
        "short_name": "JP",
        "types": [
          "country",
          "political"
        ]
      },
      {
        "long_name": "389-2303",
        "short_name": "389-2303",
        "types": [
          "postal_code"
        ]
      }
    ],
    "formatted_address": "日本、〒389-2303 長野県下高井郡木島平村上木島８８６",
    "geometry": {
      "bounds": {
        "northeast": {
          "lat": 36.8390017,
          "lng": 138.4020046
        },
        "southwest": {
          "lat": 36.8388287,
          "lng": 138.4015537
        }
      },
      "location": {
        "lat": 36.838883,
        "lng": 138.4017615
      },
      "location_type": "ROOFTOP",
      "viewport": {
        "northeast": {
          "lat": 36.8402641802915,
          "lng": 138.4031508302915
        },
        "southwest": {
          "lat": 36.8375662197085,
          "lng": 138.4004528697085
        }
      }
    },
    "place_id": "ChIJhbaate4e9l8RwSx1Rz0on5M",
    "types": [
      "premise"
    ]
  }
]