{
  "candidates": [
    {
      "business_status": "OPERATIONAL",
      "formatted_address": "日本、〒390-1516 長野県松本市安曇上高地４４６９−１",
      "geometry": {
        "location": {
          "lat": 36.2483333,
          "lng": 137.6344444
        },
        "viewport": {
          "northeast": {
            "lat": 36.24968312989272,
            "lng": 137.6357942298928
          },
          "southwest": {
            "lat": 36.24698347010728,
            "lng": 137.6330945701073
          }
        }
      },
      "icon": "https://maps.gstatic.com/mapfiles/place_api/icons/v1/png_71/lodging-71.png",
      "name": "上高地アルペンホテル",
      "photos": [
        {
          "height": 3648,
          "html_attributions": [
            "<a href=\"https://maps.google.com/maps/contrib/104230217802450595628\">Riki Urabe</a>"
          ],
          "photo_reference": "Aap_uEAKmWRP-jL7PkhZnRXYyVUgskNPUmEoDoyAoDbzuKzFK8w9_oOKKCnfyvTYiKWQytNJF_-0U073C4kJMU0RjFiyDljVdpulZMU38dHnN-_yZPbSkNsdLcjPv-JJouyfDopSjggHdEN30NCTUgO6k7a5DXdX6J6z1IQfeKpvs52ZSU89",
          "width": 5472
        }
      ],
      "place_id": "ChIJb5DxEJAOHWARUWw0HXm7lL0",
      "plus_code": {
        "compound_code": "6JXM+8Q 松本市、長野県",
        "global_code": "8Q8V6JXM+8Q"
      },
      "types": [
        "lodging",
        "point_of_interest",
        "establishment"
      ]
    },
    {
      "business_status": "OPERATIONAL",
      "formatted_address": "日本、〒390-1516 長野県松本市安曇４４６８ 1F 上高地観光センタ",
      "geometry": {
        "location": {
          "lat": 36.2461221,
          "lng": 137.6356095
        },
        "viewport": {
          "northeast": {
            "lat": 36.28720485,
            "lng": 137.7062398
          },
          "southwest": {
            "lat": 36.12338104999999,
            "lng": 137.507193
          }
        }
      },
      "icon": "https://maps.gstatic.com/mapfiles/place_api/icons/v1/png_71/restaurant-71.png",
      "name": "上高地アルピコショップ",
      "photos": [
        {
          "height": 810,
          "html_attributions": [
            "<a href=\"https://maps.google.com/maps/contrib/101624230765785438780\">A Google User</a>"
          ],
          "photo_reference": "Aap_uEC4TOQj7C5C7iUX7gD5qFgDvVqBF5s5Iim1eUGH7sOF4K7D81UpC8i7S5hrOIOJsEDTkytqD9qTjwp5anZEgoRQXMPqAgnzQU1mihxpf29112BFUiKENGqyWmRTGCyuV1AquTF53U6U6kSHK8Hv7YKjHRFvR7ObcplMbHYBvg3YlYle",
          "width": 1440
        }
      ],
      "place_id": "ChIJrQS24NZFHWARhpOTAk1T_9o",
      "plus_code": {
        "compound_code": "6JWP+C6 松本市、長野県",
        "global_code": "8Q8V6JWP+C6"
      },
      "types": [
        "restaurant",
        "point_of_interest",
        "food",
        "store",
        "establishment"
      ]
    }
  ],
  "status": "OK"
}