[
  {
    "address_components": [
      {
        "long_name": "安曇",
        "short_name": "安曇",
        "types": [
          "political",
          "sublocality",
          "sublocality_level_2"
        ]
      },
      {
        "long_name": "松本市",
        "short_name": "松本市",
        "types": [
          "locality",
          "political"
        ]
      },
      {
        "long_name": "長野県",
        "short_name": "長野県",
        "types": [
          "administrative_area_level_1",
          "political"
        ]
      },
      {
        "long_name": "日本",
        "short_name": "JP",
        "types": [
          "country",
          "political"
        ]
      },
      {
        "long_name": "390-1520",
        "short_name": "390-1520",
        "types": [
          "postal_code"
        ]
      }
    ],
    "formatted_address": "日本、〒390-1520 長野県松本市安曇",
    "geometry": {
      "bounds": {
        "northeast": {
          "lat": 36.365062,
          "lng": 137.8107724
        },
        "southwest": {
          "lat": 36.0755167,
          "lng": 137.5507201
        }
      },
      "location": {
        "lat": 36.2140762,
        "lng": 137.6455169
      },
      "location_type": "APPROXIMATE",
      "viewport": {
        "northeast": {
          "lat": 36.365062,
          "lng": 137.8107724
        },
        "southwest": {
          "lat": 36.0755167,
          "lng": 137.5507201
        }
      }
    },
    "partial_match": true,
    "place_id": "ChIJhRkdCTJHHWARWWO_SYdGsMw",
    "types": [
      "political",
      "sublocality",
      "sublocality_level_2"
    ]
  },
  {
    "address_components": [
      {
        "long_name": "２３",
        "short_name": "２３",
        "types": [
          "premise"
        ]
      },
      {
        "long_name": "４",
        "short_name": "４",
        "types": [
          "political",
          "sublocality",
          "sublocality_level_4"
        ]
      },
      {
        "long_name": "１丁目",
        "short_name": "１丁目",
        "types": [
          "political",
          "sublocality",
          "sublocality_level_3"
        ]
      },
      {
        "long_name": "県",
        "short_name": "県",
        "types": [
          "political",
          "sublocality",
          "sublocality_level_2"
        ]
      },
      {
        "long_name": "松本市",
        "short_name": "松本市",
        "types": [
          "locality",
          "political"
        ]
      },
      {
        "long_name": "長野県",
        "short_name": "長野県",
        "types": [
          "administrative_area_level_1",
          "political"
        ]
      },
      {
        "long_name": "日本",
        "short_name": "JP",
        "types": [
          "country",
          "political"
        ]
      },
      {
        "long_name": "390-0812",
        "short_name": "390-0812",
        "types": [
          "postal_code"
        ]
      }
    ],
    "formatted_address": "日本、〒390-0812 長野県松本市県１丁目４−２３",
    "geometry": {
      "location": {
        "lat": 36.232848,
        "lng": 137.980597
      },
      "location_type": "ROOFTOP",
      "viewport": {
        "northeast": {
          "lat": 36.2341969802915,
          "lng": 137.9819459802915
        },
        "southwest": {
          "lat": 36.2314990197085,
          "lng": 137.9792480197085
        }
      }
    },
    "partial_match": true,
    "place_id": "ChIJETI1peoOHWARjrq0Od0z3R8",
    "plus_code": {
      "compound_code": "6XMJ+46 長野県松本市",
      "global_code": "8Q8V6XMJ+46"
    },
    "types": [
      "establishment",
      "point_of_interest",
      "school"
    ]
  }
]