[
  {
    "address_components": [
      {
        "long_name": "２７",
        "short_name": "２７",
        "types": [
          "premise"
        ]
      },
      {
        "long_name": "１",
        "short_name": "１",
        "types": [
          "political",
          "sublocality",
          "sublocality_level_4"
        ]
      },
      {
        "long_name": "１丁目",
        "short_name": "１丁目",
        "types": [
          "political",
          "sublocality",
          "sublocality_level_3"
        ]
      },
      {
        "long_name": "開智",
        "short_name": "開智",
        "types": [
          "political",
          "sublocality",
          "sublocality_level_2"
        ]
      },
      {
        "long_name": "松本市",
        "short_name": "松本市",
        "types": [
          "locality",
          "political"
        ]
      },
      {
        "long_name": "長野県",
        "short_name": "長野県",
        "types": [
          "administrative_area_level_1",
          "political"
        ]
      },
      {
        "long_name": "日本",
        "short_name": "JP",
        "types": [
          "country",
          "political"
        ]
      },
      {
        "long_name": "390-0876",
        "short_name": "390-0876",
        "types": [
          "postal_code"
        ]
      }
    ],
    "formatted_address": "日本、〒390-0876 長野県松本市開智１丁目１−２７",
    "geometry": {
      "bounds": {
        "northeast": {
          "lat": 36.2400202,
          "lng": 137.967192
        },
        "southwest": {
          "lat": 36.2398664,
          "lng": 137.9670675
        }
      },
      "location": {
        "lat": 36.23993189999999,
        "lng": 137.9671146
      },
      "location_type": "ROOFTOP",
      "viewport": {
        "northeast": {
          "lat": 36.2412416802915,
          "lng": 137.9684671802915
        },
        "southwest": {
          "lat": 36.2385437197085,
          "lng": 137.9657692197085
        }
      }
    },
    "place_id": "ChIJ44KhPYQOHWARVRkUb-LQ_Rw",
    "types": [
      "premise"
    ]
  }
]