[
  {
    "address_components": [
      {
        "long_name": "割烹松本館",
        "short_name": "割烹松本館",
        "types": [
          "premise"
        ]
      },
      {
        "long_name": "７",
        "short_name": "７",
        "types": [
          "political",
          "sublocality",
          "sublocality_level_4"
        ]
      },
      {
        "long_name": "丸の内",
        "short_name": "丸の内",
        "types": [
          "political",
          "sublocality",
          "sublocality_level_2"
        ]
      },
      {
        "long_name": "松本市",
        "short_name": "松本市",
        "types": [
          "locality",
          "political"
        ]
      },
      {
        "long_name": "長野県",
        "short_name": "長野県",
        "types": [
          "administrative_area_level_1",
          "political"
        ]
      },
      {
        "long_name": "日本",
        "short_name": "JP",
        "types": [
          "country",
          "political"
        ]
      },
      {
        "long_name": "390-0873",
        "short_name": "390-0873",
        "types": [
          "postal_code"
        ]
      }
    ],
    "formatted_address": "日本、〒390-0873 長野県松本市丸の内７ 割烹松本館",
    "geometry": {
      "bounds": {
        "northeast": {
          "lat": 36.2372204,
          "lng": 137.9726324
        },
        "southwest": {
          "lat": 36.2370799,
          "lng": 137.9724976
        }
      },
      "location": {
        "lat": 36.2371617,
        "lng": 137.9725687
      },
      "location_type": "ROOFTOP",
      "viewport": {
        "northeast": {
          "lat": 36.23849913029149,
          "lng": 137.9738688302915
        },
        "southwest": {
          "lat": 36.2358011697085,
          "lng": 137.9711708697085
        }
      }
    },
    "place_id": "ChIJ3fzZSZAOHWAR8R8xkvPkFBg",
    "types": [
      "premise"
    ]
  }
]