[
  {
    "address_components": [
      {
        "long_name": "５",
        "short_name": "５",
        "types": [
          "premise"
        ]
      },
      {
        "long_name": "１６",
        "short_name": "１６",
        "types": [
          "political",
          "sublocality",
          "sublocality_level_4"
        ]
      },
      {
        "long_name": "１丁目",
        "short_name": "１丁目",
        "types": [
          "political",
          "sublocality",
          "sublocality_level_3"
        ]
      },
      {
        "long_name": "県",
        "short_name": "県",
        "types": [
          "political",
          "sublocality",
          "sublocality_level_2"
        ]
      },
      {
        "long_name": "松本市",
        "short_name": "松本市",
        "types": [
          "locality",
          "political"
        ]
      },
      {
        "long_name": "長野県",
        "short_name": "長野県",
        "types": [
          "administrative_area_level_1",
          "political"
        ]
      },
      {
        "long_name": "日本",
        "short_name": "JP",
        "types": [
          "country",
          "political"
        ]
      },
      {
        "long_name": "390-0812",
        "short_name": "390-0812",
        "types": [
          "postal_code"
        ]
      }
    ],
    "formatted_address": "日本、〒390-0812 長野県松本市県１丁目１６−５",
    "geometry": {
      "bounds": {
        "northeast": {
          "lat": 36.2350439,
          "lng": 137.9802617
        },
        "southwest": {
          "lat": 36.2349425,
          "lng": 137.9800386
        }
      },
      "location": {
        "lat": 36.2349895,
        "lng": 137.9801513
      },
      "location_type": "ROOFTOP",
      "viewport": {
        "northeast": {
          "lat": 36.23634218029149,
          "lng": 137.9814521302915
        },
        "southwest": {
          "lat": 36.2336442197085,
          "lng": 137.9787541697085
        }
      }
    },
    "place_id": "ChIJ4z5-cpUOHWARMs6ilhYv13o",
    "types": [
      "premise"
    ]
  }
]