[
  {
    "address_components": [
      {
        "long_name": "１８",
        "short_name": "１８",
        "types": [
          "premise"
        ]
      },
      {
        "long_name": "５",
        "short_name": "５",
        "types": [
          "political",
          "sublocality",
          "sublocality_level_4"
        ]
      },
      {
        "long_name": "２丁目",
        "short_name": "２丁目",
        "types": [
          "political",
          "sublocality",
          "sublocality_level_3"
        ]
      },
      {
        "long_name": "城西",
        "short_name": "城西",
        "types": [
          "political",
          "sublocality",
          "sublocality_level_2"
        ]
      },
      {
        "long_name": "松本市",
        "short_name": "松本市",
        "types": [
          "locality",
          "political"
        ]
      },
      {
        "long_name": "長野県",
        "short_name": "長野県",
        "types": [
          "administrative_area_level_1",
          "political"
        ]
      },
      {
        "long_name": "日本",
        "short_name": "JP",
        "types": [
          "country",
          "political"
        ]
      },
      {
        "long_name": "390-0875",
        "short_name": "390-0875",
        "types": [
          "postal_code"
        ]
      }
    ],
    "formatted_address": "日本、〒390-0875 長野県松本市城西２丁目５−１８",
    "geometry": {
      "bounds": {
        "northeast": {
          "lat": 36.2397202,
          "lng": 137.9662349
        },
        "southwest": {
          "lat": 36.2396368,
          "lng": 137.9661258
        }
      },
      "location": {
        "lat": 36.2396731,
        "lng": 137.9661863
      },
      "location_type": "ROOFTOP",
      "viewport": {
        "northeast": {
          "lat": 36.2410274802915,
          "lng": 137.9676571802915
        },
        "southwest": {
          "lat": 36.2383295197085,
          "lng": 137.9649592197085
        }
      }
    },
    "place_id": "ChIJe-TIoYYOHWAR7YmNbPCyAvE",
    "types": [
      "premise"
    ]
  }
]