{
  "candidates": [
    {
      "business_status": "OPERATIONAL",
      "formatted_address": "日本、〒390-0815 長野県松本市深志１丁目３",
      "geometry": {
        "location": {
          "lat": 36.2298459,
          "lng": 137.9663742
        },
        "viewport": {
          "northeast": {
            "lat": 36.23123352989272,
            "lng": 137.9678222798927
          },
          "southwest": {
            "lat": 36.22853387010728,
            "lng": 137.9651226201073
          }
        }
      },
      "icon": "https://maps.gstatic.com/mapfiles/place_api/icons/v1/png_71/restaurant-71.png",
      "name": "歩成 松本横丁店",
      "photos": [
        {
          "height": 480,
          "html_attributions": [
            "<a href=\"https://maps.google.com/maps/contrib/117628324443014955990\">ひできうしうし</a>"
          ],
          "photo_reference": "Aap_uEAuxkllMIsZvGvOhAapY83XfeF_kUKk8VCiIfV5QstZzkAx-Eq0HGaJZ51_KigFDT-ReCX1mjVO3uqwFV6ME_NYvilvqrDb1k8vwmb9XcmGRtgcWTbg8DG0U3dCEDFQRk16QR_Nwn4x_6uRgtCY_Etp6w9YO32sxgCCG8V_10FYmnsW",
          "width": 640
        }
      ],
      "place_id": "ChIJzYp_2ygPHWAR4qMo4FnvR3g",
      "plus_code": {
        "compound_code": "6XH8+WG 松本市、長野県",
        "global_code": "8Q8V6XH8+WG"
      },
      "types": [
        "restaurant",
        "food",
        "point_of_interest",
        "establishment"
      ]
    },
    {
      "business_status": "OPERATIONAL",
      "formatted_address": "日本、〒390-0815 長野県松本市深志１丁目３−２１",
      "geometry": {
        "location": {
          "lat": 36.2295465,
          "lng": 137.9664986
        },
        "viewport": {
          "northeast": {
            "lat": 36.23091402989272,
            "lng": 137.9676939298927
          },
          "southwest": {
            "lat": 36.22821437010728,
            "lng": 137.9649942701072
          }
        }
      },
      "icon": "https://maps.gstatic.com/mapfiles/place_api/icons/v1/png_71/restaurant-71.png",
      "name": "松本つなぐ横丁",
      "photos": [
        {
          "height": 800,
          "html_attributions": [
            "<a href=\"https://maps.google.com/maps/contrib/105654254493027887660\">A Google User</a>"
          ],
          "photo_reference": "Aap_uECITTxiwslbukCeweFC8Uy6JUwtK91OSoTEQVHmraebNgX2QdDAypoeoqTITXT8_rrTDzC3dhIQbMGpxB_fh5t2wSZ-zM5YNavEraQljrZwyfmoIJ-iySvKW3rHHGzR731Z26_nPfpa04C31coit3SDRInGjbTIQJi25j_Pxbdin3il",
          "width": 1400
        }
      ],
      "place_id": "ChIJ1fUmJLYPHWARRH7HgBG97yU",
      "plus_code": {
        "compound_code": "6XH8+RH 松本市、長野県",
        "global_code": "8Q8V6XH8+RH"
      },
      "types": [
        "meal_takeaway",
        "restaurant",
        "food",
        "point_of_interest",
        "establishment"
      ]
    }
  ],
  "status": "OK"
}