[
  {
    "address_components": [
      {
        "long_name": "1f",
        "short_name": "1f",
        "types": [
          "subpremise"
        ]
      },
      {
        "long_name": "１５",
        "short_name": "１５",
        "types": [
          "premise"
        ]
      },
      {
        "long_name": "２",
        "short_name": "２",
        "types": [
          "political",
          "sublocality",
          "sublocality_level_4"
        ]
      },
      {
        "long_name": "２丁目",
        "short_name": "２丁目",
        "types": [
          "political",
          "sublocality",
          "sublocality_level_3"
        ]
      },
      {
        "long_name": "深志",
        "short_name": "深志",
        "types": [
          "political",
          "sublocality",
          "sublocality_level_2"
        ]
      },
      {
        "long_name": "松本市",
        "short_name": "松本市",
        "types": [
          "locality",
          "political"
        ]
      },
      {
        "long_name": "長野県",
        "short_name": "長野県",
        "types": [
          "administrative_area_level_1",
          "political"
        ]
      },
      {
        "long_name": "日本",
        "short_name": "JP",
        "types": [
          "country",
          "political"
        ]
      },
      {
        "long_name": "390-0815",
        "short_name": "390-0815",
        "types": [
          "postal_code"
        ]
      }
    ],
    "formatted_address": "日本、〒390-0815 長野県松本市深志２丁目２−１５ 1f",
    "geometry": {
      "bounds": {
        "northeast": {
          "lat": 36.2302483,
          "lng": 137.9690167
        },
        "southwest": {
          "lat": 36.2301485,
          "lng": 137.9688876
        }
      },
      "location": {
        "lat": 36.2302043,
        "lng": 137.9689326
      },
      "location_type": "ROOFTOP",
      "viewport": {
        "northeast": {
          "lat": 36.23144878029149,
          "lng": 137.9703011302915
        },
        "southwest": {
          "lat": 36.22875081970849,
          "lng": 137.9676031697085
        }
      }
    },
    "place_id": "EjwxZiwgMi1jaMWNbWUtMi0xNSBGdWthc2hpLCBNYXRzdW1vdG8sIE5hZ2FubyAzOTAtMDgxNSwgSmFwYW4iHhocChYKFAoSCV-z2gKNDh1gEWsHiKEkgccvEgIxZg",
    "types": [
      "subpremise"
    ]
  }
]