[
  {
    "address_components": [
      {
        "long_name": "４４",
        "short_name": "４４",
        "types": [
          "premise"
        ]
      },
      {
        "long_name": "９",
        "short_name": "９",
        "types": [
          "political",
          "sublocality",
          "sublocality_level_4"
        ]
      },
      {
        "long_name": "３丁目",
        "short_name": "３丁目",
        "types": [
          "political",
          "sublocality",
          "sublocality_level_3"
        ]
      },
      {
        "long_name": "石芝",
        "short_name": "石芝",
        "types": [
          "political",
          "sublocality",
          "sublocality_level_2"
        ]
      },
      {
        "long_name": "松本市",
        "short_name": "松本市",
        "types": [
          "locality",
          "political"
        ]
      },
      {
        "long_name": "長野県",
        "short_name": "長野県",
        "types": [
          "administrative_area_level_1",
          "political"
        ]
      },
      {
        "long_name": "日本",
        "short_name": "JP",
        "types": [
          "country",
          "political"
        ]
      },
      {
        "long_name": "399-0007",
        "short_name": "399-0007",
        "types": [
          "postal_code"
        ]
      }
    ],
    "formatted_address": "日本、〒399-0007 長野県松本市石芝３丁目９−４４",
    "geometry": {
      "bounds": {
        "northeast": {
          "lat": 36.2044064,
          "lng": 137.9490491
        },
        "southwest": {
          "lat": 36.2040176,
          "lng": 137.9483811
        }
      },
      "location": {
        "lat": 36.204266,
        "lng": 137.9486482
      },
      "location_type": "ROOFTOP",
      "viewport": {
        "northeast": {
          "lat": 36.2055609802915,
          "lng": 137.9500317302915
        },
        "southwest": {
          "lat": 36.2028630197085,
          "lng": 137.9473337697085
        }
      }
    },
    "place_id": "ChIJ8ZL5VkwOHWAR_GFSHLxIGGc",
    "types": [
      "premise"
    ]
  }
]