[
  {
    "address_components": [
      {
        "long_name": "宮島商店",
        "short_name": "宮島商店",
        "types": [
          "premise"
        ]
      },
      {
        "long_name": "２０",
        "short_name": "２０",
        "types": [
          "premise"
        ]
      },
      {
        "long_name": "３１",
        "short_name": "３１",
        "types": [
          "political",
          "sublocality",
          "sublocality_level_4"
        ]
      },
      {
        "long_name": "１丁目",
        "short_name": "１丁目",
        "types": [
          "political",
          "sublocality",
          "sublocality_level_3"
        ]
      },
      {
        "long_name": "浅間温泉",
        "short_name": "浅間温泉",
        "types": [
          "political",
          "sublocality",
          "sublocality_level_2"
        ]
      },
      {
        "long_name": "松本市",
        "short_name": "松本市",
        "types": [
          "locality",
          "political"
        ]
      },
      {
        "long_name": "長野県",
        "short_name": "長野県",
        "types": [
          "administrative_area_level_1",
          "political"
        ]
      },
      {
        "long_name": "日本",
        "short_name": "JP",
        "types": [
          "country",
          "political"
        ]
      },
      {
        "long_name": "390-0303",
        "short_name": "390-0303",
        "types": [
          "postal_code"
        ]
      }
    ],
    "formatted_address": "日本、〒390-0303 長野県松本市浅間温泉１丁目３１−２０ 宮島商店",
    "geometry": {
      "bounds": {
        "northeast": {
          "lat": 36.2622048,
          "lng": 137.9900978
        },
        "southwest": {
          "lat": 36.2621106,
          "lng": 137.9899704
        }
      },
      "location": {
        "lat": 36.2621683,
        "lng": 137.9900276
      },
      "location_type": "ROOFTOP",
      "viewport": {
        "northeast": {
          "lat": 36.2635223802915,
          "lng": 137.9913830802915
        },
        "southwest": {
          "lat": 36.2608244197085,
          "lng": 137.9886851197085
        }
      }
    },
    "place_id": "ChIJ30l9IBsMHWARF71xzk2xdG8",
    "types": [
      "premise"
    ]
  }
]