[
  {
    "address_components": [
      {
        "long_name": "かっぱ寿司南松本店",
        "short_name": "かっぱ寿司南松本店",
        "types": [
          "premise"
        ]
      },
      {
        "long_name": "２２",
        "short_name": "２２",
        "types": [
          "premise"
        ]
      },
      {
        "long_name": "１８",
        "short_name": "１８",
        "types": [
          "political",
          "sublocality",
          "sublocality_level_4"
        ]
      },
      {
        "long_name": "双葉",
        "short_name": "双葉",
        "types": [
          "political",
          "sublocality",
          "sublocality_level_2"
        ]
      },
      {
        "long_name": "松本市",
        "short_name": "松本市",
        "types": [
          "locality",
          "political"
        ]
      },
      {
        "long_name": "長野県",
        "short_name": "長野県",
        "types": [
          "administrative_area_level_1",
          "political"
        ]
      },
      {
        "long_name": "日本",
        "short_name": "JP",
        "types": [
          "country",
          "political"
        ]
      },
      {
        "long_name": "390-0833",
        "short_name": "390-0833",
        "types": [
          "postal_code"
        ]
      }
    ],
    "formatted_address": "日本、〒390-0833 長野県松本市双葉１８−２２ かっぱ寿司南松本店",
    "geometry": {
      "bounds": {
        "northeast": {
          "lat": 36.2121866,
          "lng": 137.9616795
        },
        "southwest": {
          "lat": 36.2116749,
          "lng": 137.9609654
        }
      },
      "location": {
        "lat": 36.2119606,
        "lng": 137.9613323
      },
      "location_type": "ROOFTOP",
      "viewport": {
        "northeast": {
          "lat": 36.2132797302915,
          "lng": 137.9626639802915
        },
        "southwest": {
          "lat": 36.2105817697085,
          "lng": 137.9599660197085
        }
      }
    },
    "place_id": "ChIJt4iWA1YOHWAR4qVVAdyePK4",
    "types": [
      "premise"
    ]
  }
]