[
  {
    "address_components": [
      {
        "long_name": "トラットリアミノリ",
        "short_name": "トラットリアミノリ",
        "types": [
          "premise"
        ]
      },
      {
        "long_name": "２",
        "short_name": "２",
        "types": [
          "premise"
        ]
      },
      {
        "long_name": "７",
        "short_name": "７",
        "types": [
          "political",
          "sublocality",
          "sublocality_level_4"
        ]
      },
      {
        "long_name": "２丁目",
        "short_name": "２丁目",
        "types": [
          "political",
          "sublocality",
          "sublocality_level_3"
        ]
      },
      {
        "long_name": "大手",
        "short_name": "大手",
        "types": [
          "political",
          "sublocality",
          "sublocality_level_2"
        ]
      },
      {
        "long_name": "松本市",
        "short_name": "松本市",
        "types": [
          "locality",
          "political"
        ]
      },
      {
        "long_name": "長野県",
        "short_name": "長野県",
        "types": [
          "administrative_area_level_1",
          "political"
        ]
      },
      {
        "long_name": "日本",
        "short_name": "JP",
        "types": [
          "country",
          "political"
        ]
      },
      {
        "long_name": "390-0874",
        "short_name": "390-0874",
        "types": [
          "postal_code"
        ]
      }
    ],
    "formatted_address": "日本、〒390-0874 長野県松本市大手２丁目７−２ トラットリアミノリ",
    "geometry": {
      "bounds": {
        "northeast": {
          "lat": 36.2353765,
          "lng": 137.9675822
        },
        "southwest": {
          "lat": 36.2353079,
          "lng": 137.9674484
        }
      },
      "location": {
        "lat": 36.2353472,
        "lng": 137.9675111
      },
      "location_type": "ROOFTOP",
      "viewport": {
        "northeast": {
          "lat": 36.23669118029149,
          "lng": 137.9688340802915
        },
        "southwest": {
          "lat": 36.23399321970849,
          "lng": 137.9661361197085
        }
      }
    },
    "place_id": "ChIJYXK-PY8OHWARtJRfx9OykZg",
    "types": [
      "premise"
    ]
  }
]