[
  {
    "address_components": [
      {
        "long_name": "１７",
        "short_name": "１７",
        "types": [
          "premise"
        ]
      },
      {
        "long_name": "１０",
        "short_name": "１０",
        "types": [
          "political",
          "sublocality",
          "sublocality_level_4"
        ]
      },
      {
        "long_name": "４丁目",
        "short_name": "４丁目",
        "types": [
          "political",
          "sublocality",
          "sublocality_level_3"
        ]
      },
      {
        "long_name": "大手",
        "short_name": "大手",
        "types": [
          "political",
          "sublocality",
          "sublocality_level_2"
        ]
      },
      {
        "long_name": "松本市",
        "short_name": "松本市",
        "types": [
          "locality",
          "political"
        ]
      },
      {
        "long_name": "長野県",
        "short_name": "長野県",
        "types": [
          "administrative_area_level_1",
          "political"
        ]
      },
      {
        "long_name": "日本",
        "short_name": "JP",
        "types": [
          "country",
          "political"
        ]
      },
      {
        "long_name": "390-0874",
        "short_name": "390-0874",
        "types": [
          "postal_code"
        ]
      }
    ],
    "formatted_address": "日本、〒390-0874 長野県松本市大手４丁目１０−１７",
    "geometry": {
      "bounds": {
        "northeast": {
          "lat": 36.2365926,
          "lng": 137.9720402
        },
        "southwest": {
          "lat": 36.2364139,
          "lng": 137.9719249
        }
      },
      "location": {
        "lat": 36.236492,
        "lng": 137.9719885
      },
      "location_type": "ROOFTOP",
      "viewport": {
        "northeast": {
          "lat": 36.2378319302915,
          "lng": 137.9733315302915
        },
        "southwest": {
          "lat": 36.2351339697085,
          "lng": 137.9706335697085
        }
      }
    },
    "place_id": "ChIJ2-6yMpAOHWARTloWA-TMIMA",
    "types": [
      "premise"
    ]
  }
]