[
  {
    "address_components": [
      {
        "long_name": "１０",
        "short_name": "１０",
        "types": [
          "premise"
        ]
      },
      {
        "long_name": "６",
        "short_name": "６",
        "types": [
          "political",
          "sublocality",
          "sublocality_level_4"
        ]
      },
      {
        "long_name": "４丁目",
        "short_name": "４丁目",
        "types": [
          "political",
          "sublocality",
          "sublocality_level_3"
        ]
      },
      {
        "long_name": "大手",
        "short_name": "大手",
        "types": [
          "political",
          "sublocality",
          "sublocality_level_2"
        ]
      },
      {
        "long_name": "松本市",
        "short_name": "松本市",
        "types": [
          "locality",
          "political"
        ]
      },
      {
        "long_name": "長野県",
        "short_name": "長野県",
        "types": [
          "administrative_area_level_1",
          "political"
        ]
      },
      {
        "long_name": "日本",
        "short_name": "JP",
        "types": [
          "country",
          "political"
        ]
      },
      {
        "long_name": "390-0874",
        "short_name": "390-0874",
        "types": [
          "postal_code"
        ]
      }
    ],
    "formatted_address": "日本、〒390-0874 長野県松本市大手４丁目６−１０",
    "geometry": {
      "bounds": {
        "northeast": {
          "lat": 36.2362115,
          "lng": 137.9742405
        },
        "southwest": {
          "lat": 36.2361366,
          "lng": 137.9740923
        }
      },
      "location": {
        "lat": 36.2361746,
        "lng": 137.9741645
      },
      "location_type": "ROOFTOP",
      "viewport": {
        "northeast": {
          "lat": 36.2375230302915,
          "lng": 137.9754912802915
        },
        "southwest": {
          "lat": 36.2348250697085,
          "lng": 137.9727933197085
        }
      }
    },
    "place_id": "ChIJ8TOic5EOHWARUzdrvO-02_o",
    "types": [
      "premise"
    ]
  }
]