[
  {
    "address_components": [
      {
        "long_name": "２４",
        "short_name": "２４",
        "types": [
          "premise"
        ]
      },
      {
        "long_name": "２",
        "short_name": "２",
        "types": [
          "political",
          "sublocality",
          "sublocality_level_4"
        ]
      },
      {
        "long_name": "１丁目",
        "short_name": "１丁目",
        "types": [
          "political",
          "sublocality",
          "sublocality_level_3"
        ]
      },
      {
        "long_name": "中央",
        "short_name": "中央",
        "types": [
          "political",
          "sublocality",
          "sublocality_level_2"
        ]
      },
      {
        "long_name": "松本市",
        "short_name": "松本市",
        "types": [
          "locality",
          "political"
        ]
      },
      {
        "long_name": "長野県",
        "short_name": "長野県",
        "types": [
          "administrative_area_level_1",
          "political"
        ]
      },
      {
        "long_name": "日本",
        "short_name": "JP",
        "types": [
          "country",
          "political"
        ]
      },
      {
        "long_name": "390-0811",
        "short_name": "390-0811",
        "types": [
          "postal_code"
        ]
      }
    ],
    "formatted_address": "日本、〒390-0811 長野県松本市中央１丁目２−２４",
    "geometry": {
      "bounds": {
        "northeast": {
          "lat": 36.2319887,
          "lng": 137.965345
        },
        "southwest": {
          "lat": 36.231849,
          "lng": 137.9651677
        }
      },
      "location": {
        "lat": 36.2319346,
        "lng": 137.9652967
      },
      "location_type": "ROOFTOP",
      "viewport": {
        "northeast": {
          "lat": 36.2332678302915,
          "lng": 137.9665840302915
        },
        "southwest": {
          "lat": 36.2305698697085,
          "lng": 137.9638860697085
        }
      }
    },
    "place_id": "ChIJ79rSQokOHWARqtzphlCCnjo",
    "types": [
      "premise"
    ]
  }
]