[
  {
    "address_components": [
      {
        "long_name": "松本市",
        "short_name": "松本市",
        "types": [
          "locality",
          "political"
        ]
      },
      {
        "long_name": "長野県",
        "short_name": "長野県",
        "types": [
          "administrative_area_level_1",
          "political"
        ]
      },
      {
        "long_name": "日本",
        "short_name": "JP",
        "types": [
          "country",
          "political"
        ]
      }
    ],
    "formatted_address": "日本、長野県松本市",
    "geometry": {
      "bounds": {
        "northeast": {
          "lat": 36.379439,
          "lng": 138.1311424
        },
        "southwest": {
          "lat": 36.0096617,
          "lng": 137.5507201
        }
      },
      "location": {
        "lat": 36.2380434,
        "lng": 137.9719897
      },
      "location_type": "APPROXIMATE",
      "viewport": {
        "northeast": {
          "lat": 36.379439,
          "lng": 138.1311424
        },
        "southwest": {
          "lat": 36.0096617,
          "lng": 137.5507201
        }
      }
    },
    "partial_match": true,
    "place_id": "ChIJx2hD6AAUHWAR3c0QMjZtjcs",
    "types": [
      "locality",
      "political"
    ]
  },
  {
    "address_components": [
      {
        "long_name": "関東地方",
        "short_name": "関東地方",
        "types": [
          "colloquial_area",
          "political"
        ]
      },
      {
        "long_name": "日本",
        "short_name": "JP",
        "types": [
          "country",
          "political"
        ]
      }
    ],
    "formatted_address": "日本、関東地方",
    "geometry": {
      "bounds": {
        "northeast": {
          "lat": 37.1550727,
          "lng": 140.8789636
        },
        "southwest": {
          "lat": 34.8979627,
          "lng": 138.3970639
        }
      },
      "location": {
        "lat": 36.4598667,
        "lng": 139.6911374
      },
      "location_type": "APPROXIMATE",
      "viewport": {
        "northeast": {
          "lat": 37.1550727,
          "lng": 140.8789636
        },
        "southwest": {
          "lat": 34.8979627,
          "lng": 138.3970639
        }
      }
    },
    "partial_match": true,
    "place_id": "ChIJbw4iEgC2GGARiZ85fiY71mk",
    "types": [
      "colloquial_area",
      "political"
    ]
  }
]