[
  {
    "address_components": [
      {
        "long_name": "１３",
        "short_name": "１３",
        "types": [
          "premise"
        ]
      },
      {
        "long_name": "９",
        "short_name": "９",
        "types": [
          "political",
          "sublocality",
          "sublocality_level_4"
        ]
      },
      {
        "long_name": "２丁目",
        "short_name": "２丁目",
        "types": [
          "political",
          "sublocality",
          "sublocality_level_3"
        ]
      },
      {
        "long_name": "中央",
        "short_name": "中央",
        "types": [
          "political",
          "sublocality",
          "sublocality_level_2"
        ]
      },
      {
        "long_name": "松本市",
        "short_name": "松本市",
        "types": [
          "locality",
          "political"
        ]
      },
      {
        "long_name": "長野県",
        "short_name": "長野県",
        "types": [
          "administrative_area_level_1",
          "political"
        ]
      },
      {
        "long_name": "日本",
        "short_name": "JP",
        "types": [
          "country",
          "political"
        ]
      },
      {
        "long_name": "390-0811",
        "short_name": "390-0811",
        "types": [
          "postal_code"
        ]
      }
    ],
    "formatted_address": "日本、〒390-0811 長野県松本市中央２丁目９−１３",
    "geometry": {
      "bounds": {
        "northeast": {
          "lat": 36.2337384,
          "lng": 137.971004
        },
        "southwest": {
          "lat": 36.2334163,
          "lng": 137.9709719
        }
      },
      "location": {
        "lat": 36.23357900000001,
        "lng": 137.9709876
      },
      "location_type": "ROOFTOP",
      "viewport": {
        "northeast": {
          "lat": 36.2349263302915,
          "lng": 137.9723630302915
        },
        "southwest": {
          "lat": 36.2322283697085,
          "lng": 137.9696650697085
        }
      }
    },
    "place_id": "ChIJAcKy_o0OHWARC82H2JFLk1c",
    "types": [
      "premise"
    ]
  }
]