[
  {
    "address_components": [
      {
        "long_name": "３７",
        "short_name": "３７",
        "types": [
          "premise"
        ]
      },
      {
        "long_name": "４",
        "short_name": "４",
        "types": [
          "political",
          "sublocality",
          "sublocality_level_4"
        ]
      },
      {
        "long_name": "４丁目",
        "short_name": "４丁目",
        "types": [
          "political",
          "sublocality",
          "sublocality_level_3"
        ]
      },
      {
        "long_name": "中央",
        "short_name": "中央",
        "types": [
          "political",
          "sublocality",
          "sublocality_level_2"
        ]
      },
      {
        "long_name": "松本市",
        "short_name": "松本市",
        "types": [
          "locality",
          "political"
        ]
      },
      {
        "long_name": "長野県",
        "short_name": "長野県",
        "types": [
          "administrative_area_level_1",
          "political"
        ]
      },
      {
        "long_name": "日本",
        "short_name": "JP",
        "types": [
          "country",
          "political"
        ]
      },
      {
        "long_name": "390-0811",
        "short_name": "390-0811",
        "types": [
          "postal_code"
        ]
      }
    ],
    "formatted_address": "日本、〒390-0811 長野県松本市中央４丁目４−３７",
    "geometry": {
      "bounds": {
        "northeast": {
          "lat": 36.2322086,
          "lng": 137.975888
        },
        "southwest": {
          "lat": 36.2321079,
          "lng": 137.9758206
        }
      },
      "location": {
        "lat": 36.2321636,
        "lng": 137.975857
      },
      "location_type": "ROOFTOP",
      "viewport": {
        "northeast": {
          "lat": 36.2335072302915,
          "lng": 137.9771726802915
        },
        "southwest": {
          "lat": 36.2308092697085,
          "lng": 137.9744747197085
        }
      }
    },
    "place_id": "ChIJHxy1W5MOHWAR_bqjsu0QPmc",
    "types": [
      "premise"
    ]
  }
]