[
  {
    "address_components": [
      {
        "long_name": "２３",
        "short_name": "２３",
        "types": [
          "premise"
        ]
      },
      {
        "long_name": "９",
        "short_name": "９",
        "types": [
          "political",
          "sublocality",
          "sublocality_level_4"
        ]
      },
      {
        "long_name": "２丁目",
        "short_name": "２丁目",
        "types": [
          "political",
          "sublocality",
          "sublocality_level_3"
        ]
      },
      {
        "long_name": "並柳",
        "short_name": "並柳",
        "types": [
          "political",
          "sublocality",
          "sublocality_level_2"
        ]
      },
      {
        "long_name": "松本市",
        "short_name": "松本市",
        "types": [
          "locality",
          "political"
        ]
      },
      {
        "long_name": "長野県",
        "short_name": "長野県",
        "types": [
          "administrative_area_level_1",
          "political"
        ]
      },
      {
        "long_name": "日本",
        "short_name": "JP",
        "types": [
          "country",
          "political"
        ]
      },
      {
        "long_name": "390-0825",
        "short_name": "390-0825",
        "types": [
          "postal_code"
        ]
      }
    ],
    "formatted_address": "日本、〒390-0825 長野県松本市並柳２丁目９−２３",
    "geometry": {
      "bounds": {
        "northeast": {
          "lat": 36.2128485,
          "lng": 137.9797648
        },
        "southwest": {
          "lat": 36.2126524,
          "lng": 137.9796325
        }
      },
      "location": {
        "lat": 36.2127415,
        "lng": 137.9797064
      },
      "location_type": "ROOFTOP",
      "viewport": {
        "northeast": {
          "lat": 36.2140994302915,
          "lng": 137.9810092302915
        },
        "southwest": {
          "lat": 36.2114014697085,
          "lng": 137.9783112697085
        }
      }
    },
    "place_id": "ChIJ99E3Ch8PHWARRDxdWCziUbA",
    "types": [
      "premise"
    ]
  }
]