[
  {
    "address_components": [
      {
        "long_name": "８",
        "short_name": "８",
        "types": [
          "premise"
        ]
      },
      {
        "long_name": "９",
        "short_name": "９",
        "types": [
          "political",
          "sublocality",
          "sublocality_level_4"
        ]
      },
      {
        "long_name": "１丁目",
        "short_name": "１丁目",
        "types": [
          "political",
          "sublocality",
          "sublocality_level_3"
        ]
      },
      {
        "long_name": "諏訪",
        "short_name": "諏訪",
        "types": [
          "political",
          "sublocality",
          "sublocality_level_2"
        ]
      },
      {
        "long_name": "諏訪市",
        "short_name": "諏訪市",
        "types": [
          "locality",
          "political"
        ]
      },
      {
        "long_name": "長野県",
        "short_name": "長野県",
        "types": [
          "administrative_area_level_1",
          "political"
        ]
      },
      {
        "long_name": "日本",
        "short_name": "JP",
        "types": [
          "country",
          "political"
        ]
      },
      {
        "long_name": "392-0004",
        "short_name": "392-0004",
        "types": [
          "postal_code"
        ]
      }
    ],
    "formatted_address": "日本、〒392-0004 長野県諏訪市諏訪１丁目９−８",
    "geometry": {
      "bounds": {
        "northeast": {
          "lat": 36.0475774,
          "lng": 138.117033
        },
        "southwest": {
          "lat": 36.0474639,
          "lng": 138.1169313
        }
      },
      "location": {
        "lat": 36.0475382,
        "lng": 138.1169755
      },
      "location_type": "ROOFTOP",
      "viewport": {
        "northeast": {
          "lat": 36.0488865802915,
          "lng": 138.1183311302915
        },
        "southwest": {
          "lat": 36.0461886197085,
          "lng": 138.1156331697085
        }
      }
    },
    "place_id": "ChIJ-5LFUbJVHGAR3-2ZXCwPGoY",
    "types": [
      "premise"
    ]
  }
]