[
  {
    "address_components": [
      {
        "long_name": "３０９９",
        "short_name": "３０９９",
        "types": [
          "premise"
        ]
      },
      {
        "long_name": "大町",
        "short_name": "大町",
        "types": [
          "political",
          "sublocality",
          "sublocality_level_2"
        ]
      },
      {
        "long_name": "大町市",
        "short_name": "大町市",
        "types": [
          "locality",
          "political"
        ]
      },
      {
        "long_name": "長野県",
        "short_name": "長野県",
        "types": [
          "administrative_area_level_1",
          "political"
        ]
      },
      {
        "long_name": "日本",
        "short_name": "JP",
        "types": [
          "country",
          "political"
        ]
      },
      {
        "long_name": "398-0002",
        "short_name": "398-0002",
        "types": [
          "postal_code"
        ]
      }
    ],
    "formatted_address": "日本、〒398-0002 長野県大町市大町３０９９",
    "geometry": {
      "bounds": {
        "northeast": {
          "lat": 36.499558,
          "lng": 137.8597667
        },
        "southwest": {
          "lat": 36.4992185,
          "lng": 137.8596207
        }
      },
      "location": {
        "lat": 36.49943590000001,
        "lng": 137.8596734
      },
      "location_type": "ROOFTOP",
      "viewport": {
        "northeast": {
          "lat": 36.5007372302915,
          "lng": 137.8610520802915
        },
        "southwest": {
          "lat": 36.4980392697085,
          "lng": 137.8583541197085
        }
      }
    },
    "place_id": "ChIJ6wYKhOtjHWARo2-vI24kMOA",
    "types": [
      "premise"
    ]
  }
]