[
  {
    "address_components": [
      {
        "long_name": "花梨ビル",
        "short_name": "花梨ビル",
        "types": [
          "premise"
        ]
      },
      {
        "long_name": "大町",
        "short_name": "大町",
        "types": [
          "political",
          "sublocality",
          "sublocality_level_2"
        ]
      },
      {
        "long_name": "大町市",
        "short_name": "大町市",
        "types": [
          "locality",
          "political"
        ]
      },
      {
        "long_name": "長野県",
        "short_name": "長野県",
        "types": [
          "administrative_area_level_1",
          "political"
        ]
      },
      {
        "long_name": "日本",
        "short_name": "JP",
        "types": [
          "country",
          "political"
        ]
      },
      {
        "long_name": "398-0002",
        "short_name": "398-0002",
        "types": [
          "postal_code"
        ]
      }
    ],
    "formatted_address": "日本、〒398-0002 長野県大町市大町 花梨ビル",
    "geometry": {
      "bounds": {
        "northeast": {
          "lat": 36.4997427,
          "lng": 137.8576802
        },
        "southwest": {
          "lat": 36.4995941,
          "lng": 137.8575694
        }
      },
      "location": {
        "lat": 36.4996578,
        "lng": 137.8576468
      },
      "location_type": "ROOFTOP",
      "viewport": {
        "northeast": {
          "lat": 36.50101738029149,
          "lng": 137.8590040802915
        },
        "southwest": {
          "lat": 36.49831941970849,
          "lng": 137.8563061197085
        }
      }
    },
    "partial_match": true,
    "place_id": "ChIJSzx22OtjHWARatBSAfUaq4Q",
    "types": [
      "premise"
    ]
  }
]