{
  "candidates": [
    {
      "business_status": "OPERATIONAL",
      "formatted_address": "日本、〒398-0002 長野県大町市大町仁科町３１６８",
      "geometry": {
        "location": {
          "lat": 36.5002796,
          "lng": 137.8606011
        },
        "viewport": {
          "northeast": {
            "lat": 36.50160267989272,
            "lng": 137.8619432298927
          },
          "southwest": {
            "lat": 36.49890302010728,
            "lng": 137.8592435701072
          }
        }
      },
      "icon": "https://maps.gstatic.com/mapfiles/place_api/icons/v1/png_71/generic_business-71.png",
      "name": "アルプス第一交通(株)",
      "photos": [
        {
          "height": 3075,
          "html_attributions": [
            "<a href=\"https://maps.google.com/maps/contrib/109309667051443875581\">朱進展</a>"
          ],
          "photo_reference": "Aap_uEA05w7kRyEeG3_c_b_ppvk3dcGd_4nBj4McEb9J4pQYw8mJjOD1sK5lADdtOSgoDzgYD69LTafIwMrhw6VsCWO2XhQnKWts8q774j-hIFQXvVm-EY4esgnrBiH9214Tkx7xAJmY7KCwgxH395WSsKpG_hVZ-5o_YfCL1NYWgNp6dsf7",
          "width": 4612
        }
      ],
      "place_id": "ChIJeU8nbutjHWARRBRRTrUMbK0",
      "plus_code": {
        "compound_code": "GV26+47 大町市、長野県",
        "global_code": "8Q8VGV26+47"
      },
      "types": [
        "point_of_interest",
        "establishment"
      ]
    },
    {
      "business_status": "OPERATIONAL",
      "formatted_address": "日本、〒398-0002 長野県大町市大町仁科町３１６８",
      "geometry": {
        "location": {
          "lat": 36.5003011,
          "lng": 137.8606006
        },
        "viewport": {
          "northeast": {
            "lat": 36.50162937989272,
            "lng": 137.8619367298927
          },
          "southwest": {
            "lat": 36.49892972010728,
            "lng": 137.8592370701073
          }
        }
      },
      "icon": "https://maps.gstatic.com/mapfiles/place_api/icons/v1/png_71/generic_business-71.png",
      "name": "アルプス第一交通 配車センター",
      "photos": [
        {
          "height": 1704,
          "html_attributions": [
            "<a href=\"https://maps.google.com/maps/contrib/100473650365238018440\">よしのたつや</a>"
          ],
          "photo_reference": "Aap_uECe8hUYhMSyKH7IuXf3J_LHoVTEOcDU_VlovGihhRFOc-1coeMP0U0tbmyvJIwQ-cYlXkTICMkiMUzYKyQ6es-yoUX5s9gudn93dsFiwTOb4KTKi6acM-NC54-TM6-01VFhB4ZNeFwcfa7iSHrf_wNrOO3mehmXtb_EmkfI9yb94Rij",
          "width": 2272
        }
      ],
      "place_id": "ChIJV1neQOtjHWARmMapAC-fOts",
      "plus_code": {
        "compound_code": "GV26+47 大町市、長野県",
        "global_code": "8Q8VGV26+47"
      },
      "types": [
        "point_of_interest",
        "establishment"
      ]
    }
  ],
  "status": "OK"
}