[
  {
    "address_components": [
      {
        "long_name": "３３０６−１４",
        "short_name": "３３０６−１４",
        "types": [
          "premise"
        ]
      },
      {
        "long_name": "大町",
        "short_name": "大町",
        "types": [
          "political",
          "sublocality",
          "sublocality_level_2"
        ]
      },
      {
        "long_name": "大町市",
        "short_name": "大町市",
        "types": [
          "locality",
          "political"
        ]
      },
      {
        "long_name": "長野県",
        "short_name": "長野県",
        "types": [
          "administrative_area_level_1",
          "political"
        ]
      },
      {
        "long_name": "日本",
        "short_name": "JP",
        "types": [
          "country",
          "political"
        ]
      },
      {
        "long_name": "398-0002",
        "short_name": "398-0002",
        "types": [
          "postal_code"
        ]
      }
    ],
    "formatted_address": "日本、〒398-0002 長野県大町市大町３３０６−１４",
    "geometry": {
      "bounds": {
        "northeast": {
          "lat": 36.5026509,
          "lng": 137.8611156
        },
        "southwest": {
          "lat": 36.5025087,
          "lng": 137.8609446
        }
      },
      "location": {
        "lat": 36.5025925,
        "lng": 137.8610438
      },
      "location_type": "ROOFTOP",
      "viewport": {
        "northeast": {
          "lat": 36.5039287802915,
          "lng": 137.8623572802915
        },
        "southwest": {
          "lat": 36.5012308197085,
          "lng": 137.8596593197085
        }
      }
    },
    "place_id": "ChIJT8X86OpjHWARULJrs1BCXSo",
    "types": [
      "premise"
    ]
  }
]