[
  {
    "address_components": [
      {
        "long_name": "４３０６−１",
        "short_name": "４３０６−１",
        "types": [
          "premise"
        ]
      },
      {
        "long_name": "大町",
        "short_name": "大町",
        "types": [
          "political",
          "sublocality",
          "sublocality_level_2"
        ]
      },
      {
        "long_name": "大町市",
        "short_name": "大町市",
        "types": [
          "locality",
          "political"
        ]
      },
      {
        "long_name": "長野県",
        "short_name": "長野県",
        "types": [
          "administrative_area_level_1",
          "political"
        ]
      },
      {
        "long_name": "日本",
        "short_name": "JP",
        "types": [
          "country",
          "political"
        ]
      },
      {
        "long_name": "398-0002",
        "short_name": "398-0002",
        "types": [
          "postal_code"
        ]
      }
    ],
    "formatted_address": "日本、〒398-0002 長野県大町市大町４３０６−１",
    "geometry": {
      "bounds": {
        "northeast": {
          "lat": 36.5109562,
          "lng": 137.8517373
        },
        "southwest": {
          "lat": 36.5108198,
          "lng": 137.8515028
        }
      },
      "location": {
        "lat": 36.5108998,
        "lng": 137.8515483
      },
      "location_type": "ROOFTOP",
      "viewport": {
        "northeast": {
          "lat": 36.5122369802915,
          "lng": 137.8529589802915
        },
        "southwest": {
          "lat": 36.5095390197085,
          "lng": 137.8502610197085
        }
      }
    },
    "place_id": "ChIJCQinNtBjHWARArsSALjVznM",
    "types": [
      "premise"
    ]
  }
]