{
  "candidates": [
    {
      "business_status": "OPERATIONAL",
      "formatted_address": "日本、〒398-0002 長野県大町市大町８０５６−１",
      "geometry": {
        "location": {
          "lat": 36.5052452,
          "lng": 137.8703892
        },
        "viewport": {
          "northeast": {
            "lat": 36.50660017989272,
            "lng": 137.8717637798927
          },
          "southwest": {
            "lat": 36.50390052010728,
            "lng": 137.8690641201073
          }
        }
      },
      "icon": "https://maps.gstatic.com/mapfiles/place_api/icons/v1/png_71/museum-71.png",
      "name": "大町山岳博物館",
      "photos": [
        {
          "height": 2160,
          "html_attributions": [
            "<a href=\"https://maps.google.com/maps/contrib/108133041382020732993\">A Google User</a>"
          ],
          "photo_reference": "Aap_uEAeBnhB9AhfPPTgQX0TrZxfMwrYHfte7Dw2LNSX3jQpuhhSBmcDpi2B3tQ1k-RtcDTiyz6cjlztNalyKt7lVsMFz1VjTtuv-SisZN2HE9b94LT6kdlTS_0xLx1_djktZcGBIJfsrNUFbivjWjAvNjpfeEmdTq7infYP9X08KSlBYbut",
          "width": 3840
        }
      ],
      "place_id": "ChIJPfiEEJdjHWARe9Wusk10ca0",
      "plus_code": {
        "compound_code": "GV4C+46 大町市、長野県",
        "global_code": "8Q8VGV4C+46"
      },
      "types": [
        "tourist_attraction",
        "museum",
        "point_of_interest",
        "establishment"
      ]
    },
    {
      "business_status": "OPERATIONAL",
      "formatted_address": "日本、〒398-0002 長野県大町市大町８０５６−１",
      "geometry": {
        "location": {
          "lat": 36.5056194,
          "lng": 137.8705229
        },
        "viewport": {
          "northeast": {
            "lat": 36.50699137989272,
            "lng": 137.8718403798927
          },
          "southwest": {
            "lat": 36.50429172010728,
            "lng": 137.8691407201073
          }
        }
      },
      "icon": "https://maps.gstatic.com/mapfiles/place_api/icons/v1/png_71/generic_business-71.png",
      "name": "大町山岳博物館付属園",
      "photos": [
        {
          "height": 3128,
          "html_attributions": [
            "<a href=\"https://maps.google.com/maps/contrib/102155748658351415438\">hiroo tanaka</a>"
          ],
          "photo_reference": "Aap_uEC1Oo8lk89wsKykBDAeXx5N42s0w5vv0I_bs1Dq69Z1jeQn5O30XosIN23qoPC_Msul9K-zLEFf0zL2h3Lu0oeNkyoFGtkiE-GI1L387UijHPjN3uOVK3s_Wxvl2GM6QpuJXS6mt7QqiwQfMxZqI-w3cXRSCAUDOJADmEk9j0OHKnUV",
          "width": 5568
        }
      ],
      "place_id": "ChIJI1fyEJdjHWARv87aaBXwvdI",
      "plus_code": {
        "compound_code": "GV4C+66 大町市、長野県",
        "global_code": "8Q8VGV4C+66"
      },
      "types": [
        "zoo",
        "tourist_attraction",
        "point_of_interest",
        "establishment"
      ]
    }
  ],
  "status": "OK"
}