[
  {
    "address_components": [
      {
        "long_name": "３９３−２",
        "short_name": "３９３−２",
        "types": [
          "premise"
        ]
      },
      {
        "long_name": "佐野",
        "short_name": "佐野",
        "types": [
          "political",
          "sublocality",
          "sublocality_level_2"
        ]
      },
      {
        "long_name": "山ノ内町",
        "short_name": "山ノ内町",
        "types": [
          "locality",
          "political"
        ]
      },
      {
        "long_name": "下高井郡",
        "short_name": "下高井郡",
        "types": [
          "administrative_area_level_2",
          "political"
        ]
      },
      {
        "long_name": "長野県",
        "short_name": "長野県",
        "types": [
          "administrative_area_level_1",
          "political"
        ]
      },
      {
        "long_name": "日本",
        "short_name": "JP",
        "types": [
          "country",
          "political"
        ]
      },
      {
        "long_name": "381-0402",
        "short_name": "381-0402",
        "types": [
          "postal_code"
        ]
      }
    ],
    "formatted_address": "日本、〒381-0402 長野県下高井郡山ノ内町佐野３９３−２",
    "geometry": {
      "bounds": {
        "northeast": {
          "lat": 36.7414685,
          "lng": 138.4048044
        },
        "southwest": {
          "lat": 36.7411033,
          "lng": 138.4045048
        }
      },
      "location": {
        "lat": 36.7413021,
        "lng": 138.4046283
      },
      "location_type": "ROOFTOP",
      "viewport": {
        "northeast": {
          "lat": 36.7426348802915,
          "lng": 138.4061493302915
        },
        "southwest": {
          "lat": 36.73993691970851,
          "lng": 138.4034513697085
        }
      }
    },
    "place_id": "ChIJ_XtsT8n0HWARAd43WIS4gec",
    "types": [
      "premise"
    ]
  }
]