{
  "candidates": [
    {
      "business_status": "OPERATIONAL",
      "formatted_address": "日本、〒389-2502 長野県下高井郡野沢温泉村豊郷９５７０",
      "geometry": {
        "location": {
          "lat": 36.9222241,
          "lng": 138.4468978
        },
        "viewport": {
          "northeast": {
            "lat": 36.92357482989271,
            "lng": 138.4482437798927
          },
          "southwest": {
            "lat": 36.92087517010727,
            "lng": 138.4455441201073
          }
        }
      },
      "icon": "https://maps.gstatic.com/mapfiles/place_api/icons/v1/png_71/shopping-71.png",
      "name": "（有）長野屋酒店",
      "photos": [
        {
          "height": 3792,
          "html_attributions": [
            "<a href=\"https://maps.google.com/maps/contrib/104068896509731160940\">YU chen</a>"
          ],
          "photo_reference": "Aap_uECTl3XIwE2imz5UxjNT1MgSvrFo8VfX4dfI1S_A4ntwbUr5gm2-EEeICvRtZbKpEwukmHGNyqKosyP_ILp8Jab81MiUncuiQrivDUxhnX3CDiBvy8KoQU_WKa_awaFmW5OPeqganGtWiGWvAdCRfzaAdgu_JDsJZzu658Pd4SRdhzMn",
          "width": 5056
        }
      ],
      "place_id": "ChIJEdeuoS4F9l8R-L82OBlpO1c",
      "plus_code": {
        "compound_code": "WCCW+VQ 野沢温泉村、長野県",
        "global_code": "8Q8WWCCW+VQ"
      },
      "types": [
        "liquor_store",
        "store",
        "point_of_interest",
        "establishment"
      ]
    },
    {
      "business_status": "OPERATIONAL",
      "formatted_address": "日本、〒389-2502 長野県下高井郡野沢温泉村豊郷 河原湯9281",
      "geometry": {
        "location": {
          "lat": 36.9234726,
          "lng": 138.4475485
        },
        "viewport": {
          "northeast": {
            "lat": 36.92481902989272,
            "lng": 138.4489114298927
          },
          "southwest": {
            "lat": 36.92211937010727,
            "lng": 138.4462117701073
          }
        }
      },
      "icon": "https://maps.gstatic.com/mapfiles/place_api/icons/v1/png_71/shopping-71.png",
      "name": "久保田屋商店",
      "photos": [
        {
          "height": 1920,
          "html_attributions": [
            "<a href=\"https://maps.google.com/maps/contrib/105831264530063700307\">利行成毛</a>"
          ],
          "photo_reference": "Aap_uEAjseTPuuFynE74gaErZ225w83dFWk5MB7DJ7f9y5EafSORlKn8-ozvGK5ZYGsf95Drh48VYlj37OerooUW0Ci8c6vKK6EEMoo5fFifVlURNWd6z5qVcJ0mqHqWJgwURWV9zdTG2Le15bHoX7A7jX178KqXbB4_IJRmWEepJK7LL-6N",
          "width": 1080
        }
      ],
      "place_id": "ChIJP7FT-C4F9l8RWhP46MhBEw4",
      "plus_code": {
        "compound_code": "WCFX+92 野沢温泉村、長野県",
        "global_code": "8Q8WWCFX+92"
      },
      "types": [
        "liquor_store",
        "store",
        "point_of_interest",
        "establishment"
      ]
    }
  ],
  "status": "OK"
}