{
  "candidates": [
    {
      "business_status": "OPERATIONAL",
      "formatted_address": "日本、〒399-8602 長野県北安曇郡池田町渋田見９９５５−６",
      "geometry": {
        "location": {
          "lat": 36.3891695,
          "lng": 137.887833
        },
        "viewport": {
          "northeast": {
            "lat": 36.39051592989271,
            "lng": 137.8891664298927
          },
          "southwest": {
            "lat": 36.38781627010727,
            "lng": 137.8864667701073
          }
        }
      },
      "icon": "https://maps.gstatic.com/mapfiles/place_api/icons/v1/png_71/generic_business-71.png",
      "name": "大雪渓酒造 蔵元直営店 花紋大雪渓",
      "photos": [
        {
          "height": 3024,
          "html_attributions": [
            "<a href=\"https://maps.google.com/maps/contrib/106130423169037456582\">yasushi katayama</a>"
          ],
          "photo_reference": "Aap_uEBX0swVHFmrmzyDE2aZZg7XRtQxgfpI3pqiueT-aFVmr1bUopM7buASVVWapAqFbKmkdHsYHZ6moX4LzoY664VpSIBQDVZML4iKxKuEcJ_LrfGfTOx8JHKUuoA8crZBNCT_eQ5Ep7q0G5R2XGLNBDLuTYAgVZQIJQWhIqB0CO5zU4d9",
          "width": 4032
        }
      ],
      "place_id": "ChIJ5cNNL_JvHWARW2QnId9XBFA",
      "plus_code": {
        "compound_code": "9VQQ+M5 池田町、長野県",
        "global_code": "8Q8V9VQQ+M5"
      },
      "types": [
        "point_of_interest",
        "establishment"
      ]
    },
    {
      "business_status": "OPERATIONAL",
      "formatted_address": "日本、〒399-8602 長野県北安曇郡池田町会染９６４２−２",
      "geometry": {
        "location": {
          "lat": 36.389553,
          "lng": 137.8877433
        },
        "viewport": {
          "northeast": {
            "lat": 36.39083727989273,
            "lng": 137.8891091798928
          },
          "southwest": {
            "lat": 36.38813762010728,
            "lng": 137.8864095201073
          }
        }
      },
      "icon": "https://maps.gstatic.com/mapfiles/place_api/icons/v1/png_71/generic_business-71.png",
      "name": "大雪渓酒造㈱",
      "photos": [
        {
          "height": 2160,
          "html_attributions": [
            "<a href=\"https://maps.google.com/maps/contrib/105243845225970921703\">ぼた</a>"
          ],
          "photo_reference": "Aap_uED45FwJIr0fOcJyE1bCJ2tk8NPXBlemvgcJ7jLf351Gu_v_wbQDbYH3Y4ib2f9UO-RAyFlc-7ZddeNJLUdTumQ-CFPn_CZg7lJbNO1MAlyj4wHN2xENSUMsX_Fir5TZb8yQdL8vxnmgSF7vGe0-TH2822Ub0ghpq2bq47QsfwxT_ssp",
          "width": 3840
        }
      ],
      "place_id": "ChIJXc56FFNuHWAR-hdoq9IziEg",
      "plus_code": {
        "compound_code": "9VQQ+R5 池田町、長野県",
        "global_code": "8Q8V9VQQ+R5"
      },
      "types": [
        "point_of_interest",
        "establishment"
      ]
    }
  ],
  "status": "OK"
}