{
  "candidates": [
    {
      "business_status": "OPERATIONAL",
      "formatted_address": "日本、〒399-8601 長野県北安曇郡池田町池田２１４９−４",
      "geometry": {
        "location": {
          "lat": 36.419996,
          "lng": 137.88591
        },
        "viewport": {
          "northeast": {
            "lat": 36.42138257989271,
            "lng": 137.8872431298927
          },
          "southwest": {
            "lat": 36.41868292010727,
            "lng": 137.8845434701073
          }
        }
      },
      "icon": "https://maps.gstatic.com/mapfiles/place_api/icons/v1/png_71/generic_business-71.png",
      "name": "あずさ観光 . 介護タクシーあずさ",
      "photos": [
        {
          "height": 3024,
          "html_attributions": [
            "<a href=\"https://maps.google.com/maps/contrib/110289350162592981465\">A Google User</a>"
          ],
          "photo_reference": "Aap_uEAxWSHU-DOKO7psQk2mhiYQBXC-1w5GndfivHxhlmofEONYo3VhXeS2o80vYDCwtVH4wZd8MoGR13mKxuhxL4FITdVN6Q3m7BL1SijXuKMQO2MCY2zZUNTPp93wOsaEHANMm4S3T1c5jsbym9GBggkWokBZMBaFtIi51rcaEKoyz6IZ",
          "width": 4032
        }
      ],
      "place_id": "ChIJGw0-wINvHWARO5swJRl6iYk",
      "plus_code": {
        "compound_code": "CV9P+X9 池田町、長野県",
        "global_code": "8Q8VCV9P+X9"
      },
      "types": [
        "travel_agency",
        "point_of_interest",
        "establishment"
      ]
    },
    {
      "business_status": "OPERATIONAL",
      "formatted_address": "日本、〒399-8602 長野県北安曇郡池田町 大字会染十日市場12098−6",
      "geometry": {
        "location": {
          "lat": 36.3971787,
          "lng": 137.8833055
        },
        "viewport": {
          "northeast": {
            "lat": 36.39853037989273,
            "lng": 137.8846571798927
          },
          "southwest": {
            "lat": 36.39583072010728,
            "lng": 137.8819575201073
          }
        }
      },
      "icon": "https://maps.gstatic.com/mapfiles/place_api/icons/v1/png_71/generic_business-71.png",
      "name": "介護タクシー眞佐",
      "place_id": "ChIJv4U7DKhvHWAR_k5oaJvyyFg",
      "types": [
        "point_of_interest",
        "establishment"
      ]
    }
  ],
  "status": "OK"
}