[
  {
    "address_components": [
      {
        "long_name": "野沢温泉村",
        "short_name": "野沢温泉村",
        "types": [
          "locality",
          "political"
        ]
      },
      {
        "long_name": "下高井郡",
        "short_name": "下高井郡",
        "types": [
          "administrative_area_level_2",
          "political"
        ]
      },
      {
        "long_name": "長野県",
        "short_name": "長野県",
        "types": [
          "administrative_area_level_1",
          "political"
        ]
      },
      {
        "long_name": "日本",
        "short_name": "JP",
        "types": [
          "country",
          "political"
        ]
      }
    ],
    "formatted_address": "日本、長野県下高井郡野沢温泉村",
    "geometry": {
      "bounds": {
        "northeast": {
          "lat": 36.9848283,
          "lng": 138.5216232
        },
        "southwest": {
          "lat": 36.8814669,
          "lng": 138.4177757
        }
      },
      "location": {
        "lat": 36.9228462,
        "lng": 138.4405097
      },
      "location_type": "APPROXIMATE",
      "viewport": {
        "northeast": {
          "lat": 36.9848283,
          "lng": 138.5216232
        },
        "southwest": {
          "lat": 36.8814669,
          "lng": 138.4177757
        }
      }
    },
    "partial_match": true,
    "place_id": "ChIJK2HJ2xoF9l8RMIVuRlrbkRg",
    "types": [
      "locality",
      "political"
    ]
  },
  {
    "address_components": [
      {
        "long_name": "６２８",
        "short_name": "６２８",
        "types": [
          "premise"
        ]
      },
      {
        "long_name": "上殿岡",
        "short_name": "上殿岡",
        "types": [
          "political",
          "sublocality",
          "sublocality_level_2"
        ]
      },
      {
        "long_name": "飯田市",
        "short_name": "飯田市",
        "types": [
          "locality",
          "political"
        ]
      },
      {
        "long_name": "長野県",
        "short_name": "長野県",
        "types": [
          "administrative_area_level_1",
          "political"
        ]
      },
      {
        "long_name": "日本",
        "short_name": "JP",
        "types": [
          "country",
          "political"
        ]
      },
      {
        "long_name": "395-0153",
        "short_name": "395-0153",
        "types": [
          "postal_code"
        ]
      }
    ],
    "formatted_address": "日本、〒395-0153 長野県飯田市上殿岡６２８",
    "geometry": {
      "location": {
        "lat": 35.50041,
        "lng": 137.807765
      },
      "location_type": "ROOFTOP",
      "viewport": {
        "northeast": {
          "lat": 35.5018308802915,
          "lng": 137.8089791802915
        },
        "southwest": {
          "lat": 35.4991329197085,
          "lng": 137.8062812197085
        }
      }
    },
    "partial_match": true,
    "place_id": "ChIJw53O0a2ZHGAREPuSlkWw0gg",
    "plus_code": {
      "compound_code": "GR25+54 日本、長野県飯田市",
      "global_code": "8Q7VGR25+54"
    },
    "types": [
      "establishment",
      "food",
      "lodging",
      "point_of_interest",
      "restaurant"
    ]
  }
]