{
  "candidates": [
    {
      "business_status": "CLOSED_TEMPORARILY",
      "formatted_address": "日本、〒399-9301 長野県北安曇郡白馬村北城１２１０５−３",
      "geometry": {
        "location": {
          "lat": 36.716744,
          "lng": 137.85819
        },
        "viewport": {
          "northeast": {
            "lat": 36.71834842989272,
            "lng": 137.8596625298927
          },
          "southwest": {
            "lat": 36.71564877010728,
            "lng": 137.8569628701073
          }
        }
      },
      "icon": "https://maps.gstatic.com/mapfiles/place_api/icons/v1/png_71/shopping-71.png",
      "name": "アライスポーツ 岩岳ゴンドラ店",
      "place_id": "ChIJd5T37JXN918Rw_2DkpCpIzM",
      "plus_code": {
        "compound_code": "PV85+M7 白馬村、長野県",
        "global_code": "8Q8VPV85+M7"
      },
      "types": [
        "store",
        "point_of_interest",
        "establishment"
      ]
    },
    {
      "business_status": "OPERATIONAL",
      "formatted_address": "日本、〒399-9301 長野県北安曇郡白馬村北城１１４２０−１",
      "geometry": {
        "location": {
          "lat": 36.71547899999999,
          "lng": 137.85408
        },
        "viewport": {
          "northeast": {
            "lat": 36.71682882989272,
            "lng": 137.8554298298927
          },
          "southwest": {
            "lat": 36.71412917010728,
            "lng": 137.8527301701072
          }
        }
      },
      "icon": "https://maps.gstatic.com/mapfiles/place_api/icons/v1/png_71/generic_business-71.png",
      "name": "白馬岩岳スノーフィールド",
      "photos": [
        {
          "height": 3096,
          "html_attributions": [
            "<a href=\"https://maps.google.com/maps/contrib/106034954409974577680\">A Google User</a>"
          ],
          "photo_reference": "Aap_uEBNaeEd_bhz8-15vbaKWK5wSsc5Zm7rc2CLPmkL3tKTWpbvDpDC3u2xzpTnce4jJCwIwARl0NNbxBN1_-ledNP7i4ZnlRMzt71WRXB24csLcdEVkjNegRT6xsu24D8_nSkLpMKSKpuheQali6m13GzafZn69-N0Hi2rbz21gbUF0CkG",
          "width": 4128
        }
      ],
      "place_id": "ChIJba7_IZXN918R4VIbHkNj89Q",
      "plus_code": {
        "compound_code": "PV83+5J 白馬村、長野県",
        "global_code": "8Q8VPV83+5J"
      },
      "types": [
        "cafe",
        "store",
        "park",
        "point_of_interest",
        "food",
        "establishment"
      ]
    }
  ],
  "status": "OK"
}