{
  "candidates": [
    {
      "business_status": "OPERATIONAL",
      "formatted_address": "日本、〒381-0401 長野県下高井郡山ノ内町平穏７１４９",
      "geometry": {
        "location": {
          "lat": 36.7394326,
          "lng": 138.5131357
        },
        "viewport": {
          "northeast": {
            "lat": 36.74070342989273,
            "lng": 138.5143791298927
          },
          "southwest": {
            "lat": 36.73800377010728,
            "lng": 138.5116794701073
          }
        }
      },
      "icon": "https://maps.gstatic.com/mapfiles/place_api/icons/v1/png_71/restaurant-71.png",
      "name": "レストラン Hi HAPPY",
      "photos": [
        {
          "height": 3000,
          "html_attributions": [
            "<a href=\"https://maps.google.com/maps/contrib/116618655931946842274\">A Google User</a>"
          ],
          "photo_reference": "Aap_uEBNOhB55EQCbGe0CjsVbwtUZV1_Y62CeQxpMYkrqV1jB1HrOGfBLcnVyv3sFwc0hFNkr-3mG6KBWiNA6j-pwS1WrNbo2ZE25Byl8MbQYHxCF921ynHXzEInkM38yyKqQ08XbW3lGjzFKDS1xYoFeEjyv3wFtl_WsoFkC-W7m-qGWGw",
          "width": 5333
        }
      ],
      "place_id": "ChIJfUCHHybwHWARFIzt032_a2s",
      "plus_code": {
        "compound_code": "PGQ7+Q7 山ノ内町、長野県",
        "global_code": "8Q8WPGQ7+Q7"
      },
      "types": [
        "meal_takeaway",
        "restaurant",
        "point_of_interest",
        "food",
        "establishment"
      ]
    },
    {
      "business_status": "OPERATIONAL",
      "formatted_address": "日本、〒381-0401 長野県下高井郡山ノ内町平穏２０７１",
      "geometry": {
        "location": {
          "lat": 36.7337475,
          "lng": 138.4341923
        },
        "viewport": {
          "northeast": {
            "lat": 36.73501777989272,
            "lng": 138.4354913798927
          },
          "southwest": {
            "lat": 36.73231812010728,
            "lng": 138.4327917201073
          }
        }
      },
      "icon": "https://maps.gstatic.com/mapfiles/place_api/icons/v1/png_71/restaurant-71.png",
      "name": "カフェ＆レストラン Happy",
      "photos": [
        {
          "height": 2736,
          "html_attributions": [
            "<a href=\"https://maps.google.com/maps/contrib/110382987442689030804\">A Google User</a>"
          ],
          "photo_reference": "Aap_uECwAEs8P6FD3ItApUu_4gmjqeHVjIRvIw8vgCytf7DwQ0cSXtOnooRG34yNFZwMzzJetlMBBNy1Syk2vDV6auXZlF-7FJhcErQfnjbyckKYiRdzyGWIgbM1RoSnRr3SZgO5jlA7kxg3XwYsEhZkC-0NlmQ05nnu5wON_hgZudrVoSS9",
          "width": 3648
        }
      ],
      "place_id": "ChIJDxHkYiv1HWAR32pHv10ZjMg",
      "plus_code": {
        "compound_code": "PCMM+GM 山ノ内町、長野県",
        "global_code": "8Q8WPCMM+GM"
      },
      "types": [
        "restaurant",
        "point_of_interest",
        "food",
        "establishment"
      ]
    }
  ],
  "status": "OK"
}