[
  {
    "address_components": [
      {
        "long_name": "２１７６−１",
        "short_name": "２１７６−１",
        "types": [
          "premise"
        ]
      },
      {
        "long_name": "吾妻",
        "short_name": "吾妻",
        "types": [
          "political",
          "sublocality",
          "sublocality_level_2"
        ]
      },
      {
        "long_name": "南木曽町",
        "short_name": "南木曽町",
        "types": [
          "locality",
          "political"
        ]
      },
      {
        "long_name": "木曽郡",
        "short_name": "木曽郡",
        "types": [
          "administrative_area_level_2",
          "political"
        ]
      },
      {
        "long_name": "長野県",
        "short_name": "長野県",
        "types": [
          "administrative_area_level_1",
          "political"
        ]
      },
      {
        "long_name": "日本",
        "short_name": "JP",
        "types": [
          "country",
          "political"
        ]
      },
      {
        "long_name": "399-5302",
        "short_name": "399-5302",
        "types": [
          "postal_code"
        ]
      }
    ],
    "formatted_address": "日本、〒399-5302 長野県木曽郡南木曽町吾妻２１７６−１",
    "geometry": {
      "bounds": {
        "northeast": {
          "lat": 35.5778567,
          "lng": 137.5959694
        },
        "southwest": {
          "lat": 35.5777714,
          "lng": 137.5958207
        }
      },
      "location": {
        "lat": 35.5778201,
        "lng": 137.5958964
      },
      "location_type": "ROOFTOP",
      "viewport": {
        "northeast": {
          "lat": 35.5791630302915,
          "lng": 137.5972232802915
        },
        "southwest": {
          "lat": 35.5764650697085,
          "lng": 137.5945253197085
        }
      }
    },
    "place_id": "ChIJHYwGqeS3HGARNmYI5cwD9Uw",
    "types": [
      "premise"
    ]
  }
]