[
  {
    "address_components": [
      {
        "long_name": "２１８４−３",
        "short_name": "２１８４−３",
        "types": [
          "premise"
        ]
      },
      {
        "long_name": "吾妻",
        "short_name": "吾妻",
        "types": [
          "political",
          "sublocality",
          "sublocality_level_2"
        ]
      },
      {
        "long_name": "南木曽町",
        "short_name": "南木曽町",
        "types": [
          "locality",
          "political"
        ]
      },
      {
        "long_name": "木曽郡",
        "short_name": "木曽郡",
        "types": [
          "administrative_area_level_2",
          "political"
        ]
      },
      {
        "long_name": "長野県",
        "short_name": "長野県",
        "types": [
          "administrative_area_level_1",
          "political"
        ]
      },
      {
        "long_name": "日本",
        "short_name": "JP",
        "types": [
          "country",
          "political"
        ]
      },
      {
        "long_name": "399-5302",
        "short_name": "399-5302",
        "types": [
          "postal_code"
        ]
      }
    ],
    "formatted_address": "日本、〒399-5302 長野県木曽郡南木曽町吾妻２１８４−３",
    "geometry": {
      "bounds": {
        "northeast": {
          "lat": 35.5778834,
          "lng": 137.5957212
        },
        "southwest": {
          "lat": 35.5778128,
          "lng": 137.5955901
        }
      },
      "location": {
        "lat": 35.5778528,
        "lng": 137.5956467
      },
      "location_type": "ROOFTOP",
      "viewport": {
        "northeast": {
          "lat": 35.5791970802915,
          "lng": 137.5970281802915
        },
        "southwest": {
          "lat": 35.5764991197085,
          "lng": 137.5943302197085
        }
      }
    },
    "place_id": "ChIJRwD0p-S3HGAR5YIaPxVM3xs",
    "types": [
      "premise"
    ]
  }
]