[
  {
    "address_components": [
      {
        "long_name": "２３００",
        "short_name": "２３００",
        "types": [
          "premise"
        ]
      },
      {
        "long_name": "吾妻",
        "short_name": "吾妻",
        "types": [
          "political",
          "sublocality",
          "sublocality_level_2"
        ]
      },
      {
        "long_name": "南木曽町",
        "short_name": "南木曽町",
        "types": [
          "locality",
          "political"
        ]
      },
      {
        "long_name": "木曽郡",
        "short_name": "木曽郡",
        "types": [
          "administrative_area_level_2",
          "political"
        ]
      },
      {
        "long_name": "長野県",
        "short_name": "長野県",
        "types": [
          "administrative_area_level_1",
          "political"
        ]
      },
      {
        "long_name": "日本",
        "short_name": "JP",
        "types": [
          "country",
          "political"
        ]
      },
      {
        "long_name": "399-5302",
        "short_name": "399-5302",
        "types": [
          "postal_code"
        ]
      }
    ],
    "formatted_address": "日本、〒399-5302 長野県木曽郡南木曽町吾妻２３００",
    "geometry": {
      "bounds": {
        "northeast": {
          "lat": 35.5603609,
          "lng": 137.6216805
        },
        "southwest": {
          "lat": 35.5602738,
          "lng": 137.6216057
        }
      },
      "location": {
        "lat": 35.5603229,
        "lng": 137.6216375
      },
      "location_type": "ROOFTOP",
      "viewport": {
        "northeast": {
          "lat": 35.5618333802915,
          "lng": 137.6229665802915
        },
        "southwest": {
          "lat": 35.5591354197085,
          "lng": 137.6202686197085
        }
      }
    },
    "place_id": "ChIJFUptZTS4HGARumxE-v7ki9w",
    "types": [
      "premise"
    ]
  }
]