[
  {
    "address_components": [
      {
        "long_name": "２０７４",
        "short_name": "２０７４",
        "types": [
          "premise"
        ]
      },
      {
        "long_name": "平穏",
        "short_name": "平穏",
        "types": [
          "political",
          "sublocality",
          "sublocality_level_2"
        ]
      },
      {
        "long_name": "山ノ内町",
        "short_name": "山ノ内町",
        "types": [
          "locality",
          "political"
        ]
      },
      {
        "long_name": "下高井郡",
        "short_name": "下高井郡",
        "types": [
          "administrative_area_level_2",
          "political"
        ]
      },
      {
        "long_name": "長野県",
        "short_name": "長野県",
        "types": [
          "administrative_area_level_1",
          "political"
        ]
      },
      {
        "long_name": "日本",
        "short_name": "JP",
        "types": [
          "country",
          "political"
        ]
      },
      {
        "long_name": "381-0401",
        "short_name": "381-0401",
        "types": [
          "postal_code"
        ]
      }
    ],
    "formatted_address": "日本、〒381-0401 長野県下高井郡山ノ内町平穏２０７４",
    "geometry": {
      "bounds": {
        "northeast": {
          "lat": 36.7337485,
          "lng": 138.4342524
        },
        "southwest": {
          "lat": 36.73364830000001,
          "lng": 138.434134
        }
      },
      "location": {
        "lat": 36.7337023,
        "lng": 138.4341832
      },
      "location_type": "ROOFTOP",
      "viewport": {
        "northeast": {
          "lat": 36.7349997802915,
          "lng": 138.4355192302915
        },
        "southwest": {
          "lat": 36.7323018197085,
          "lng": 138.4328212697085
        }
      }
    },
    "place_id": "ChIJNf6HhYH0HWAR6M50xqje1Q4",
    "types": [
      "premise"
    ]
  }
]