[
  {
    "address_components": [
      {
        "long_name": "１６９６",
        "short_name": "１６９６",
        "types": [
          "premise"
        ]
      },
      {
        "long_name": "高遠町西高遠",
        "short_name": "高遠町西高遠",
        "types": [
          "political",
          "sublocality",
          "sublocality_level_2"
        ]
      },
      {
        "long_name": "伊那市",
        "short_name": "伊那市",
        "types": [
          "locality",
          "political"
        ]
      },
      {
        "long_name": "長野県",
        "short_name": "長野県",
        "types": [
          "administrative_area_level_1",
          "political"
        ]
      },
      {
        "long_name": "日本",
        "short_name": "JP",
        "types": [
          "country",
          "political"
        ]
      },
      {
        "long_name": "396-0211",
        "short_name": "396-0211",
        "types": [
          "postal_code"
        ]
      }
    ],
    "formatted_address": "日本、〒396-0211 長野県伊那市高遠町西高遠１６９６",
    "geometry": {
      "bounds": {
        "northeast": {
          "lat": 35.8372822,
          "lng": 138.0549712
        },
        "southwest": {
          "lat": 35.8371028,
          "lng": 138.0547591
        }
      },
      "location": {
        "lat": 35.8372047,
        "lng": 138.0548734
      },
      "location_type": "ROOFTOP",
      "viewport": {
        "northeast": {
          "lat": 35.8385537802915,
          "lng": 138.0562141302915
        },
        "southwest": {
          "lat": 35.8358558197085,
          "lng": 138.0535161697085
        }
      }
    },
    "place_id": "ChIJG0KUucb1HGARljGdbm2l_hA",
    "types": [
      "premise"
    ]
  }
]