[
  {
    "address_components": [
      {
        "long_name": "３３１２−１",
        "short_name": "３３１２−１",
        "types": [
          "premise"
        ]
      },
      {
        "long_name": "坂下",
        "short_name": "坂下",
        "types": [
          "political",
          "sublocality",
          "sublocality_level_2"
        ]
      },
      {
        "long_name": "伊那市",
        "short_name": "伊那市",
        "types": [
          "locality",
          "political"
        ]
      },
      {
        "long_name": "長野県",
        "short_name": "長野県",
        "types": [
          "administrative_area_level_1",
          "political"
        ]
      },
      {
        "long_name": "日本",
        "short_name": "JP",
        "types": [
          "country",
          "political"
        ]
      },
      {
        "long_name": "396-0024",
        "short_name": "396-0024",
        "types": [
          "postal_code"
        ]
      }
    ],
    "formatted_address": "日本、〒396-0024 長野県伊那市坂下３３１２−１",
    "geometry": {
      "bounds": {
        "northeast": {
          "lat": 35.8406027,
          "lng": 137.961611
        },
        "southwest": {
          "lat": 35.8405307,
          "lng": 137.9615325
        }
      },
      "location": {
        "lat": 35.8405673,
        "lng": 137.961574
      },
      "location_type": "ROOFTOP",
      "viewport": {
        "northeast": {
          "lat": 35.84192648029151,
          "lng": 137.9629207302915
        },
        "southwest": {
          "lat": 35.83922851970851,
          "lng": 137.9602227697085
        }
      }
    },
    "place_id": "ChIJ6YWzhwfxHGAR-UX6V54xPPw",
    "types": [
      "premise"
    ]
  }
]