[
  {
    "address_components": [
      {
        "long_name": "１９３４",
        "short_name": "１９３４",
        "types": [
          "premise"
        ]
      },
      {
        "long_name": "山寺",
        "short_name": "山寺",
        "types": [
          "political",
          "sublocality",
          "sublocality_level_2"
        ]
      },
      {
        "long_name": "伊那市",
        "short_name": "伊那市",
        "types": [
          "locality",
          "political"
        ]
      },
      {
        "long_name": "長野県",
        "short_name": "長野県",
        "types": [
          "administrative_area_level_1",
          "political"
        ]
      },
      {
        "long_name": "日本",
        "short_name": "JP",
        "types": [
          "country",
          "political"
        ]
      },
      {
        "long_name": "396-0023",
        "short_name": "396-0023",
        "types": [
          "postal_code"
        ]
      }
    ],
    "formatted_address": "日本、〒396-0023 長野県伊那市山寺１９３４",
    "geometry": {
      "bounds": {
        "northeast": {
          "lat": 35.84485,
          "lng": 137.9635836
        },
        "southwest": {
          "lat": 35.8447524,
          "lng": 137.9634544
        }
      },
      "location": {
        "lat": 35.844799,
        "lng": 137.9635272
      },
      "location_type": "ROOFTOP",
      "viewport": {
        "northeast": {
          "lat": 35.84615488029149,
          "lng": 137.9648366302915
        },
        "southwest": {
          "lat": 35.84345691970849,
          "lng": 137.9621386697085
        }
      }
    },
    "place_id": "ChIJAdkk2gDxHGARX_XrNV4T51k",
    "types": [
      "premise"
    ]
  }
]