[
  {
    "address_components": [
      {
        "long_name": "２６１−１",
        "short_name": "２６１−１",
        "types": [
          "premise"
        ]
      },
      {
        "long_name": "山寺",
        "short_name": "山寺",
        "types": [
          "political",
          "sublocality",
          "sublocality_level_2"
        ]
      },
      {
        "long_name": "伊那市",
        "short_name": "伊那市",
        "types": [
          "locality",
          "political"
        ]
      },
      {
        "long_name": "長野県",
        "short_name": "長野県",
        "types": [
          "administrative_area_level_1",
          "political"
        ]
      },
      {
        "long_name": "日本",
        "short_name": "JP",
        "types": [
          "country",
          "political"
        ]
      },
      {
        "long_name": "396-0023",
        "short_name": "396-0023",
        "types": [
          "postal_code"
        ]
      }
    ],
    "formatted_address": "日本、〒396-0023 長野県伊那市山寺２６１−１",
    "geometry": {
      "bounds": {
        "northeast": {
          "lat": 35.84821549999999,
          "lng": 137.9686773
        },
        "southwest": {
          "lat": 35.8479819,
          "lng": 137.968337
        }
      },
      "location": {
        "lat": 35.8480824,
        "lng": 137.9685071
      },
      "location_type": "ROOFTOP",
      "viewport": {
        "northeast": {
          "lat": 35.84944108029149,
          "lng": 137.9698686802915
        },
        "southwest": {
          "lat": 35.84674311970849,
          "lng": 137.9671707197085
        }
      }
    },
    "place_id": "ChIJw2uHrgPxHGARtGGap6gl7NY",
    "types": [
      "premise"
    ]
  }
]