[
  {
    "address_components": [
      {
        "long_name": "２５７１",
        "short_name": "２５７１",
        "types": [
          "premise"
        ]
      },
      {
        "long_name": "上新田",
        "short_name": "上新田",
        "types": [
          "political",
          "sublocality",
          "sublocality_level_2"
        ]
      },
      {
        "long_name": "伊那市",
        "short_name": "伊那市",
        "types": [
          "locality",
          "political"
        ]
      },
      {
        "long_name": "長野県",
        "short_name": "長野県",
        "types": [
          "administrative_area_level_1",
          "political"
        ]
      },
      {
        "long_name": "日本",
        "short_name": "JP",
        "types": [
          "country",
          "political"
        ]
      },
      {
        "long_name": "396-0012",
        "short_name": "396-0012",
        "types": [
          "postal_code"
        ]
      }
    ],
    "formatted_address": "日本、〒396-0012 長野県伊那市上新田２５７１",
    "geometry": {
      "bounds": {
        "northeast": {
          "lat": 35.828349,
          "lng": 137.9634301
        },
        "southwest": {
          "lat": 35.8282104,
          "lng": 137.9632435
        }
      },
      "location": {
        "lat": 35.8282757,
        "lng": 137.9633821
      },
      "location_type": "ROOFTOP",
      "viewport": {
        "northeast": {
          "lat": 35.8296286802915,
          "lng": 137.9646696302915
        },
        "southwest": {
          "lat": 35.8269307197085,
          "lng": 137.9619716697085
        }
      }
    },
    "place_id": "ChIJS2b-B3XxHGARPpMqSI7zt6w",
    "types": [
      "premise"
    ]
  }
]