[
  {
    "address_components": [
      {
        "long_name": "５１７６−２",
        "short_name": "５１７６−２",
        "types": [
          "premise"
        ]
      },
      {
        "long_name": "中央",
        "short_name": "中央",
        "types": [
          "political",
          "sublocality",
          "sublocality_level_2"
        ]
      },
      {
        "long_name": "伊那市",
        "short_name": "伊那市",
        "types": [
          "locality",
          "political"
        ]
      },
      {
        "long_name": "長野県",
        "short_name": "長野県",
        "types": [
          "administrative_area_level_1",
          "political"
        ]
      },
      {
        "long_name": "日本",
        "short_name": "JP",
        "types": [
          "country",
          "political"
        ]
      },
      {
        "long_name": "396-0015",
        "short_name": "396-0015",
        "types": [
          "postal_code"
        ]
      }
    ],
    "formatted_address": "日本、〒396-0015 長野県伊那市中央５１７６−２",
    "geometry": {
      "bounds": {
        "northeast": {
          "lat": 35.8420307,
          "lng": 137.9681078
        },
        "southwest": {
          "lat": 35.8418851,
          "lng": 137.9678186
        }
      },
      "location": {
        "lat": 35.8419739,
        "lng": 137.9679656
      },
      "location_type": "ROOFTOP",
      "viewport": {
        "northeast": {
          "lat": 35.8433109802915,
          "lng": 137.9692552802915
        },
        "southwest": {
          "lat": 35.8406130197085,
          "lng": 137.9665573197085
        }
      }
    },
    "place_id": "ChIJy2OnjQXxHGARJnhSfCM-kEw",
    "types": [
      "premise"
    ]
  }
]