{
  "candidates": [
    {
      "business_status": "OPERATIONAL",
      "formatted_address": "日本、〒396-0401 長野県伊那市長谷非持１４００",
      "geometry": {
        "location": {
          "lat": 35.8095711,
          "lng": 138.0839193
        },
        "viewport": {
          "northeast": {
            "lat": 35.81156065000001,
            "lng": 138.0848743798927
          },
          "southwest": {
            "lat": 35.80857124999999,
            "lng": 138.0821747201073
          }
        }
      },
      "icon": "https://maps.gstatic.com/mapfiles/place_api/icons/v1/png_71/generic_business-71.png",
      "name": "道の駅 南アルプスむら長谷",
      "photos": [
        {
          "height": 3024,
          "html_attributions": [
            "<a href=\"https://maps.google.com/maps/contrib/110595896436489083533\">A Google User</a>"
          ],
          "photo_reference": "Aap_uEDe6YbcxkGs9s7dMW8rwhIxIY6e7PCgzhAEcyNpwkvGH2BAfhdTIbCt5c3WrBbFPEWhAc2OiN84zezyYTYviwi5QhGowWlokdwOe5RC6JX1qs41CEzOkE9PdpsnBaPdLzlR5s9PWA7r-IuB13MdqGqKdybYO3Y9cP6FZ6PSgncRWUst",
          "width": 4032
        }
      ],
      "place_id": "ChIJd3K2zPRfHGARHnFY5lP9f-0",
      "plus_code": {
        "compound_code": "R35M+RH 伊那市、長野県",
        "global_code": "8Q7WR35M+RH"
      },
      "types": [
        "point_of_interest",
        "establishment"
      ]
    },
    {
      "business_status": "OPERATIONAL",
      "formatted_address": "日本、〒396-0621 長野県伊那市富県上新山２２９９",
      "geometry": {
        "location": {
          "lat": 35.8001934,
          "lng": 138.0316063
        },
        "viewport": {
          "northeast": {
            "lat": 35.80154082989272,
            "lng": 138.0329819798927
          },
          "southwest": {
            "lat": 35.79884117010727,
            "lng": 138.0302823201073
          }
        }
      },
      "icon": "https://maps.gstatic.com/mapfiles/place_api/icons/v1/png_71/restaurant-71.png",
      "name": "パンキエスト(Punkiest)",
      "photos": [
        {
          "height": 1536,
          "html_attributions": [
            "<a href=\"https://maps.google.com/maps/contrib/116302235836567027094\">A Google User</a>"
          ],
          "photo_reference": "Aap_uECQ3KKmXKrHzrjul01ETi9C_tIzfwVUggGWo1B7PcRxc51MfQMPP-d1WVHa9eGB6PXPECOj7NNReegXopXmipfc0c_68pkMyVkeb5Xw0Hl4e2nbHUO-M2f-0m0t7_VyZceQ8v_M7sk8_jxYd5CT0sezSk2oQ7au17yfaX4Oaxs_lHRD",
          "width": 2048
        }
      ],
      "place_id": "ChIJvwTO8PvzHGARz_7lfAqpj6k",
      "plus_code": {
        "compound_code": "R22J+3J 伊那市、長野県",
        "global_code": "8Q7WR22J+3J"
      },
      "types": [
        "bakery",
        "food",
        "point_of_interest",
        "store",
        "establishment"
      ]
    }
  ],
  "status": "OK"
}