[
  {
    "address_components": [
      {
        "long_name": "３３",
        "short_name": "３３",
        "types": [
          "premise"
        ]
      },
      {
        "long_name": "１５",
        "short_name": "１５",
        "types": [
          "political",
          "sublocality",
          "sublocality_level_4"
        ]
      },
      {
        "long_name": "３丁目",
        "short_name": "３丁目",
        "types": [
          "political",
          "sublocality",
          "sublocality_level_3"
        ]
      },
      {
        "long_name": "川岸東",
        "short_name": "川岸東",
        "types": [
          "political",
          "sublocality",
          "sublocality_level_2"
        ]
      },
      {
        "long_name": "岡谷市",
        "short_name": "岡谷市",
        "types": [
          "locality",
          "political"
        ]
      },
      {
        "long_name": "長野県",
        "short_name": "長野県",
        "types": [
          "administrative_area_level_1",
          "political"
        ]
      },
      {
        "long_name": "日本",
        "short_name": "JP",
        "types": [
          "country",
          "political"
        ]
      },
      {
        "long_name": "394-0045",
        "short_name": "394-0045",
        "types": [
          "postal_code"
        ]
      }
    ],
    "formatted_address": "日本、〒394-0045 長野県岡谷市川岸東３丁目１５−３３",
    "geometry": {
      "bounds": {
        "northeast": {
          "lat": 36.0322666,
          "lng": 138.0217882
        },
        "southwest": {
          "lat": 36.0320836,
          "lng": 138.0216179
        }
      },
      "location": {
        "lat": 36.0321737,
        "lng": 138.0217196
      },
      "location_type": "ROOFTOP",
      "viewport": {
        "northeast": {
          "lat": 36.0335240802915,
          "lng": 138.0231190302915
        },
        "southwest": {
          "lat": 36.0308261197085,
          "lng": 138.0204210697085
        }
      }
    },
    "place_id": "ChIJVRp3wkH-HGAR0xWxUYPwCYY",
    "types": [
      "premise"
    ]
  }
]