[
  {
    "address_components": [
      {
        "long_name": "１４",
        "short_name": "１４",
        "types": [
          "premise"
        ]
      },
      {
        "long_name": "１０",
        "short_name": "１０",
        "types": [
          "political",
          "sublocality",
          "sublocality_level_4"
        ]
      },
      {
        "long_name": "１丁目",
        "short_name": "１丁目",
        "types": [
          "political",
          "sublocality",
          "sublocality_level_3"
        ]
      },
      {
        "long_name": "中央町",
        "short_name": "中央町",
        "types": [
          "political",
          "sublocality",
          "sublocality_level_2"
        ]
      },
      {
        "long_name": "岡谷市",
        "short_name": "岡谷市",
        "types": [
          "locality",
          "political"
        ]
      },
      {
        "long_name": "長野県",
        "short_name": "長野県",
        "types": [
          "administrative_area_level_1",
          "political"
        ]
      },
      {
        "long_name": "日本",
        "short_name": "JP",
        "types": [
          "country",
          "political"
        ]
      },
      {
        "long_name": "394-0027",
        "short_name": "394-0027",
        "types": [
          "postal_code"
        ]
      }
    ],
    "formatted_address": "日本、〒394-0027 長野県岡谷市中央町１丁目１０−１４",
    "geometry": {
      "bounds": {
        "northeast": {
          "lat": 36.0594396,
          "lng": 138.0482459
        },
        "southwest": {
          "lat": 36.0593,
          "lng": 138.047948
        }
      },
      "location": {
        "lat": 36.0593543,
        "lng": 138.0481325
      },
      "location_type": "ROOFTOP",
      "viewport": {
        "northeast": {
          "lat": 36.0607187802915,
          "lng": 138.0494854802915
        },
        "southwest": {
          "lat": 36.0580208197085,
          "lng": 138.0467875197085
        }
      }
    },
    "place_id": "ChIJKxFl39D_HGARlCboXYV5KW0",
    "types": [
      "premise"
    ]
  }
]