[
  {
    "address_components": [
      {
        "long_name": "２４",
        "short_name": "２４",
        "types": [
          "premise"
        ]
      },
      {
        "long_name": "１",
        "short_name": "１",
        "types": [
          "political",
          "sublocality",
          "sublocality_level_4"
        ]
      },
      {
        "long_name": "４丁目",
        "short_name": "４丁目",
        "types": [
          "political",
          "sublocality",
          "sublocality_level_3"
        ]
      },
      {
        "long_name": "長地権現町",
        "short_name": "長地権現町",
        "types": [
          "political",
          "sublocality",
          "sublocality_level_2"
        ]
      },
      {
        "long_name": "岡谷市",
        "short_name": "岡谷市",
        "types": [
          "locality",
          "political"
        ]
      },
      {
        "long_name": "長野県",
        "short_name": "長野県",
        "types": [
          "administrative_area_level_1",
          "political"
        ]
      },
      {
        "long_name": "日本",
        "short_name": "JP",
        "types": [
          "country",
          "political"
        ]
      },
      {
        "long_name": "394-0081",
        "short_name": "394-0081",
        "types": [
          "postal_code"
        ]
      }
    ],
    "formatted_address": "日本、〒394-0081 長野県岡谷市長地権現町４丁目１−２４",
    "geometry": {
      "bounds": {
        "northeast": {
          "lat": 36.0621144,
          "lng": 138.0675317
        },
        "southwest": {
          "lat": 36.0619346,
          "lng": 138.0671149
        }
      },
      "location": {
        "lat": 36.0620113,
        "lng": 138.0673695
      },
      "location_type": "ROOFTOP",
      "viewport": {
        "northeast": {
          "lat": 36.06333293029149,
          "lng": 138.0687480302915
        },
        "southwest": {
          "lat": 36.0606349697085,
          "lng": 138.0660500697085
        }
      }
    },
    "place_id": "ChIJuWG0HO__HGARSrD99sxSlKc",
    "types": [
      "premise"
    ]
  }
]