[
  {
    "address_components": [
      {
        "long_name": "２１",
        "short_name": "２１",
        "types": [
          "premise"
        ]
      },
      {
        "long_name": "１",
        "short_name": "１",
        "types": [
          "political",
          "sublocality",
          "sublocality_level_4"
        ]
      },
      {
        "long_name": "２丁目",
        "short_name": "２丁目",
        "types": [
          "political",
          "sublocality",
          "sublocality_level_3"
        ]
      },
      {
        "long_name": "塚間町",
        "short_name": "塚間町",
        "types": [
          "political",
          "sublocality",
          "sublocality_level_2"
        ]
      },
      {
        "long_name": "岡谷市",
        "short_name": "岡谷市",
        "types": [
          "locality",
          "political"
        ]
      },
      {
        "long_name": "長野県",
        "short_name": "長野県",
        "types": [
          "administrative_area_level_1",
          "political"
        ]
      },
      {
        "long_name": "日本",
        "short_name": "JP",
        "types": [
          "country",
          "political"
        ]
      },
      {
        "long_name": "394-0026",
        "short_name": "394-0026",
        "types": [
          "postal_code"
        ]
      }
    ],
    "formatted_address": "日本、〒394-0026 長野県岡谷市塚間町２丁目１−２１",
    "geometry": {
      "bounds": {
        "northeast": {
          "lat": 36.0654005,
          "lng": 138.0532428
        },
        "southwest": {
          "lat": 36.06502450000001,
          "lng": 138.0527889
        }
      },
      "location": {
        "lat": 36.0652268,
        "lng": 138.0530331
      },
      "location_type": "ROOFTOP",
      "viewport": {
        "northeast": {
          "lat": 36.0665614802915,
          "lng": 138.0543648302915
        },
        "southwest": {
          "lat": 36.06386351970851,
          "lng": 138.0516668697085
        }
      }
    },
    "place_id": "ChIJ91GIV9j_HGARlkf639TFmk0",
    "types": [
      "premise"
    ]
  }
]