[
  {
    "address_components": [
      {
        "long_name": "日長庵 桂月",
        "short_name": "日長庵 桂月",
        "types": [
          "premise"
        ]
      },
      {
        "long_name": "智里",
        "short_name": "智里",
        "types": [
          "political",
          "sublocality",
          "sublocality_level_2"
        ]
      },
      {
        "long_name": "阿智村",
        "short_name": "阿智村",
        "types": [
          "locality",
          "political"
        ]
      },
      {
        "long_name": "下伊那郡",
        "short_name": "下伊那郡",
        "types": [
          "administrative_area_level_2",
          "political"
        ]
      },
      {
        "long_name": "長野県",
        "short_name": "長野県",
        "types": [
          "administrative_area_level_1",
          "political"
        ]
      },
      {
        "long_name": "日本",
        "short_name": "JP",
        "types": [
          "country",
          "political"
        ]
      },
      {
        "long_name": "395-0304",
        "short_name": "395-0304",
        "types": [
          "postal_code"
        ]
      }
    ],
    "formatted_address": "日本、〒395-0304 長野県下伊那郡阿智村智里 日長庵 桂月",
    "geometry": {
      "bounds": {
        "northeast": {
          "lat": 35.4579913,
          "lng": 137.7148714
        },
        "southwest": {
          "lat": 35.4576199,
          "lng": 137.7141844
        }
      },
      "location": {
        "lat": 35.4578303,
        "lng": 137.7143808
      },
      "location_type": "ROOFTOP",
      "viewport": {
        "northeast": {
          "lat": 35.45915458029149,
          "lng": 137.7158768802915
        },
        "southwest": {
          "lat": 35.45645661970849,
          "lng": 137.7131789197085
        }
      }
    },
    "place_id": "ChIJaUL-_wWjHGARFAuzn98vyig",
    "types": [
      "premise"
    ]
  }
]