{
  "candidates": [
    {
      "business_status": "OPERATIONAL",
      "formatted_address": "日本、〒395-0304 長野県下伊那郡阿智村智里昼神５０３−２",
      "geometry": {
        "location": {
          "lat": 35.4547114,
          "lng": 137.712434
        },
        "viewport": {
          "northeast": {
            "lat": 35.45592767989272,
            "lng": 137.7139323798927
          },
          "southwest": {
            "lat": 35.45322802010728,
            "lng": 137.7112327201073
          }
        }
      },
      "icon": "https://maps.gstatic.com/mapfiles/place_api/icons/v1/png_71/lodging-71.png",
      "name": "ホテル吉弥",
      "photos": [
        {
          "height": 3024,
          "html_attributions": [
            "<a href=\"https://maps.google.com/maps/contrib/116635306069336383455\">大久保まさと</a>"
          ],
          "photo_reference": "Aap_uEDVmKXXO_IFlwmB2cbiYV4bqzcLxNZqMtAmn9YSgT3jo3yFNNLPn-eQDSBSBwFAdlrqFaqH8y3yfz3BsqANbNexeEw0nomkktDJeI2_zizebMrSaPzIvPS9KznS4l4VEHU-U47zXx8gpkHfFbnl9nTFJh3Mma4zLlx9gb4qISqiuBv4",
          "width": 4032
        }
      ],
      "place_id": "ChIJs9mO-AijHGARIB1ddPlV1x0",
      "plus_code": {
        "compound_code": "FP36+VX 阿智村、長野県",
        "global_code": "8Q7VFP36+VX"
      },
      "types": [
        "lodging",
        "point_of_interest",
        "establishment"
      ]
    },
    {
      "business_status": "OPERATIONAL",
      "formatted_address": "日本、〒395-0304 長野県下伊那郡阿智村智里５３０−１",
      "geometry": {
        "location": {
          "lat": 35.453864,
          "lng": 137.711188
        },
        "viewport": {
          "northeast": {
            "lat": 35.45533782989272,
            "lng": 137.7124313298927
          },
          "southwest": {
            "lat": 35.45263817010727,
            "lng": 137.7097316701073
          }
        }
      },
      "icon": "https://maps.gstatic.com/mapfiles/place_api/icons/v1/png_71/lodging-71.png",
      "name": "ホテルはなや",
      "photos": [
        {
          "height": 3024,
          "html_attributions": [
            "<a href=\"https://maps.google.com/maps/contrib/108958254639703820059\">浅尾勉</a>"
          ],
          "photo_reference": "Aap_uED0aXuj7pOxdAl3lHU7i-Gn5PZDach2HaJ3f4wRwJTr2Oz1wbHB3-CBawjMUG18D1uuGUJDtwKhFjPyxlMwRQBLAZS5Fjto6FHmJxvNGlfGjvcvc-9UcTxDIrEiR7ZgCiGlWIOS6nZTT_6vdJqv-fn3v5QPcU_g9ZBGo6lpNnzEL3kx",
          "width": 4032
        }
      ],
      "place_id": "ChIJP0-DpgmjHGARLQ3xOqsQEdQ",
      "plus_code": {
        "compound_code": "FP36+GF 阿智村、長野県",
        "global_code": "8Q7VFP36+GF"
      },
      "types": [
        "lodging",
        "point_of_interest",
        "establishment"
      ]
    }
  ],
  "status": "OK"
}