[
  {
    "address_components": [
      {
        "long_name": "阿智村",
        "short_name": "阿智村",
        "types": [
          "locality",
          "political"
        ]
      },
      {
        "long_name": "下伊那郡",
        "short_name": "下伊那郡",
        "types": [
          "administrative_area_level_2",
          "political"
        ]
      },
      {
        "long_name": "長野県",
        "short_name": "長野県",
        "types": [
          "administrative_area_level_1",
          "political"
        ]
      },
      {
        "long_name": "日本",
        "short_name": "JP",
        "types": [
          "country",
          "political"
        ]
      }
    ],
    "formatted_address": "日本、長野県下伊那郡阿智村",
    "geometry": {
      "bounds": {
        "northeast": {
          "lat": 35.5544747,
          "lng": 137.7703721
        },
        "southwest": {
          "lat": 35.3405175,
          "lng": 137.5930079
        }
      },
      "location": {
        "lat": 35.4440944,
        "lng": 137.7479129
      },
      "location_type": "APPROXIMATE",
      "viewport": {
        "northeast": {
          "lat": 35.5544747,
          "lng": 137.7703721
        },
        "southwest": {
          "lat": 35.3405175,
          "lng": 137.5930079
        }
      }
    },
    "partial_match": true,
    "place_id": "ChIJ_6rBnHakHGARKet4IBZfp3c",
    "types": [
      "locality",
      "political"
    ]
  },
  {
    "address_components": [
      {
        "long_name": "貴栄",
        "short_name": "貴栄",
        "types": [
          "premise"
        ]
      },
      {
        "long_name": "２０",
        "short_name": "２０",
        "types": [
          "premise"
        ]
      },
      {
        "long_name": "１８",
        "short_name": "１８",
        "types": [
          "political",
          "sublocality",
          "sublocality_level_4"
        ]
      },
      {
        "long_name": "３丁目",
        "short_name": "３丁目",
        "types": [
          "political",
          "sublocality",
          "sublocality_level_3"
        ]
      },
      {
        "long_name": "虎ノ門",
        "short_name": "虎ノ門",
        "types": [
          "political",
          "sublocality",
          "sublocality_level_2"
        ]
      },
      {
        "long_name": "港区",
        "short_name": "港区",
        "types": [
          "locality",
          "political"
        ]
      },
      {
        "long_name": "東京都",
        "short_name": "東京都",
        "types": [
          "administrative_area_level_1",
          "political"
        ]
      },
      {
        "long_name": "日本",
        "short_name": "JP",
        "types": [
          "country",
          "political"
        ]
      },
      {
        "long_name": "105-0001",
        "short_name": "105-0001",
        "types": [
          "postal_code"
        ]
      }
    ],
    "formatted_address": "日本、〒105-0001 東京都港区虎ノ門３丁目１８−２０ 貴栄",
    "geometry": {
      "location": {
        "lat": 35.663478,
        "lng": 139.746274
      },
      "location_type": "ROOFTOP",
      "viewport": {
        "northeast": {
          "lat": 35.6648576802915,
          "lng": 139.7475740802915
        },
        "southwest": {
          "lat": 35.6621597197085,
          "lng": 139.7448761197085
        }
      }
    },
    "partial_match": true,
    "place_id": "ChIJNQgXuZaLGGARy0Le76FhF3k",
    "plus_code": {
      "compound_code": "MP7W+9G 東京都港区",
      "global_code": "8Q7XMP7W+9G"
    },
    "types": [
      "establishment",
      "general_contractor",
      "point_of_interest"
    ]
  }
]