[
  {
    "address_components": [
      {
        "long_name": "１１９２−３５６",
        "short_name": "１１９２−３５６",
        "types": [
          "premise"
        ]
      },
      {
        "long_name": "浪合",
        "short_name": "浪合",
        "types": [
          "political",
          "sublocality",
          "sublocality_level_2"
        ]
      },
      {
        "long_name": "阿智村",
        "short_name": "阿智村",
        "types": [
          "locality",
          "political"
        ]
      },
      {
        "long_name": "下伊那郡",
        "short_name": "下伊那郡",
        "types": [
          "administrative_area_level_2",
          "political"
        ]
      },
      {
        "long_name": "長野県",
        "short_name": "長野県",
        "types": [
          "administrative_area_level_1",
          "political"
        ]
      },
      {
        "long_name": "日本",
        "short_name": "JP",
        "types": [
          "country",
          "political"
        ]
      },
      {
        "long_name": "395-0501",
        "short_name": "395-0501",
        "types": [
          "postal_code"
        ]
      }
    ],
    "formatted_address": "日本、〒395-0501 長野県下伊那郡阿智村浪合１１９２−３５６",
    "geometry": {
      "bounds": {
        "northeast": {
          "lat": 35.3539566,
          "lng": 137.6710237
        },
        "southwest": {
          "lat": 35.3536323,
          "lng": 137.6706262
        }
      },
      "location": {
        "lat": 35.3538089,
        "lng": 137.6708591
      },
      "location_type": "ROOFTOP",
      "viewport": {
        "northeast": {
          "lat": 35.3551035802915,
          "lng": 137.6721739302915
        },
        "southwest": {
          "lat": 35.3524056197085,
          "lng": 137.6694759697085
        }
      }
    },
    "place_id": "ChIJZaBysCSnHGARgy1HtBVXn4o",
    "types": [
      "premise"
    ]
  }
]