{
  "candidates": [
    {
      "business_status": "OPERATIONAL",
      "formatted_address": "日本、〒399-2101 長野県下伊那郡下條村睦沢４３３１−５",
      "geometry": {
        "location": {
          "lat": 35.417196,
          "lng": 137.794772
        },
        "viewport": {
          "northeast": {
            "lat": 35.41869797989272,
            "lng": 137.7960604798927
          },
          "southwest": {
            "lat": 35.41599832010728,
            "lng": 137.7933608201073
          }
        }
      },
      "icon": "https://maps.gstatic.com/mapfiles/place_api/icons/v1/png_71/restaurant-71.png",
      "name": "そばの城",
      "photos": [
        {
          "height": 3024,
          "html_attributions": [
            "<a href=\"https://maps.google.com/maps/contrib/112587977454524054856\">hiromi528</a>"
          ],
          "photo_reference": "Aap_uEBqTuduuIsW2a0KuHVp-xNTsjJ7Nwn1hqrPmtd7Q-OejBCO0UNJuLJtWGlyoFLMZDvkmYATtp0avnaRfRhD9nudDQW_J-xU4IABflRPotYLXTYkMTbAHPgL3EYJU9WIVIb0_2QPgzE-RIB2a1EqjaGrcHnl9puNKNvam1yRL4XqO6gZ",
          "width": 4032
        }
      ],
      "place_id": "ChIJRf0EsAefHGARBpJX6e6k4zg",
      "plus_code": {
        "compound_code": "CQ8V+VW 下條村、長野県",
        "global_code": "8Q7VCQ8V+VW"
      },
      "types": [
        "restaurant",
        "food",
        "point_of_interest",
        "establishment"
      ]
    },
    {
      "business_status": "OPERATIONAL",
      "formatted_address": "日本、〒399-2101 長野県下伊那郡下條村睦沢 ４３３１ ５",
      "geometry": {
        "location": {
          "lat": 35.41745770000001,
          "lng": 137.7944434
        },
        "viewport": {
          "northeast": {
            "lat": 35.41895382989272,
            "lng": 137.7955327798927
          },
          "southwest": {
            "lat": 35.41625417010728,
            "lng": 137.7928331201073
          }
        }
      },
      "icon": "https://maps.gstatic.com/mapfiles/place_api/icons/v1/png_71/generic_business-71.png",
      "name": "道の駅 信濃路下條",
      "photos": [
        {
          "height": 3468,
          "html_attributions": [
            "<a href=\"https://maps.google.com/maps/contrib/103364719928843024829\">こやまたかし</a>"
          ],
          "photo_reference": "Aap_uECSdm2NqPx0cN2qUPP8C-ZxBT50ULZrs7B8IsDIGL6dL1BWcCQyp_UPVd7wxRDMTBESXCTJ0Lo-Nsssdm5hljBJU5rMZESdyi18HyjDpmY46yutSV3PdQeNOVRc6zdjZeNATyUMwt6gMdSlf08hK13rFHloyzehHJLmt3x4DJlHJMl9",
          "width": 4624
        }
      ],
      "place_id": "ChIJ46OeywefHGARE5iqQ7sWpDI",
      "plus_code": {
        "compound_code": "CQ8V+XQ 下條村、長野県",
        "global_code": "8Q7VCQ8V+XQ"
      },
      "types": [
        "point_of_interest",
        "establishment"
      ]
    }
  ],
  "status": "OK"
}