[
  {
    "address_components": [
      {
        "long_name": "６９５５−２３",
        "short_name": "６９５５−２３",
        "types": [
          "premise"
        ]
      },
      {
        "long_name": "山吹",
        "short_name": "山吹",
        "types": [
          "political",
          "sublocality",
          "sublocality_level_2"
        ]
      },
      {
        "long_name": "高森町",
        "short_name": "高森町",
        "types": [
          "locality",
          "political"
        ]
      },
      {
        "long_name": "下伊那郡",
        "short_name": "下伊那郡",
        "types": [
          "administrative_area_level_2",
          "political"
        ]
      },
      {
        "long_name": "長野県",
        "short_name": "長野県",
        "types": [
          "administrative_area_level_1",
          "political"
        ]
      },
      {
        "long_name": "日本",
        "short_name": "JP",
        "types": [
          "country",
          "political"
        ]
      },
      {
        "long_name": "399-3101",
        "short_name": "399-3101",
        "types": [
          "postal_code"
        ]
      }
    ],
    "formatted_address": "日本、〒399-3101 長野県下伊那郡高森町山吹６９５５−２３",
    "geometry": {
      "bounds": {
        "northeast": {
          "lat": 35.5951865,
          "lng": 137.8649655
        },
        "southwest": {
          "lat": 35.5949175,
          "lng": 137.8647086
        }
      },
      "location": {
        "lat": 35.5950366,
        "lng": 137.8648463
      },
      "location_type": "ROOFTOP",
      "viewport": {
        "northeast": {
          "lat": 35.5966250302915,
          "lng": 137.8661436302915
        },
        "southwest": {
          "lat": 35.59392706970851,
          "lng": 137.8634456697085
        }
      }
    },
    "place_id": "ChIJ1YeG1xiRHGAREbjPW631pJ8",
    "types": [
      "premise"
    ]
  }
]