[
  {
    "address_components": [
      {
        "long_name": "３８３９−５",
        "short_name": "３８３９−５",
        "types": [
          "premise"
        ]
      },
      {
        "long_name": "元大島",
        "short_name": "元大島",
        "types": [
          "political",
          "sublocality",
          "sublocality_level_2"
        ]
      },
      {
        "long_name": "松川町",
        "short_name": "松川町",
        "types": [
          "locality",
          "political"
        ]
      },
      {
        "long_name": "下伊那郡",
        "short_name": "下伊那郡",
        "types": [
          "administrative_area_level_2",
          "political"
        ]
      },
      {
        "long_name": "長野県",
        "short_name": "長野県",
        "types": [
          "administrative_area_level_1",
          "political"
        ]
      },
      {
        "long_name": "日本",
        "short_name": "JP",
        "types": [
          "country",
          "political"
        ]
      },
      {
        "long_name": "399-3303",
        "short_name": "399-3303",
        "types": [
          "postal_code"
        ]
      }
    ],
    "formatted_address": "日本、〒399-3303 長野県下伊那郡松川町元大島３８３９−５",
    "geometry": {
      "bounds": {
        "northeast": {
          "lat": 35.5969973,
          "lng": 137.913067
        },
        "southwest": {
          "lat": 35.5967918,
          "lng": 137.912797
        }
      },
      "location": {
        "lat": 35.5968751,
        "lng": 137.9129516
      },
      "location_type": "ROOFTOP",
      "viewport": {
        "northeast": {
          "lat": 35.5982435302915,
          "lng": 137.9142809802915
        },
        "southwest": {
          "lat": 35.5955455697085,
          "lng": 137.9115830197085
        }
      }
    },
    "place_id": "ChIJF5D7XiOQHGARLJn4fm0-i3o",
    "types": [
      "premise"
    ]
  }
]