[
  {
    "address_components": [
      {
        "long_name": "２７８８−１",
        "short_name": "２７８８−１",
        "types": [
          "premise"
        ]
      },
      {
        "long_name": "大島",
        "short_name": "大島",
        "types": [
          "political",
          "sublocality",
          "sublocality_level_2"
        ]
      },
      {
        "long_name": "松川町",
        "short_name": "松川町",
        "types": [
          "locality",
          "political"
        ]
      },
      {
        "long_name": "下伊那郡",
        "short_name": "下伊那郡",
        "types": [
          "administrative_area_level_2",
          "political"
        ]
      },
      {
        "long_name": "長野県",
        "short_name": "長野県",
        "types": [
          "administrative_area_level_1",
          "political"
        ]
      },
      {
        "long_name": "日本",
        "short_name": "JP",
        "types": [
          "country",
          "political"
        ]
      },
      {
        "long_name": "399-3304",
        "short_name": "399-3304",
        "types": [
          "postal_code"
        ]
      }
    ],
    "formatted_address": "日本、〒399-3304 長野県下伊那郡松川町大島２７８８−１",
    "geometry": {
      "bounds": {
        "northeast": {
          "lat": 35.6146961,
          "lng": 137.8801468
        },
        "southwest": {
          "lat": 35.6144805,
          "lng": 137.8799457
        }
      },
      "location": {
        "lat": 35.6145934,
        "lng": 137.8800592
      },
      "location_type": "ROOFTOP",
      "viewport": {
        "northeast": {
          "lat": 35.6159914802915,
          "lng": 137.8814313802915
        },
        "southwest": {
          "lat": 35.6132935197085,
          "lng": 137.8787334197085
        }
      }
    },
    "place_id": "ChIJMYFFK3WRHGAR9cg-ylawtww",
    "types": [
      "premise"
    ]
  }
]