[
  {
    "address_components": [
      {
        "long_name": "３３４７",
        "short_name": "３３４７",
        "types": [
          "premise"
        ]
      },
      {
        "long_name": "大島",
        "short_name": "大島",
        "types": [
          "political",
          "sublocality",
          "sublocality_level_2"
        ]
      },
      {
        "long_name": "松川町",
        "short_name": "松川町",
        "types": [
          "locality",
          "political"
        ]
      },
      {
        "long_name": "下伊那郡",
        "short_name": "下伊那郡",
        "types": [
          "administrative_area_level_2",
          "political"
        ]
      },
      {
        "long_name": "長野県",
        "short_name": "長野県",
        "types": [
          "administrative_area_level_1",
          "political"
        ]
      },
      {
        "long_name": "日本",
        "short_name": "JP",
        "types": [
          "country",
          "political"
        ]
      },
      {
        "long_name": "399-3304",
        "short_name": "399-3304",
        "types": [
          "postal_code"
        ]
      }
    ],
    "formatted_address": "日本、〒399-3304 長野県下伊那郡松川町大島３３４７",
    "geometry": {
      "bounds": {
        "northeast": {
          "lat": 35.5971715,
          "lng": 137.8845703
        },
        "southwest": {
          "lat": 35.59697200000001,
          "lng": 137.8843284
        }
      },
      "location": {
        "lat": 35.59708639999999,
        "lng": 137.8844617
      },
      "location_type": "ROOFTOP",
      "viewport": {
        "northeast": {
          "lat": 35.5984207302915,
          "lng": 137.8858508302915
        },
        "southwest": {
          "lat": 35.59572276970851,
          "lng": 137.8831528697085
        }
      }
    },
    "place_id": "ChIJ6fnOHlWQHGAR3NoTe5IFruY",
    "types": [
      "premise"
    ]
  }
]