[
  {
    "address_components": [
      {
        "long_name": "４７６−１",
        "short_name": "４７６−１",
        "types": [
          "premise"
        ]
      },
      {
        "long_name": "大島",
        "short_name": "大島",
        "types": [
          "political",
          "sublocality",
          "sublocality_level_2"
        ]
      },
      {
        "long_name": "松川町",
        "short_name": "松川町",
        "types": [
          "locality",
          "political"
        ]
      },
      {
        "long_name": "下伊那郡",
        "short_name": "下伊那郡",
        "types": [
          "administrative_area_level_2",
          "political"
        ]
      },
      {
        "long_name": "長野県",
        "short_name": "長野県",
        "types": [
          "administrative_area_level_1",
          "political"
        ]
      },
      {
        "long_name": "日本",
        "short_name": "JP",
        "types": [
          "country",
          "political"
        ]
      },
      {
        "long_name": "399-3304",
        "short_name": "399-3304",
        "types": [
          "postal_code"
        ]
      }
    ],
    "formatted_address": "日本、〒399-3304 長野県下伊那郡松川町大島４７６−１",
    "geometry": {
      "bounds": {
        "northeast": {
          "lat": 35.6110672,
          "lng": 137.9004583
        },
        "southwest": {
          "lat": 35.6109192,
          "lng": 137.9003095
        }
      },
      "location": {
        "lat": 35.6109726,
        "lng": 137.9003949
      },
      "location_type": "ROOFTOP",
      "viewport": {
        "northeast": {
          "lat": 35.6123140802915,
          "lng": 137.9016789302915
        },
        "southwest": {
          "lat": 35.60961611970851,
          "lng": 137.8989809697085
        }
      }
    },
    "place_id": "ChIJ-_uyQ7aRHGAR7bqx7o4of8U",
    "types": [
      "premise"
    ]
  }
]