[
  {
    "address_components": [
      {
        "long_name": "３６４−１",
        "short_name": "３６４−１",
        "types": [
          "premise"
        ]
      },
      {
        "long_name": "鹿塩",
        "short_name": "鹿塩",
        "types": [
          "political",
          "sublocality",
          "sublocality_level_2"
        ]
      },
      {
        "long_name": "大鹿村",
        "short_name": "大鹿村",
        "types": [
          "locality",
          "political"
        ]
      },
      {
        "long_name": "下伊那郡",
        "short_name": "下伊那郡",
        "types": [
          "administrative_area_level_2",
          "political"
        ]
      },
      {
        "long_name": "長野県",
        "short_name": "長野県",
        "types": [
          "administrative_area_level_1",
          "political"
        ]
      },
      {
        "long_name": "日本",
        "short_name": "JP",
        "types": [
          "country",
          "political"
        ]
      },
      {
        "long_name": "399-3501",
        "short_name": "399-3501",
        "types": [
          "postal_code"
        ]
      }
    ],
    "formatted_address": "日本、〒399-3501 長野県下伊那郡大鹿村鹿塩３６４−１",
    "geometry": {
      "bounds": {
        "northeast": {
          "lat": 35.5888885,
          "lng": 138.0489838
        },
        "southwest": {
          "lat": 35.5887959,
          "lng": 138.0488061
        }
      },
      "location": {
        "lat": 35.5888471,
        "lng": 138.0489073
      },
      "location_type": "ROOFTOP",
      "viewport": {
        "northeast": {
          "lat": 35.59013583029149,
          "lng": 138.0502439302915
        },
        "southwest": {
          "lat": 35.58743786970849,
          "lng": 138.0475459697085
        }
      }
    },
    "place_id": "ChIJCZy0EQWHHGARrJU71CfY7BQ",
    "types": [
      "premise"
    ]
  }
]