[
  {
    "address_components": [
      {
        "long_name": "売木村",
        "short_name": "売木村",
        "types": [
          "locality",
          "political"
        ]
      },
      {
        "long_name": "下伊那郡",
        "short_name": "下伊那郡",
        "types": [
          "administrative_area_level_2",
          "political"
        ]
      },
      {
        "long_name": "長野県",
        "short_name": "長野県",
        "types": [
          "administrative_area_level_1",
          "political"
        ]
      },
      {
        "long_name": "日本",
        "short_name": "JP",
        "types": [
          "country",
          "political"
        ]
      },
      {
        "long_name": "399-1601",
        "short_name": "399-1601",
        "types": [
          "postal_code"
        ]
      }
    ],
    "formatted_address": "日本、〒399-1601 長野県下伊那郡売木村",
    "geometry": {
      "bounds": {
        "northeast": {
          "lat": 35.3066452,
          "lng": 137.7349725
        },
        "southwest": {
          "lat": 35.2272697,
          "lng": 137.6583951
        }
      },
      "location": {
        "lat": 35.271067,
        "lng": 137.7112747
      },
      "location_type": "APPROXIMATE",
      "viewport": {
        "northeast": {
          "lat": 35.3066452,
          "lng": 137.7349725
        },
        "southwest": {
          "lat": 35.2272697,
          "lng": 137.6583951
        }
      }
    },
    "partial_match": true,
    "place_id": "ChIJbaLEradeG2ARGLN6wb9IzCA",
    "types": [
      "locality",
      "political"
    ]
  },
  {
    "address_components": [
      {
        "long_name": "９２",
        "short_name": "９２",
        "types": [
          "premise"
        ]
      },
      {
        "long_name": "１丁目",
        "short_name": "１丁目",
        "types": [
          "political",
          "sublocality",
          "sublocality_level_3"
        ]
      },
      {
        "long_name": "新小木",
        "short_name": "新小木",
        "types": [
          "political",
          "sublocality",
          "sublocality_level_2"
        ]
      },
      {
        "long_name": "小牧市",
        "short_name": "小牧市",
        "types": [
          "locality",
          "political"
        ]
      },
      {
        "long_name": "愛知県",
        "short_name": "愛知県",
        "types": [
          "administrative_area_level_1",
          "political"
        ]
      },
      {
        "long_name": "日本",
        "short_name": "JP",
        "types": [
          "country",
          "political"
        ]
      },
      {
        "long_name": "485-0074",
        "short_name": "485-0074",
        "types": [
          "postal_code"
        ]
      }
    ],
    "formatted_address": "日本、〒485-0074 愛知県小牧市新小木１丁目９２",
    "geometry": {
      "bounds": {
        "northeast": {
          "lat": 35.2843851,
          "lng": 136.8887892
        },
        "southwest": {
          "lat": 35.2821037,
          "lng": 136.8871465
        }
      },
      "location": {
        "lat": 35.2832956,
        "lng": 136.8881356
      },
      "location_type": "ROOFTOP",
      "viewport": {
        "northeast": {
          "lat": 35.2845933802915,
          "lng": 136.8893168302915
        },
        "southwest": {
          "lat": 35.2818954197085,
          "lng": 136.8866188697085
        }
      }
    },
    "partial_match": true,
    "place_id": "ChIJeyU3HEYLA2ARvJUwqPcZNb0",
    "types": [
      "premise"
    ]
  }
]