[
  {
    "address_components": [
      {
        "long_name": "１１３９８",
        "short_name": "１１３９８",
        "types": [
          "premise"
        ]
      },
      {
        "long_name": "玉川",
        "short_name": "玉川",
        "types": [
          "political",
          "sublocality",
          "sublocality_level_2"
        ]
      },
      {
        "long_name": "茅野市",
        "short_name": "茅野市",
        "types": [
          "locality",
          "political"
        ]
      },
      {
        "long_name": "長野県",
        "short_name": "長野県",
        "types": [
          "administrative_area_level_1",
          "political"
        ]
      },
      {
        "long_name": "日本",
        "short_name": "JP",
        "types": [
          "country",
          "political"
        ]
      },
      {
        "long_name": "391-0011",
        "short_name": "391-0011",
        "types": [
          "postal_code"
        ]
      }
    ],
    "formatted_address": "日本、〒391-0011 長野県茅野市玉川１１３９８",
    "geometry": {
      "bounds": {
        "northeast": {
          "lat": 35.9947011,
          "lng": 138.240818
        },
        "southwest": {
          "lat": 35.9946126,
          "lng": 138.2406533
        }
      },
      "location": {
        "lat": 35.994669,
        "lng": 138.2407329
      },
      "location_type": "ROOFTOP",
      "viewport": {
        "northeast": {
          "lat": 35.9960672802915,
          "lng": 138.2421521802915
        },
        "southwest": {
          "lat": 35.9933693197085,
          "lng": 138.2394542197085
        }
      }
    },
    "place_id": "ChIJ_7x8llJFHGARqovul1s9teU",
    "types": [
      "premise"
    ]
  }
]