[
  {
    "address_components": [
      {
        "long_name": "６５９５−３５９",
        "short_name": "６５９５−３５９",
        "types": [
          "premise"
        ]
      },
      {
        "long_name": "湖東",
        "short_name": "湖東",
        "types": [
          "political",
          "sublocality",
          "sublocality_level_2"
        ]
      },
      {
        "long_name": "茅野市",
        "short_name": "茅野市",
        "types": [
          "locality",
          "political"
        ]
      },
      {
        "long_name": "長野県",
        "short_name": "長野県",
        "types": [
          "administrative_area_level_1",
          "political"
        ]
      },
      {
        "long_name": "日本",
        "short_name": "JP",
        "types": [
          "country",
          "political"
        ]
      },
      {
        "long_name": "391-0211",
        "short_name": "391-0211",
        "types": [
          "postal_code"
        ]
      }
    ],
    "formatted_address": "日本、〒391-0211 長野県茅野市湖東６５９５−３５９",
    "geometry": {
      "bounds": {
        "northeast": {
          "lat": 36.0319814,
          "lng": 138.2100101
        },
        "southwest": {
          "lat": 36.0317857,
          "lng": 138.2098784
        }
      },
      "location": {
        "lat": 36.0319167,
        "lng": 138.2099322
      },
      "location_type": "ROOFTOP",
      "viewport": {
        "northeast": {
          "lat": 36.03324523029149,
          "lng": 138.2112932302915
        },
        "southwest": {
          "lat": 36.0305472697085,
          "lng": 138.2085952697085
        }
      }
    },
    "place_id": "ChIJtXSs27FRHGARIni4sKELbDM",
    "types": [
      "premise"
    ]
  }
]