[
  {
    "address_components": [
      {
        "long_name": "５−１０",
        "short_name": "５−１０",
        "types": [
          "premise"
        ]
      },
      {
        "long_name": "中沖",
        "short_name": "中沖",
        "types": [
          "political",
          "sublocality",
          "sublocality_level_2"
        ]
      },
      {
        "long_name": "茅野市",
        "short_name": "茅野市",
        "types": [
          "locality",
          "political"
        ]
      },
      {
        "long_name": "長野県",
        "short_name": "長野県",
        "types": [
          "administrative_area_level_1",
          "political"
        ]
      },
      {
        "long_name": "日本",
        "short_name": "JP",
        "types": [
          "country",
          "political"
        ]
      },
      {
        "long_name": "391-0000",
        "short_name": "391-0000",
        "types": [
          "postal_code"
        ]
      }
    ],
    "formatted_address": "日本、〒391-0000 長野県茅野市中沖５−１０",
    "geometry": {
      "bounds": {
        "northeast": {
          "lat": 36.00268090000001,
          "lng": 138.1324822
        },
        "southwest": {
          "lat": 36.0025887,
          "lng": 138.1323538
        }
      },
      "location": {
        "lat": 36.0026314,
        "lng": 138.1324151
      },
      "location_type": "ROOFTOP",
      "viewport": {
        "northeast": {
          "lat": 36.0039919802915,
          "lng": 138.1338068802915
        },
        "southwest": {
          "lat": 36.0012940197085,
          "lng": 138.1311089197085
        }
      }
    },
    "place_id": "ChIJh-qVne9WHGARuDdb5O9MBTQ",
    "types": [
      "premise"
    ]
  }
]