[
  {
    "address_components": [
      {
        "long_name": "１６",
        "short_name": "１６",
        "types": [
          "premise"
        ]
      },
      {
        "long_name": "１５",
        "short_name": "１５",
        "types": [
          "political",
          "sublocality",
          "sublocality_level_4"
        ]
      },
      {
        "long_name": "仲町",
        "short_name": "仲町",
        "types": [
          "political",
          "sublocality",
          "sublocality_level_2"
        ]
      },
      {
        "long_name": "茅野市",
        "short_name": "茅野市",
        "types": [
          "locality",
          "political"
        ]
      },
      {
        "long_name": "長野県",
        "short_name": "長野県",
        "types": [
          "administrative_area_level_1",
          "political"
        ]
      },
      {
        "long_name": "日本",
        "short_name": "JP",
        "types": [
          "country",
          "political"
        ]
      },
      {
        "long_name": "391-0005",
        "short_name": "391-0005",
        "types": [
          "postal_code"
        ]
      }
    ],
    "formatted_address": "日本、〒391-0005 長野県茅野市仲町１５−１６",
    "geometry": {
      "bounds": {
        "northeast": {
          "lat": 35.9926405,
          "lng": 138.1583468
        },
        "southwest": {
          "lat": 35.9925026,
          "lng": 138.1580982
        }
      },
      "location": {
        "lat": 35.9925814,
        "lng": 138.1582224
      },
      "location_type": "ROOFTOP",
      "viewport": {
        "northeast": {
          "lat": 35.9939053302915,
          "lng": 138.1595714802915
        },
        "southwest": {
          "lat": 35.9912073697085,
          "lng": 138.1568735197085
        }
      }
    },
    "place_id": "ChIJbXcM4jJXHGARplHbiaaJ3KY",
    "types": [
      "premise"
    ]
  }
]