[
  {
    "address_components": [
      {
        "long_name": "８",
        "short_name": "８",
        "types": [
          "premise"
        ]
      },
      {
        "long_name": "２０",
        "short_name": "２０",
        "types": [
          "political",
          "sublocality",
          "sublocality_level_4"
        ]
      },
      {
        "long_name": "１丁目",
        "short_name": "１丁目",
        "types": [
          "political",
          "sublocality",
          "sublocality_level_3"
        ]
      },
      {
        "long_name": "塚原",
        "short_name": "塚原",
        "types": [
          "political",
          "sublocality",
          "sublocality_level_2"
        ]
      },
      {
        "long_name": "茅野市",
        "short_name": "茅野市",
        "types": [
          "locality",
          "political"
        ]
      },
      {
        "long_name": "長野県",
        "short_name": "長野県",
        "types": [
          "administrative_area_level_1",
          "political"
        ]
      },
      {
        "long_name": "日本",
        "short_name": "JP",
        "types": [
          "country",
          "political"
        ]
      },
      {
        "long_name": "391-0002",
        "short_name": "391-0002",
        "types": [
          "postal_code"
        ]
      }
    ],
    "formatted_address": "日本、〒391-0002 長野県茅野市塚原１丁目２０−８",
    "geometry": {
      "bounds": {
        "northeast": {
          "lat": 36.0000328,
          "lng": 138.154716
        },
        "southwest": {
          "lat": 35.9997809,
          "lng": 138.1544283
        }
      },
      "location": {
        "lat": 35.999906,
        "lng": 138.1545543
      },
      "location_type": "ROOFTOP",
      "viewport": {
        "northeast": {
          "lat": 36.0012101802915,
          "lng": 138.1559145802915
        },
        "southwest": {
          "lat": 35.9985122197085,
          "lng": 138.1532166197085
        }
      }
    },
    "place_id": "ChIJA6MjfylXHGAR_Ntj-7nSeuw",
    "types": [
      "premise"
    ]
  }
]