[
  {
    "address_components": [
      {
        "long_name": "３４１３",
        "short_name": "３４１３",
        "types": [
          "premise"
        ]
      },
      {
        "long_name": "北山",
        "short_name": "北山",
        "types": [
          "political",
          "sublocality",
          "sublocality_level_2"
        ]
      },
      {
        "long_name": "茅野市",
        "short_name": "茅野市",
        "types": [
          "locality",
          "political"
        ]
      },
      {
        "long_name": "長野県",
        "short_name": "長野県",
        "types": [
          "administrative_area_level_1",
          "political"
        ]
      },
      {
        "long_name": "日本",
        "short_name": "JP",
        "types": [
          "country",
          "political"
        ]
      },
      {
        "long_name": "391-0301",
        "short_name": "391-0301",
        "types": [
          "postal_code"
        ]
      }
    ],
    "formatted_address": "日本、〒391-0301 長野県茅野市北山３４１３",
    "geometry": {
      "bounds": {
        "northeast": {
          "lat": 36.0953633,
          "lng": 138.2165063
        },
        "southwest": {
          "lat": 36.0952172,
          "lng": 138.216238
        }
      },
      "location": {
        "lat": 36.0952942,
        "lng": 138.216363
      },
      "location_type": "ROOFTOP",
      "viewport": {
        "northeast": {
          "lat": 36.09662943029149,
          "lng": 138.2175764802915
        },
        "southwest": {
          "lat": 36.0939314697085,
          "lng": 138.2148785197085
        }
      }
    },
    "place_id": "ChIJuTQiN1xSHGARxdTdAiFWIFs",
    "types": [
      "premise"
    ]
  }
]