[
  {
    "address_components": [
      {
        "long_name": "２１６２",
        "short_name": "２１６２",
        "types": [
          "premise"
        ]
      },
      {
        "long_name": "平穏",
        "short_name": "平穏",
        "types": [
          "political",
          "sublocality",
          "sublocality_level_2"
        ]
      },
      {
        "long_name": "山ノ内町",
        "short_name": "山ノ内町",
        "types": [
          "locality",
          "political"
        ]
      },
      {
        "long_name": "下高井郡",
        "short_name": "下高井郡",
        "types": [
          "administrative_area_level_2",
          "political"
        ]
      },
      {
        "long_name": "長野県",
        "short_name": "長野県",
        "types": [
          "administrative_area_level_1",
          "political"
        ]
      },
      {
        "long_name": "日本",
        "short_name": "JP",
        "types": [
          "country",
          "political"
        ]
      },
      {
        "long_name": "381-0401",
        "short_name": "381-0401",
        "types": [
          "postal_code"
        ]
      }
    ],
    "formatted_address": "日本、〒381-0401 長野県下高井郡山ノ内町平穏２１６２",
    "geometry": {
      "bounds": {
        "northeast": {
          "lat": 36.7346824,
          "lng": 138.4311265
        },
        "southwest": {
          "lat": 36.7345075,
          "lng": 138.4309337
        }
      },
      "location": {
        "lat": 36.7346187,
        "lng": 138.4310524
      },
      "location_type": "ROOFTOP",
      "viewport": {
        "northeast": {
          "lat": 36.73594393029149,
          "lng": 138.4323790802915
        },
        "southwest": {
          "lat": 36.7332459697085,
          "lng": 138.4296811197085
        }
      }
    },
    "place_id": "ChIJ7Shgd4P0HWARSZy9ntZPUuM",
    "types": [
      "premise"
    ]
  }
]