[
  {
    "address_components": [
      {
        "long_name": "５５１３−１９７",
        "short_name": "５５１３−１９７",
        "types": [
          "premise"
        ]
      },
      {
        "long_name": "北山",
        "short_name": "北山",
        "types": [
          "political",
          "sublocality",
          "sublocality_level_2"
        ]
      },
      {
        "long_name": "茅野市",
        "short_name": "茅野市",
        "types": [
          "locality",
          "political"
        ]
      },
      {
        "long_name": "長野県",
        "short_name": "長野県",
        "types": [
          "administrative_area_level_1",
          "political"
        ]
      },
      {
        "long_name": "日本",
        "short_name": "JP",
        "types": [
          "country",
          "political"
        ]
      },
      {
        "long_name": "391-0301",
        "short_name": "391-0301",
        "types": [
          "postal_code"
        ]
      }
    ],
    "formatted_address": "日本、〒391-0301 長野県茅野市北山５５１３−１９７",
    "geometry": {
      "bounds": {
        "northeast": {
          "lat": 36.0490771,
          "lng": 138.2910068
        },
        "southwest": {
          "lat": 36.0489894,
          "lng": 138.290873
        }
      },
      "location": {
        "lat": 36.0490464,
        "lng": 138.2909453
      },
      "location_type": "ROOFTOP",
      "viewport": {
        "northeast": {
          "lat": 36.0503822302915,
          "lng": 138.2921184302915
        },
        "southwest": {
          "lat": 36.0476842697085,
          "lng": 138.2894204697085
        }
      }
    },
    "place_id": "ChIJY0hqTRBPHGARU0vbn1kWLJE",
    "types": [
      "premise"
    ]
  }
]