[
  {
    "address_components": [
      {
        "long_name": "５７４４−２",
        "short_name": "５７４４−２",
        "types": [
          "premise"
        ]
      },
      {
        "long_name": "北山",
        "short_name": "北山",
        "types": [
          "political",
          "sublocality",
          "sublocality_level_2"
        ]
      },
      {
        "long_name": "茅野市",
        "short_name": "茅野市",
        "types": [
          "locality",
          "political"
        ]
      },
      {
        "long_name": "長野県",
        "short_name": "長野県",
        "types": [
          "administrative_area_level_1",
          "political"
        ]
      },
      {
        "long_name": "日本",
        "short_name": "JP",
        "types": [
          "country",
          "political"
        ]
      },
      {
        "long_name": "391-0301",
        "short_name": "391-0301",
        "types": [
          "postal_code"
        ]
      }
    ],
    "formatted_address": "日本、〒391-0301 長野県茅野市北山５７４４−２",
    "geometry": {
      "bounds": {
        "northeast": {
          "lat": 36.0351793,
          "lng": 138.2601071
        },
        "southwest": {
          "lat": 36.0350585,
          "lng": 138.259901
        }
      },
      "location": {
        "lat": 36.035116,
        "lng": 138.260019
      },
      "location_type": "ROOFTOP",
      "viewport": {
        "northeast": {
          "lat": 36.0365125302915,
          "lng": 138.2613530302915
        },
        "southwest": {
          "lat": 36.0338145697085,
          "lng": 138.2586550697085
        }
      }
    },
    "place_id": "ChIJEzX4kLhPHGAR3rBc8smDujc",
    "types": [
      "premise"
    ]
  }
]