[
  {
    "address_components": [
      {
        "long_name": "２４",
        "short_name": "２４",
        "types": [
          "premise"
        ]
      },
      {
        "long_name": "９",
        "short_name": "９",
        "types": [
          "political",
          "sublocality",
          "sublocality_level_4"
        ]
      },
      {
        "long_name": "本町西",
        "short_name": "本町西",
        "types": [
          "political",
          "sublocality",
          "sublocality_level_2"
        ]
      },
      {
        "long_name": "茅野市",
        "short_name": "茅野市",
        "types": [
          "locality",
          "political"
        ]
      },
      {
        "long_name": "長野県",
        "short_name": "長野県",
        "types": [
          "administrative_area_level_1",
          "political"
        ]
      },
      {
        "long_name": "日本",
        "short_name": "JP",
        "types": [
          "country",
          "political"
        ]
      },
      {
        "long_name": "391-0003",
        "short_name": "391-0003",
        "types": [
          "postal_code"
        ]
      }
    ],
    "formatted_address": "日本、〒391-0003 長野県茅野市本町西９−２４",
    "geometry": {
      "bounds": {
        "northeast": {
          "lat": 35.9980815,
          "lng": 138.1611155
        },
        "southwest": {
          "lat": 35.9979511,
          "lng": 138.1609422
        }
      },
      "location": {
        "lat": 35.99803,
        "lng": 138.1610173
      },
      "location_type": "ROOFTOP",
      "viewport": {
        "northeast": {
          "lat": 35.9994093302915,
          "lng": 138.1623778302915
        },
        "southwest": {
          "lat": 35.9967113697085,
          "lng": 138.1596798697085
        }
      }
    },
    "place_id": "ChIJIaWl4NJQHGARLQCeWFNSZdk",
    "types": [
      "premise"
    ]
  }
]