[
  {
    "address_components": [
      {
        "long_name": "１４",
        "short_name": "１４",
        "types": [
          "premise"
        ]
      },
      {
        "long_name": "１１",
        "short_name": "１１",
        "types": [
          "political",
          "sublocality",
          "sublocality_level_4"
        ]
      },
      {
        "long_name": "上穂北",
        "short_name": "上穂北",
        "types": [
          "political",
          "sublocality",
          "sublocality_level_2"
        ]
      },
      {
        "long_name": "駒ヶ根市",
        "short_name": "駒ヶ根市",
        "types": [
          "locality",
          "political"
        ]
      },
      {
        "long_name": "長野県",
        "short_name": "長野県",
        "types": [
          "administrative_area_level_1",
          "political"
        ]
      },
      {
        "long_name": "日本",
        "short_name": "JP",
        "types": [
          "country",
          "political"
        ]
      },
      {
        "long_name": "399-4116",
        "short_name": "399-4116",
        "types": [
          "postal_code"
        ]
      }
    ],
    "formatted_address": "日本、〒399-4116 長野県駒ヶ根市上穂北１１−１４",
    "geometry": {
      "bounds": {
        "northeast": {
          "lat": 35.7414993,
          "lng": 137.9320729
        },
        "southwest": {
          "lat": 35.7412899,
          "lng": 137.9319507
        }
      },
      "location": {
        "lat": 35.7414051,
        "lng": 137.9320435
      },
      "location_type": "ROOFTOP",
      "viewport": {
        "northeast": {
          "lat": 35.7427435802915,
          "lng": 137.9333779302915
        },
        "southwest": {
          "lat": 35.7400456197085,
          "lng": 137.9306799697085
        }
      }
    },
    "place_id": "ChIJt4MCtLzyHGARbyUtwuGfSQw",
    "types": [
      "premise"
    ]
  }
]