[
  {
    "address_components": [
      {
        "long_name": "１３４７−１",
        "short_name": "１３４７−１",
        "types": [
          "premise"
        ]
      },
      {
        "long_name": "赤穂",
        "short_name": "赤穂",
        "types": [
          "political",
          "sublocality",
          "sublocality_level_2"
        ]
      },
      {
        "long_name": "駒ヶ根市",
        "short_name": "駒ヶ根市",
        "types": [
          "locality",
          "political"
        ]
      },
      {
        "long_name": "長野県",
        "short_name": "長野県",
        "types": [
          "administrative_area_level_1",
          "political"
        ]
      },
      {
        "long_name": "日本",
        "short_name": "JP",
        "types": [
          "country",
          "political"
        ]
      },
      {
        "long_name": "399-4117",
        "short_name": "399-4117",
        "types": [
          "postal_code"
        ]
      }
    ],
    "formatted_address": "日本、〒399-4117 長野県駒ヶ根市赤穂１３４７−１",
    "geometry": {
      "bounds": {
        "northeast": {
          "lat": 35.7409656,
          "lng": 137.9247721
        },
        "southwest": {
          "lat": 35.7407027,
          "lng": 137.9245376
        }
      },
      "location": {
        "lat": 35.7408612,
        "lng": 137.9246417
      },
      "location_type": "ROOFTOP",
      "viewport": {
        "northeast": {
          "lat": 35.7422168302915,
          "lng": 137.9260038302915
        },
        "southwest": {
          "lat": 35.7395188697085,
          "lng": 137.9233058697085
        }
      }
    },
    "place_id": "ChIJmaRvx6HyHGAR9XlTVtHEW-0",
    "types": [
      "premise"
    ]
  }
]