[
  {
    "address_components": [
      {
        "long_name": "２５−１",
        "short_name": "２５−１",
        "types": [
          "premise"
        ]
      },
      {
        "long_name": "赤穂",
        "short_name": "赤穂",
        "types": [
          "political",
          "sublocality",
          "sublocality_level_2"
        ]
      },
      {
        "long_name": "駒ヶ根市",
        "short_name": "駒ヶ根市",
        "types": [
          "locality",
          "political"
        ]
      },
      {
        "long_name": "長野県",
        "short_name": "長野県",
        "types": [
          "administrative_area_level_1",
          "political"
        ]
      },
      {
        "long_name": "日本",
        "short_name": "JP",
        "types": [
          "country",
          "political"
        ]
      },
      {
        "long_name": "399-4117",
        "short_name": "399-4117",
        "types": [
          "postal_code"
        ]
      }
    ],
    "formatted_address": "日本、〒399-4117 長野県駒ヶ根市赤穂２５−１",
    "geometry": {
      "bounds": {
        "northeast": {
          "lat": 35.7376645,
          "lng": 137.8917414
        },
        "southwest": {
          "lat": 35.7375211,
          "lng": 137.8916207
        }
      },
      "location": {
        "lat": 35.7375828,
        "lng": 137.8917035
      },
      "location_type": "ROOFTOP",
      "viewport": {
        "northeast": {
          "lat": 35.73894178029149,
          "lng": 137.8930794302915
        },
        "southwest": {
          "lat": 35.73624381970849,
          "lng": 137.8903814697085
        }
      }
    },
    "place_id": "ChIJMfx3WwXtHGAR0QjKWcgdsjI",
    "types": [
      "premise"
    ]
  }
]