[
  {
    "address_components": [
      {
        "long_name": "４９７−１１５３",
        "short_name": "４９７−１１５３",
        "types": [
          "premise"
        ]
      },
      {
        "long_name": "赤穂",
        "short_name": "赤穂",
        "types": [
          "political",
          "sublocality",
          "sublocality_level_2"
        ]
      },
      {
        "long_name": "駒ヶ根市",
        "short_name": "駒ヶ根市",
        "types": [
          "locality",
          "political"
        ]
      },
      {
        "long_name": "長野県",
        "short_name": "長野県",
        "types": [
          "administrative_area_level_1",
          "political"
        ]
      },
      {
        "long_name": "日本",
        "short_name": "JP",
        "types": [
          "country",
          "political"
        ]
      },
      {
        "long_name": "399-4117",
        "short_name": "399-4117",
        "types": [
          "postal_code"
        ]
      }
    ],
    "formatted_address": "日本、〒399-4117 長野県駒ヶ根市赤穂４９７−１１５３",
    "geometry": {
      "bounds": {
        "northeast": {
          "lat": 35.743204,
          "lng": 137.8950214
        },
        "southwest": {
          "lat": 35.742914,
          "lng": 137.8948709
        }
      },
      "location": {
        "lat": 35.743083,
        "lng": 137.8949674
      },
      "location_type": "ROOFTOP",
      "viewport": {
        "northeast": {
          "lat": 35.7444079802915,
          "lng": 137.8963393802915
        },
        "southwest": {
          "lat": 35.7417100197085,
          "lng": 137.8936414197085
        }
      }
    },
    "place_id": "ChIJkRvMLgntHGARyeoI1ep8LJA",
    "types": [
      "premise"
    ]
  }
]