[
  {
    "address_components": [
      {
        "long_name": "４９７",
        "short_name": "４９７",
        "types": [
          "premise"
        ]
      },
      {
        "long_name": "赤穂",
        "short_name": "赤穂",
        "types": [
          "political",
          "sublocality",
          "sublocality_level_2"
        ]
      },
      {
        "long_name": "駒ヶ根市",
        "short_name": "駒ヶ根市",
        "types": [
          "locality",
          "political"
        ]
      },
      {
        "long_name": "長野県",
        "short_name": "長野県",
        "types": [
          "administrative_area_level_1",
          "political"
        ]
      },
      {
        "long_name": "日本",
        "short_name": "JP",
        "types": [
          "country",
          "political"
        ]
      },
      {
        "long_name": "399-4117",
        "short_name": "399-4117",
        "types": [
          "postal_code"
        ]
      }
    ],
    "formatted_address": "日本、〒399-4117 長野県駒ヶ根市赤穂４９７",
    "geometry": {
      "bounds": {
        "northeast": {
          "lat": 35.7422577,
          "lng": 137.8960421
        },
        "southwest": {
          "lat": 35.7421345,
          "lng": 137.8958384
        }
      },
      "location": {
        "lat": 35.7421848,
        "lng": 137.8959524
      },
      "location_type": "ROOFTOP",
      "viewport": {
        "northeast": {
          "lat": 35.74346363029149,
          "lng": 137.8972724802915
        },
        "southwest": {
          "lat": 35.74076566970849,
          "lng": 137.8945745197085
        }
      }
    },
    "place_id": "ChIJ62QVvw7tHGARL5WewaO0gI0",
    "types": [
      "premise"
    ]
  }
]