[
  {
    "address_components": [
      {
        "long_name": "１９",
        "short_name": "１９",
        "types": [
          "premise"
        ]
      },
      {
        "long_name": "４",
        "short_name": "４",
        "types": [
          "political",
          "sublocality",
          "sublocality_level_4"
        ]
      },
      {
        "long_name": "中央",
        "short_name": "中央",
        "types": [
          "political",
          "sublocality",
          "sublocality_level_2"
        ]
      },
      {
        "long_name": "駒ヶ根市",
        "short_name": "駒ヶ根市",
        "types": [
          "locality",
          "political"
        ]
      },
      {
        "long_name": "長野県",
        "short_name": "長野県",
        "types": [
          "administrative_area_level_1",
          "political"
        ]
      },
      {
        "long_name": "日本",
        "short_name": "JP",
        "types": [
          "country",
          "political"
        ]
      },
      {
        "long_name": "399-4112",
        "short_name": "399-4112",
        "types": [
          "postal_code"
        ]
      }
    ],
    "formatted_address": "日本、〒399-4112 長野県駒ヶ根市中央４−１９",
    "geometry": {
      "bounds": {
        "northeast": {
          "lat": 35.7360223,
          "lng": 137.9362083
        },
        "southwest": {
          "lat": 35.7358363,
          "lng": 137.9360295
        }
      },
      "location": {
        "lat": 35.7359659,
        "lng": 137.9360831
      },
      "location_type": "ROOFTOP",
      "viewport": {
        "northeast": {
          "lat": 35.7373203302915,
          "lng": 137.9374678802915
        },
        "southwest": {
          "lat": 35.7346223697085,
          "lng": 137.9347699197085
        }
      }
    },
    "place_id": "ChIJAegm2rDyHGARzIAWu0XcaGI",
    "types": [
      "premise"
    ]
  }
]