[
  {
    "address_components": [
      {
        "long_name": "中沢",
        "short_name": "中沢",
        "types": [
          "political",
          "sublocality",
          "sublocality_level_2"
        ]
      },
      {
        "long_name": "駒ヶ根市",
        "short_name": "駒ヶ根市",
        "types": [
          "locality",
          "political"
        ]
      },
      {
        "long_name": "長野県",
        "short_name": "長野県",
        "types": [
          "administrative_area_level_1",
          "political"
        ]
      },
      {
        "long_name": "日本",
        "short_name": "JP",
        "types": [
          "country",
          "political"
        ]
      },
      {
        "long_name": "399-4231",
        "short_name": "399-4231",
        "types": [
          "postal_code"
        ]
      }
    ],
    "formatted_address": "日本、〒399-4231 長野県駒ヶ根市中沢",
    "geometry": {
      "bounds": {
        "northeast": {
          "lat": 35.7734629,
          "lng": 138.0642372
        },
        "southwest": {
          "lat": 35.6669102,
          "lng": 137.9487543
        }
      },
      "location": {
        "lat": 35.7108131,
        "lng": 138.0208484
      },
      "location_type": "APPROXIMATE",
      "viewport": {
        "northeast": {
          "lat": 35.7734629,
          "lng": 138.0642372
        },
        "southwest": {
          "lat": 35.6669102,
          "lng": 137.9487543
        }
      }
    },
    "partial_match": true,
    "place_id": "ChIJU_eNx4OLHGARFTFG7zAkopc",
    "types": [
      "political",
      "sublocality",
      "sublocality_level_2"
    ]
  },
  {
    "address_components": [
      {
        "long_name": "中割",
        "short_name": "中割",
        "types": [
          "intersection"
        ]
      },
      {
        "long_name": "赤穂",
        "short_name": "赤穂",
        "types": [
          "political",
          "sublocality",
          "sublocality_level_2"
        ]
      },
      {
        "long_name": "駒ヶ根市",
        "short_name": "駒ヶ根市",
        "types": [
          "locality",
          "political"
        ]
      },
      {
        "long_name": "長野県",
        "short_name": "長野県",
        "types": [
          "administrative_area_level_1",
          "political"
        ]
      },
      {
        "long_name": "日本",
        "short_name": "JP",
        "types": [
          "country",
          "political"
        ]
      },
      {
        "long_name": "399-4117",
        "short_name": "399-4117",
        "types": [
          "postal_code"
        ]
      }
    ],
    "formatted_address": "日本、〒399-4117 長野県駒ヶ根市赤穂 中割",
    "geometry": {
      "location": {
        "lat": 35.7274529,
        "lng": 137.9174319
      },
      "location_type": "GEOMETRIC_CENTER",
      "viewport": {
        "northeast": {
          "lat": 35.7288018802915,
          "lng": 137.9187808802915
        },
        "southwest": {
          "lat": 35.7261039197085,
          "lng": 137.9160829197085
        }
      }
    },
    "partial_match": true,
    "place_id": "ChIJuUrt11btHGARXNH2yw2srIo",
    "types": [
      "intersection"
    ]
  }
]