[
  {
    "address_components": [
      {
        "long_name": "１６７０−１",
        "short_name": "１６７０−１",
        "types": [
          "premise"
        ]
      },
      {
        "long_name": "辰野",
        "short_name": "辰野",
        "types": [
          "political",
          "sublocality",
          "sublocality_level_2"
        ]
      },
      {
        "long_name": "辰野町",
        "short_name": "辰野町",
        "types": [
          "locality",
          "political"
        ]
      },
      {
        "long_name": "上伊那郡",
        "short_name": "上伊那郡",
        "types": [
          "administrative_area_level_2",
          "political"
        ]
      },
      {
        "long_name": "長野県",
        "short_name": "長野県",
        "types": [
          "administrative_area_level_1",
          "political"
        ]
      },
      {
        "long_name": "日本",
        "short_name": "JP",
        "types": [
          "country",
          "political"
        ]
      },
      {
        "long_name": "399-0421",
        "short_name": "399-0421",
        "types": [
          "postal_code"
        ]
      }
    ],
    "formatted_address": "日本、〒399-0421 長野県上伊那郡辰野町辰野１６７０−１",
    "geometry": {
      "bounds": {
        "northeast": {
          "lat": 35.9816171,
          "lng": 137.9953869
        },
        "southwest": {
          "lat": 35.98149739999999,
          "lng": 137.9952262
        }
      },
      "location": {
        "lat": 35.9815712,
        "lng": 137.9952809
      },
      "location_type": "ROOFTOP",
      "viewport": {
        "northeast": {
          "lat": 35.9829164302915,
          "lng": 137.9966350302915
        },
        "southwest": {
          "lat": 35.9802184697085,
          "lng": 137.9939370697085
        }
      }
    },
    "place_id": "ChIJZyOenRv8HGARXT0Yczu_byI",
    "types": [
      "premise"
    ]
  }
]