{
  "candidates": [
    {
      "business_status": "OPERATIONAL",
      "formatted_address": "日本、〒399-0425 長野県上伊那郡辰野町樋口２３９６−２０",
      "geometry": {
        "location": {
          "lat": 35.965938,
          "lng": 137.9917367
        },
        "viewport": {
          "northeast": {
            "lat": 35.96733507989273,
            "lng": 137.9930110798927
          },
          "southwest": {
            "lat": 35.96463542010729,
            "lng": 137.9903114201073
          }
        }
      },
      "icon": "https://maps.gstatic.com/mapfiles/place_api/icons/v1/png_71/lodging-71.png",
      "name": "たつのパークホテル",
      "photos": [
        {
          "height": 3456,
          "html_attributions": [
            "<a href=\"https://maps.google.com/maps/contrib/109694047856239439227\">VIPAVEE SIVATEVINTRA</a>"
          ],
          "photo_reference": "Aap_uEANA7eicmk8sXV6BudFW0DkMBkO5NR8Gv3CeSUx9KbQIWMqBn2nPf4mPxbrN9B8zE20r2NBb5I0HlYgAXJq2oZbDRaI_Dl9ZbY8YOO53BbHfCDtiOdXXf_BfONRGFQ1XeMjh33cVuXhS2cI1FWjfmNLOLDD9dw_y8V-wvqXQpWbitcY",
          "width": 4608
        }
      ],
      "place_id": "ChIJE_pHxfn7HGAR481IazVVfjI",
      "plus_code": {
        "compound_code": "XX8R+9M 辰野町、長野県",
        "global_code": "8Q7VXX8R+9M"
      },
      "types": [
        "lodging",
        "point_of_interest",
        "establishment"
      ]
    },
    {
      "business_status": "OPERATIONAL",
      "formatted_address": "日本、〒399-0425 長野県上伊那郡辰野町樋口２３９６−２０",
      "geometry": {
        "location": {
          "lat": 35.9659522,
          "lng": 137.9919968
        },
        "viewport": {
          "northeast": {
            "lat": 35.96743232989272,
            "lng": 137.9932671298927
          },
          "southwest": {
            "lat": 35.96473267010727,
            "lng": 137.9905674701072
          }
        }
      },
      "icon": "https://maps.gstatic.com/mapfiles/place_api/icons/v1/png_71/generic_business-71.png",
      "name": "荒神山温泉",
      "photos": [
        {
          "height": 2976,
          "html_attributions": [
            "<a href=\"https://maps.google.com/maps/contrib/115293128302220389897\">Yasuhio Harada</a>"
          ],
          "photo_reference": "Aap_uEDpZ-Vw4yGVsLjmX4SVTumr2zuBy2t485gbIKJ0J1dibbDABXWsdHHDw_Y2OivVo1Xhfd-LCzW9LcQvBiRs8hJ4FlVltuOJP86mP655JHz8ojBuxuIGpGecjSy3vgsO7-dnWZymcfy9ocmQEEXWWEI-ngBzZPPuUsQDKIwGP2eQTY6g",
          "width": 3968
        }
      ],
      "place_id": "ChIJ9-ct2vn7HGARjW5sYOm6Vdg",
      "plus_code": {
        "compound_code": "XX8R+9Q 辰野町、長野県",
        "global_code": "8Q7VXX8R+9Q"
      },
      "types": [
        "spa",
        "point_of_interest",
        "establishment"
      ]
    }
  ],
  "status": "OK"
}