[
  {
    "address_components": [
      {
        "long_name": "１１２−７４",
        "short_name": "１１２−７４",
        "types": [
          "premise"
        ]
      },
      {
        "long_name": "田切",
        "short_name": "田切",
        "types": [
          "political",
          "sublocality",
          "sublocality_level_2"
        ]
      },
      {
        "long_name": "飯島町",
        "short_name": "飯島町",
        "types": [
          "locality",
          "political"
        ]
      },
      {
        "long_name": "上伊那郡",
        "short_name": "上伊那郡",
        "types": [
          "administrative_area_level_2",
          "political"
        ]
      },
      {
        "long_name": "長野県",
        "short_name": "長野県",
        "types": [
          "administrative_area_level_1",
          "political"
        ]
      },
      {
        "long_name": "日本",
        "short_name": "JP",
        "types": [
          "country",
          "political"
        ]
      },
      {
        "long_name": "399-3701",
        "short_name": "399-3701",
        "types": [
          "postal_code"
        ]
      }
    ],
    "formatted_address": "日本、〒399-3701 長野県上伊那郡飯島町田切１１２−７４",
    "geometry": {
      "bounds": {
        "northeast": {
          "lat": 35.6984073,
          "lng": 137.9127994
        },
        "southwest": {
          "lat": 35.698328,
          "lng": 137.9126402
        }
      },
      "location": {
        "lat": 35.6983684,
        "lng": 137.9127198
      },
      "location_type": "ROOFTOP",
      "viewport": {
        "northeast": {
          "lat": 35.6997166302915,
          "lng": 137.9140267802915
        },
        "southwest": {
          "lat": 35.6970186697085,
          "lng": 137.9113288197085
        }
      }
    },
    "place_id": "ChIJYWohzZmSHGAR9XPpnlE0nDc",
    "types": [
      "premise"
    ]
  }
]