{
  "candidates": [
    {
      "business_status": "OPERATIONAL",
      "formatted_address": "日本、〒393-0000 長野県諏訪郡下諏訪町社",
      "geometry": {
        "location": {
          "lat": 36.0867323,
          "lng": 138.0800803
        },
        "viewport": {
          "northeast": {
            "lat": 36.08834502989272,
            "lng": 138.0815198298927
          },
          "southwest": {
            "lat": 36.08564537010727,
            "lng": 138.0788201701073
          }
        }
      },
      "icon": "https://maps.gstatic.com/mapfiles/place_api/icons/v1/png_71/generic_business-71.png",
      "name": "ホシスメバ",
      "photos": [
        {
          "height": 3024,
          "html_attributions": [
            "<a href=\"https://maps.google.com/maps/contrib/101999194013585702076\">101999194013585702076</a>"
          ],
          "photo_reference": "Aap_uEA3hf-6QTrCuYpexuFGXVBVXSo9OHA-SamuYnQw6WQQINq90fXfUiGMIZig20lVvynp5ziBx15jMdq8cgbjL6rcHLAonQgECPNLT2KZug8t7y2Fmksf8btsnqPG7CCirNtbweyb5x8EQu46DFshDIIQL28eF6DG3cK1jUwgSMwXYgXo",
          "width": 4032
        }
      ],
      "place_id": "ChIJH_tenPcBHWARC7nWMfnwvhA",
      "plus_code": {
        "compound_code": "33PJ+M2 下諏訪町、長野県",
        "global_code": "8Q8W33PJ+M2"
      },
      "types": [
        "point_of_interest",
        "establishment"
      ]
    },
    {
      "business_status": "OPERATIONAL",
      "formatted_address": "日本、〒393-0000 長野県諏訪郡下諏訪町社7001番地 １号室 ホシスメバ",
      "geometry": {
        "location": {
          "lat": 36.08673,
          "lng": 138.0810153
        },
        "viewport": {
          "northeast": {
            "lat": 36.08807337989272,
            "lng": 138.0824175298927
          },
          "southwest": {
            "lat": 36.08537372010727,
            "lng": 138.0797178701073
          }
        }
      },
      "icon": "https://maps.gstatic.com/mapfiles/place_api/icons/v1/png_71/generic_business-71.png",
      "name": "明星舎（MJ Curry）",
      "place_id": "ChIJOzRb62oFHWARbU0qUz6fWF0",
      "plus_code": {
        "compound_code": "33PJ+MC 下諏訪町、長野県",
        "global_code": "8Q8W33PJ+MC"
      },
      "types": [
        "meal_takeaway",
        "restaurant",
        "food",
        "point_of_interest",
        "establishment"
      ]
    }
  ],
  "status": "OK"
}