[
  {
    "address_components": [
      {
        "long_name": "７７４",
        "short_name": "７７４",
        "types": [
          "premise"
        ]
      },
      {
        "long_name": "小布施",
        "short_name": "小布施",
        "types": [
          "political",
          "sublocality",
          "sublocality_level_2"
        ]
      },
      {
        "long_name": "小布施町",
        "short_name": "小布施町",
        "types": [
          "locality",
          "political"
        ]
      },
      {
        "long_name": "上高井郡",
        "short_name": "上高井郡",
        "types": [
          "administrative_area_level_2",
          "political"
        ]
      },
      {
        "long_name": "長野県",
        "short_name": "長野県",
        "types": [
          "administrative_area_level_1",
          "political"
        ]
      },
      {
        "long_name": "日本",
        "short_name": "JP",
        "types": [
          "country",
          "political"
        ]
      },
      {
        "long_name": "381-0201",
        "short_name": "381-0201",
        "types": [
          "postal_code"
        ]
      }
    ],
    "formatted_address": "日本、〒381-0201 長野県上高井郡小布施町小布施７７４",
    "geometry": {
      "bounds": {
        "northeast": {
          "lat": 36.6969475,
          "lng": 138.3169325
        },
        "southwest": {
          "lat": 36.696803,
          "lng": 138.3166399
        }
      },
      "location": {
        "lat": 36.696891,
        "lng": 138.3168085
      },
      "location_type": "ROOFTOP",
      "viewport": {
        "northeast": {
          "lat": 36.6981873802915,
          "lng": 138.3181351802915
        },
        "southwest": {
          "lat": 36.6954894197085,
          "lng": 138.3154372197085
        }
      }
    },
    "place_id": "ChIJZ6olHF-JHWARdXoa7bgcUtk",
    "types": [
      "premise"
    ]
  }
]