[
  {
    "address_components": [
      {
        "long_name": "富士見町",
        "short_name": "富士見町",
        "types": [
          "locality",
          "political"
        ]
      },
      {
        "long_name": "諏訪郡",
        "short_name": "諏訪郡",
        "types": [
          "administrative_area_level_2",
          "political"
        ]
      },
      {
        "long_name": "長野県",
        "short_name": "長野県",
        "types": [
          "administrative_area_level_1",
          "political"
        ]
      },
      {
        "long_name": "日本",
        "short_name": "JP",
        "types": [
          "country",
          "political"
        ]
      }
    ],
    "formatted_address": "日本、長野県諏訪郡富士見町",
    "geometry": {
      "bounds": {
        "northeast": {
          "lat": 35.9711369,
          "lng": 138.3702632
        },
        "southwest": {
          "lat": 35.7808892,
          "lng": 138.1685621
        }
      },
      "location": {
        "lat": 35.9146598,
        "lng": 138.2406687
      },
      "location_type": "APPROXIMATE",
      "viewport": {
        "northeast": {
          "lat": 35.9711369,
          "lng": 138.3702632
        },
        "southwest": {
          "lat": 35.7808892,
          "lng": 138.1685621
        }
      }
    },
    "partial_match": true,
    "place_id": "ChIJh09QsYRCHGARPRbZU3mErpA",
    "types": [
      "locality",
      "political"
    ]
  },
  {
    "address_components": [
      {
        "long_name": "１８",
        "short_name": "１８",
        "types": [
          "premise"
        ]
      },
      {
        "long_name": "１５",
        "short_name": "１５",
        "types": [
          "political",
          "sublocality",
          "sublocality_level_4"
        ]
      },
      {
        "long_name": "３丁目",
        "short_name": "３丁目",
        "types": [
          "political",
          "sublocality",
          "sublocality_level_3"
        ]
      },
      {
        "long_name": "中西",
        "short_name": "中西",
        "types": [
          "political",
          "sublocality",
          "sublocality_level_2"
        ]
      },
      {
        "long_name": "熊谷市",
        "short_name": "熊谷市",
        "types": [
          "locality",
          "political"
        ]
      },
      {
        "long_name": "埼玉県",
        "short_name": "埼玉県",
        "types": [
          "administrative_area_level_1",
          "political"
        ]
      },
      {
        "long_name": "日本",
        "short_name": "JP",
        "types": [
          "country",
          "political"
        ]
      },
      {
        "long_name": "360-0014",
        "short_name": "360-0014",
        "types": [
          "postal_code"
        ]
      }
    ],
    "formatted_address": "日本、〒360-0014 埼玉県熊谷市中西３丁目１５−１８",
    "geometry": {
      "location": {
        "lat": 36.15134,
        "lng": 139.3986505
      },
      "location_type": "ROOFTOP",
      "viewport": {
        "northeast": {
          "lat": 36.15265713029149,
          "lng": 139.4000359802915
        },
        "southwest": {
          "lat": 36.1499591697085,
          "lng": 139.3973380197085
        }
      }
    },
    "partial_match": true,
    "place_id": "ChIJWa6krUwoH2ARwJVRU768RmE",
    "plus_code": {
      "compound_code": "592X+GF 埼玉県熊谷市",
      "global_code": "8Q8X592X+GF"
    },
    "types": [
      "beauty_salon",
      "establishment",
      "hair_care",
      "point_of_interest"
    ]
  }
]