[
  {
    "address_components": [
      {
        "long_name": "９９８４−１０２５",
        "short_name": "９９８４−１０２５",
        "types": [
          "premise"
        ]
      },
      {
        "long_name": "落合",
        "short_name": "落合",
        "types": [
          "political",
          "sublocality",
          "sublocality_level_2"
        ]
      },
      {
        "long_name": "富士見町",
        "short_name": "富士見町",
        "types": [
          "locality",
          "political"
        ]
      },
      {
        "long_name": "諏訪郡",
        "short_name": "諏訪郡",
        "types": [
          "administrative_area_level_2",
          "political"
        ]
      },
      {
        "long_name": "長野県",
        "short_name": "長野県",
        "types": [
          "administrative_area_level_1",
          "political"
        ]
      },
      {
        "long_name": "日本",
        "short_name": "JP",
        "types": [
          "country",
          "political"
        ]
      },
      {
        "long_name": "399-0214",
        "short_name": "399-0214",
        "types": [
          "postal_code"
        ]
      }
    ],
    "formatted_address": "日本、〒399-0214 長野県諏訪郡富士見町落合９９８４−１０２５",
    "geometry": {
      "bounds": {
        "northeast": {
          "lat": 35.9187967,
          "lng": 138.2383807
        },
        "southwest": {
          "lat": 35.9181684,
          "lng": 138.2379085
        }
      },
      "location": {
        "lat": 35.9185472,
        "lng": 138.2381866
      },
      "location_type": "ROOFTOP",
      "viewport": {
        "northeast": {
          "lat": 35.9198315302915,
          "lng": 138.2396385802915
        },
        "southwest": {
          "lat": 35.9171335697085,
          "lng": 138.2369406197085
        }
      }
    },
    "place_id": "ChIJIwp_4LJcHGAR6fUvscoFmKE",
    "types": [
      "premise"
    ]
  }
]