[
  {
    "address_components": [
      {
        "long_name": "諏訪市",
        "short_name": "諏訪市",
        "types": [
          "locality",
          "political"
        ]
      },
      {
        "long_name": "長野県",
        "short_name": "長野県",
        "types": [
          "administrative_area_level_1",
          "political"
        ]
      },
      {
        "long_name": "日本",
        "short_name": "JP",
        "types": [
          "country",
          "political"
        ]
      }
    ],
    "formatted_address": "日本、長野県諏訪市",
    "geometry": {
      "bounds": {
        "northeast": {
          "lat": 36.1241101,
          "lng": 138.2003509
        },
        "southwest": {
          "lat": 35.9462515,
          "lng": 138.0342909
        }
      },
      "location": {
        "lat": 36.0391525,
        "lng": 138.1140545
      },
      "location_type": "APPROXIMATE",
      "viewport": {
        "northeast": {
          "lat": 36.1241101,
          "lng": 138.2003509
        },
        "southwest": {
          "lat": 35.9462515,
          "lng": 138.0342909
        }
      }
    },
    "partial_match": true,
    "place_id": "ChIJ30EFZMxVHGARRiDmvSJjp-0",
    "types": [
      "locality",
      "political"
    ]
  },
  {
    "address_components": [
      {
        "long_name": "２０",
        "short_name": "２０",
        "types": [
          "premise"
        ]
      },
      {
        "long_name": "４",
        "short_name": "４",
        "types": [
          "political",
          "sublocality",
          "sublocality_level_4"
        ]
      },
      {
        "long_name": "１丁目",
        "short_name": "１丁目",
        "types": [
          "political",
          "sublocality",
          "sublocality_level_3"
        ]
      },
      {
        "long_name": "西新宿",
        "short_name": "西新宿",
        "types": [
          "political",
          "sublocality",
          "sublocality_level_2"
        ]
      },
      {
        "long_name": "新宿区",
        "short_name": "新宿区",
        "types": [
          "locality",
          "political"
        ]
      },
      {
        "long_name": "東京都",
        "short_name": "東京都",
        "types": [
          "administrative_area_level_1",
          "political"
        ]
      },
      {
        "long_name": "日本",
        "short_name": "JP",
        "types": [
          "country",
          "political"
        ]
      },
      {
        "long_name": "160-0023",
        "short_name": "160-0023",
        "types": [
          "postal_code"
        ]
      }
    ],
    "formatted_address": "日本、〒160-0023 東京都新宿区西新宿１丁目４−２０",
    "geometry": {
      "location": {
        "lat": 35.6930695,
        "lng": 139.6987154
      },
      "location_type": "ROOFTOP",
      "viewport": {
        "northeast": {
          "lat": 35.6944268302915,
          "lng": 139.7000662802915
        },
        "southwest": {
          "lat": 35.6917288697085,
          "lng": 139.6973683197085
        }
      }
    },
    "partial_match": true,
    "place_id": "ChIJo-_t_daMGGARr8L1WnQSGG8",
    "plus_code": {
      "compound_code": "MMVX+6F 東京都新宿区",
      "global_code": "8Q7XMMVX+6F"
    },
    "types": [
      "bar",
      "establishment",
      "food",
      "point_of_interest",
      "restaurant"
    ]
  }
]