[
  {
    "address_components": [
      {
        "long_name": "７",
        "short_name": "７",
        "types": [
          "premise"
        ]
      },
      {
        "long_name": "１２",
        "short_name": "１２",
        "types": [
          "political",
          "sublocality",
          "sublocality_level_4"
        ]
      },
      {
        "long_name": "１丁目",
        "short_name": "１丁目",
        "types": [
          "political",
          "sublocality",
          "sublocality_level_3"
        ]
      },
      {
        "long_name": "湖岸通り",
        "short_name": "湖岸通り",
        "types": [
          "political",
          "sublocality",
          "sublocality_level_2"
        ]
      },
      {
        "long_name": "諏訪市",
        "short_name": "諏訪市",
        "types": [
          "locality",
          "political"
        ]
      },
      {
        "long_name": "長野県",
        "short_name": "長野県",
        "types": [
          "administrative_area_level_1",
          "political"
        ]
      },
      {
        "long_name": "日本",
        "short_name": "JP",
        "types": [
          "country",
          "political"
        ]
      },
      {
        "long_name": "392-0027",
        "short_name": "392-0027",
        "types": [
          "postal_code"
        ]
      }
    ],
    "formatted_address": "日本、〒392-0027 長野県諏訪市湖岸通り１丁目１２−７",
    "geometry": {
      "bounds": {
        "northeast": {
          "lat": 36.0569366,
          "lng": 138.1115354
        },
        "southwest": {
          "lat": 36.0565988,
          "lng": 138.1111962
        }
      },
      "location": {
        "lat": 36.0567824,
        "lng": 138.1114097
      },
      "location_type": "ROOFTOP",
      "viewport": {
        "northeast": {
          "lat": 36.0581166802915,
          "lng": 138.1126428302915
        },
        "southwest": {
          "lat": 36.0554187197085,
          "lng": 138.1099448697085
        }
      }
    },
    "place_id": "ChIJ-1RJ6wdVHGARwloQK_S9OXM",
    "types": [
      "premise"
    ]
  }
]