[
  {
    "address_components": [
      {
        "long_name": "２８",
        "short_name": "２８",
        "types": [
          "premise"
        ]
      },
      {
        "long_name": "１３",
        "short_name": "１３",
        "types": [
          "political",
          "sublocality",
          "sublocality_level_4"
        ]
      },
      {
        "long_name": "１丁目",
        "short_name": "１丁目",
        "types": [
          "political",
          "sublocality",
          "sublocality_level_3"
        ]
      },
      {
        "long_name": "湖岸通り",
        "short_name": "湖岸通り",
        "types": [
          "political",
          "sublocality",
          "sublocality_level_2"
        ]
      },
      {
        "long_name": "諏訪市",
        "short_name": "諏訪市",
        "types": [
          "locality",
          "political"
        ]
      },
      {
        "long_name": "長野県",
        "short_name": "長野県",
        "types": [
          "administrative_area_level_1",
          "political"
        ]
      },
      {
        "long_name": "日本",
        "short_name": "JP",
        "types": [
          "country",
          "political"
        ]
      },
      {
        "long_name": "392-0027",
        "short_name": "392-0027",
        "types": [
          "postal_code"
        ]
      }
    ],
    "formatted_address": "日本、〒392-0027 長野県諏訪市湖岸通り１丁目１３−２８",
    "geometry": {
      "bounds": {
        "northeast": {
          "lat": 36.0559686,
          "lng": 138.1119347
        },
        "southwest": {
          "lat": 36.055695,
          "lng": 138.111581
        }
      },
      "location": {
        "lat": 36.0558416,
        "lng": 138.1117588
      },
      "location_type": "ROOFTOP",
      "viewport": {
        "northeast": {
          "lat": 36.0571807802915,
          "lng": 138.1130365802915
        },
        "southwest": {
          "lat": 36.0544828197085,
          "lng": 138.1103386197085
        }
      }
    },
    "place_id": "ChIJi4G8JqhVHGARERhAMNJV31Q",
    "types": [
      "premise"
    ]
  }
]