[
  {
    "address_components": [
      {
        "long_name": "２４",
        "short_name": "２４",
        "types": [
          "premise"
        ]
      },
      {
        "long_name": "１",
        "short_name": "１",
        "types": [
          "political",
          "sublocality",
          "sublocality_level_4"
        ]
      },
      {
        "long_name": "３丁目",
        "short_name": "３丁目",
        "types": [
          "political",
          "sublocality",
          "sublocality_level_3"
        ]
      },
      {
        "long_name": "湖岸通り",
        "short_name": "湖岸通り",
        "types": [
          "political",
          "sublocality",
          "sublocality_level_2"
        ]
      },
      {
        "long_name": "諏訪市",
        "short_name": "諏訪市",
        "types": [
          "locality",
          "political"
        ]
      },
      {
        "long_name": "長野県",
        "short_name": "長野県",
        "types": [
          "administrative_area_level_1",
          "political"
        ]
      },
      {
        "long_name": "日本",
        "short_name": "JP",
        "types": [
          "country",
          "political"
        ]
      },
      {
        "long_name": "392-0027",
        "short_name": "392-0027",
        "types": [
          "postal_code"
        ]
      }
    ],
    "formatted_address": "日本、〒392-0027 長野県諏訪市湖岸通り３丁目１−２４",
    "geometry": {
      "bounds": {
        "northeast": {
          "lat": 36.04985569999999,
          "lng": 138.1134964
        },
        "southwest": {
          "lat": 36.0497848,
          "lng": 138.1133867
        }
      },
      "location": {
        "lat": 36.0498163,
        "lng": 138.1134362
      },
      "location_type": "ROOFTOP",
      "viewport": {
        "northeast": {
          "lat": 36.05116923029149,
          "lng": 138.1148006802915
        },
        "southwest": {
          "lat": 36.04847126970849,
          "lng": 138.1121027197085
        }
      }
    },
    "place_id": "ChIJ_ZgTWa5VHGARQoY-1vwy8yk",
    "types": [
      "premise"
    ]
  }
]