[
  {
    "address_components": [
      {
        "long_name": "７",
        "short_name": "７",
        "types": [
          "premise"
        ]
      },
      {
        "long_name": "４",
        "short_name": "４",
        "types": [
          "political",
          "sublocality",
          "sublocality_level_4"
        ]
      },
      {
        "long_name": "４丁目",
        "short_name": "４丁目",
        "types": [
          "political",
          "sublocality",
          "sublocality_level_3"
        ]
      },
      {
        "long_name": "湖岸通り",
        "short_name": "湖岸通り",
        "types": [
          "political",
          "sublocality",
          "sublocality_level_2"
        ]
      },
      {
        "long_name": "諏訪市",
        "short_name": "諏訪市",
        "types": [
          "locality",
          "political"
        ]
      },
      {
        "long_name": "長野県",
        "short_name": "長野県",
        "types": [
          "administrative_area_level_1",
          "political"
        ]
      },
      {
        "long_name": "日本",
        "short_name": "JP",
        "types": [
          "country",
          "political"
        ]
      },
      {
        "long_name": "392-0027",
        "short_name": "392-0027",
        "types": [
          "postal_code"
        ]
      }
    ],
    "formatted_address": "日本、〒392-0027 長野県諏訪市湖岸通り４丁目４−７",
    "geometry": {
      "bounds": {
        "northeast": {
          "lat": 36.0461211,
          "lng": 138.1130883
        },
        "southwest": {
          "lat": 36.046022,
          "lng": 138.1129468
        }
      },
      "location": {
        "lat": 36.0460611,
        "lng": 138.1130193
      },
      "location_type": "ROOFTOP",
      "viewport": {
        "northeast": {
          "lat": 36.0474205302915,
          "lng": 138.1144249802915
        },
        "southwest": {
          "lat": 36.0447225697085,
          "lng": 138.1117270197085
        }
      }
    },
    "place_id": "ChIJF70UsbFVHGAR7ydlT0RGwEg",
    "types": [
      "premise"
    ]
  }
]