[
  {
    "address_components": [
      {
        "long_name": "２",
        "short_name": "２",
        "types": [
          "premise"
        ]
      },
      {
        "long_name": "１４",
        "short_name": "１４",
        "types": [
          "political",
          "sublocality",
          "sublocality_level_4"
        ]
      },
      {
        "long_name": "５丁目",
        "short_name": "５丁目",
        "types": [
          "political",
          "sublocality",
          "sublocality_level_3"
        ]
      },
      {
        "long_name": "湖岸通り",
        "short_name": "湖岸通り",
        "types": [
          "political",
          "sublocality",
          "sublocality_level_2"
        ]
      },
      {
        "long_name": "諏訪市",
        "short_name": "諏訪市",
        "types": [
          "locality",
          "political"
        ]
      },
      {
        "long_name": "長野県",
        "short_name": "長野県",
        "types": [
          "administrative_area_level_1",
          "political"
        ]
      },
      {
        "long_name": "日本",
        "short_name": "JP",
        "types": [
          "country",
          "political"
        ]
      },
      {
        "long_name": "392-0027",
        "short_name": "392-0027",
        "types": [
          "postal_code"
        ]
      }
    ],
    "formatted_address": "日本、〒392-0027 長野県諏訪市湖岸通り５丁目１４−２",
    "geometry": {
      "bounds": {
        "northeast": {
          "lat": 36.0458112,
          "lng": 138.1134273
        },
        "southwest": {
          "lat": 36.0456964,
          "lng": 138.1133301
        }
      },
      "location": {
        "lat": 36.0457566,
        "lng": 138.1133974
      },
      "location_type": "ROOFTOP",
      "viewport": {
        "northeast": {
          "lat": 36.04710278029149,
          "lng": 138.1147302302915
        },
        "southwest": {
          "lat": 36.0444048197085,
          "lng": 138.1120322697085
        }
      }
    },
    "place_id": "ChIJP5rVpbFVHGARlWzJI1EhEc8",
    "types": [
      "premise"
    ]
  }
]