[
  {
    "address_components": [
      {
        "long_name": "１３１１",
        "short_name": "１３１１",
        "types": [
          "premise"
        ]
      },
      {
        "long_name": "雁田",
        "short_name": "雁田",
        "types": [
          "political",
          "sublocality",
          "sublocality_level_2"
        ]
      },
      {
        "long_name": "小布施町",
        "short_name": "小布施町",
        "types": [
          "locality",
          "political"
        ]
      },
      {
        "long_name": "上高井郡",
        "short_name": "上高井郡",
        "types": [
          "administrative_area_level_2",
          "political"
        ]
      },
      {
        "long_name": "長野県",
        "short_name": "長野県",
        "types": [
          "administrative_area_level_1",
          "political"
        ]
      },
      {
        "long_name": "日本",
        "short_name": "JP",
        "types": [
          "country",
          "political"
        ]
      },
      {
        "long_name": "381-0211",
        "short_name": "381-0211",
        "types": [
          "postal_code"
        ]
      }
    ],
    "formatted_address": "日本、〒381-0211 長野県上高井郡小布施町雁田１３１１",
    "geometry": {
      "bounds": {
        "northeast": {
          "lat": 36.68758589999999,
          "lng": 138.3277511
        },
        "southwest": {
          "lat": 36.6869651,
          "lng": 138.3273143
        }
      },
      "location": {
        "lat": 36.6872304,
        "lng": 138.3275154
      },
      "location_type": "ROOFTOP",
      "viewport": {
        "northeast": {
          "lat": 36.68862448029149,
          "lng": 138.3288114302915
        },
        "southwest": {
          "lat": 36.6859265197085,
          "lng": 138.3261134697085
        }
      }
    },
    "place_id": "ChIJe-rvbviLHWARIOJ3xGpkThg",
    "types": [
      "premise"
    ]
  }
]