[
  {
    "address_components": [
      {
        "long_name": "６２６",
        "short_name": "６２６",
        "types": [
          "premise"
        ]
      },
      {
        "long_name": "四賀",
        "short_name": "四賀",
        "types": [
          "political",
          "sublocality",
          "sublocality_level_2"
        ]
      },
      {
        "long_name": "諏訪市",
        "short_name": "諏訪市",
        "types": [
          "locality",
          "political"
        ]
      },
      {
        "long_name": "長野県",
        "short_name": "長野県",
        "types": [
          "administrative_area_level_1",
          "political"
        ]
      },
      {
        "long_name": "日本",
        "short_name": "JP",
        "types": [
          "country",
          "political"
        ]
      },
      {
        "long_name": "392-0012",
        "short_name": "392-0012",
        "types": [
          "postal_code"
        ]
      }
    ],
    "formatted_address": "日本、〒392-0012 長野県諏訪市四賀６２６",
    "geometry": {
      "bounds": {
        "northeast": {
          "lat": 36.0228866,
          "lng": 138.1309253
        },
        "southwest": {
          "lat": 36.022746,
          "lng": 138.1307189
        }
      },
      "location": {
        "lat": 36.0228143,
        "lng": 138.1308244
      },
      "location_type": "ROOFTOP",
      "viewport": {
        "northeast": {
          "lat": 36.0241395302915,
          "lng": 138.1321710802915
        },
        "southwest": {
          "lat": 36.0214415697085,
          "lng": 138.1294731197085
        }
      }
    },
    "place_id": "ChIJn6CZRptWHGARLoR_ksDhFTc",
    "types": [
      "premise"
    ]
  }
]