[
  {
    "address_components": [
      {
        "long_name": "３",
        "short_name": "３",
        "types": [
          "premise"
        ]
      },
      {
        "long_name": "２",
        "short_name": "２",
        "types": [
          "political",
          "sublocality",
          "sublocality_level_4"
        ]
      },
      {
        "long_name": "１丁目",
        "short_name": "１丁目",
        "types": [
          "political",
          "sublocality",
          "sublocality_level_3"
        ]
      },
      {
        "long_name": "諏訪",
        "short_name": "諏訪",
        "types": [
          "political",
          "sublocality",
          "sublocality_level_2"
        ]
      },
      {
        "long_name": "諏訪市",
        "short_name": "諏訪市",
        "types": [
          "locality",
          "political"
        ]
      },
      {
        "long_name": "長野県",
        "short_name": "長野県",
        "types": [
          "administrative_area_level_1",
          "political"
        ]
      },
      {
        "long_name": "日本",
        "short_name": "JP",
        "types": [
          "country",
          "political"
        ]
      },
      {
        "long_name": "392-0004",
        "short_name": "392-0004",
        "types": [
          "postal_code"
        ]
      }
    ],
    "formatted_address": "日本、〒392-0004 長野県諏訪市諏訪１丁目２−３",
    "geometry": {
      "bounds": {
        "northeast": {
          "lat": 36.0461392,
          "lng": 138.1170093
        },
        "southwest": {
          "lat": 36.0460897,
          "lng": 138.1169134
        }
      },
      "location": {
        "lat": 36.0461189,
        "lng": 138.1169658
      },
      "location_type": "ROOFTOP",
      "viewport": {
        "northeast": {
          "lat": 36.04747303029149,
          "lng": 138.1183604802915
        },
        "southwest": {
          "lat": 36.04477506970849,
          "lng": 138.1156625197085
        }
      }
    },
    "place_id": "ChIJ8xtKo7NVHGARyMQNYNCGV2Y",
    "types": [
      "premise"
    ]
  }
]