[
  {
    "address_components": [
      {
        "long_name": "４",
        "short_name": "４",
        "types": [
          "premise"
        ]
      },
      {
        "long_name": "２",
        "short_name": "２",
        "types": [
          "political",
          "sublocality",
          "sublocality_level_4"
        ]
      },
      {
        "long_name": "１丁目",
        "short_name": "１丁目",
        "types": [
          "political",
          "sublocality",
          "sublocality_level_3"
        ]
      },
      {
        "long_name": "諏訪",
        "short_name": "諏訪",
        "types": [
          "political",
          "sublocality",
          "sublocality_level_2"
        ]
      },
      {
        "long_name": "諏訪市",
        "short_name": "諏訪市",
        "types": [
          "locality",
          "political"
        ]
      },
      {
        "long_name": "長野県",
        "short_name": "長野県",
        "types": [
          "administrative_area_level_1",
          "political"
        ]
      },
      {
        "long_name": "日本",
        "short_name": "JP",
        "types": [
          "country",
          "political"
        ]
      },
      {
        "long_name": "392-0004",
        "short_name": "392-0004",
        "types": [
          "postal_code"
        ]
      }
    ],
    "formatted_address": "日本、〒392-0004 長野県諏訪市諏訪１丁目２−４",
    "geometry": {
      "bounds": {
        "northeast": {
          "lat": 36.0459001,
          "lng": 138.1171292
        },
        "southwest": {
          "lat": 36.0458224,
          "lng": 138.1170207
        }
      },
      "location": {
        "lat": 36.0458614,
        "lng": 138.1170627
      },
      "location_type": "ROOFTOP",
      "viewport": {
        "northeast": {
          "lat": 36.04721208029149,
          "lng": 138.1184676802915
        },
        "southwest": {
          "lat": 36.0445141197085,
          "lng": 138.1157697197085
        }
      }
    },
    "place_id": "ChIJpW8QmLNVHGARQ4jMKpqyYTA",
    "types": [
      "premise"
    ]
  }
]