{
  "candidates": [
    {
      "business_status": "OPERATIONAL",
      "formatted_address": "日本、〒392-0004 長野県諏訪市諏訪２ 1-2-5ファミリーマート上諏訪駅前店",
      "geometry": {
        "location": {
          "lat": 36.045784,
          "lng": 138.11707
        },
        "viewport": {
          "northeast": {
            "lat": 36.04713382989272,
            "lng": 138.1184198298927
          },
          "southwest": {
            "lat": 36.04443417010727,
            "lng": 138.1157201701072
          }
        }
      },
      "icon": "https://maps.gstatic.com/mapfiles/place_api/icons/v1/png_71/restaurant-71.png",
      "name": "有限会社 田中屋商店 上諏訪駅前店",
      "photos": [
        {
          "height": 273,
          "html_attributions": [
            "<a href=\"https://maps.google.com/maps/contrib/105205867108937731515\">有限会社 田中屋商店 上諏訪駅前店</a>"
          ],
          "photo_reference": "Aap_uEDfoZXCsTgFC1q-hYVKGHs8vP4OClSY3lhZ0XNBxn4WiWlTid1B7hlRppmbNmk8uk-CuonCbS8jeiUPltbmcP_PFnqVtdixgUox_hzPd1v9Le44PzI0FLhT-U3jrudbeVr7PGYd4Oq86idlwhlvguIz3TQxc4bPmWDDAFWH04Q5YUI4",
          "width": 313
        }
      ],
      "place_id": "ChIJoTDosr5VHGARJzwnwEJx_aI",
      "plus_code": {
        "compound_code": "24W8+8R 諏訪市、長野県",
        "global_code": "8Q8W24W8+8R"
      },
      "types": [
        "bakery",
        "store",
        "point_of_interest",
        "food",
        "establishment"
      ]
    },
    {
      "business_status": "CLOSED_PERMANENTLY",
      "formatted_address": "日本、〒392-0022 長野県諏訪市高島１丁目３−１４２１",
      "geometry": {
        "location": {
          "lat": 36.042055,
          "lng": 138.1124244
        },
        "viewport": {
          "northeast": {
            "lat": 36.04349172989272,
            "lng": 138.1138051298927
          },
          "southwest": {
            "lat": 36.04079207010728,
            "lng": 138.1111054701072
          }
        }
      },
      "icon": "https://maps.gstatic.com/mapfiles/place_api/icons/v1/png_71/shopping-71.png",
      "name": "丸安田中屋本店",
      "place_id": "ChIJnbcxJ7dVHGARSn3d5G3mYsY",
      "plus_code": {
        "compound_code": "24R6+RX 諏訪市、長野県",
        "global_code": "8Q8W24R6+RX"
      },
      "types": [
        "grocery_or_supermarket",
        "store",
        "point_of_interest",
        "food",
        "establishment"
      ]
    }
  ],
  "status": "OK"
}