[
  {
    "address_components": [
      {
        "long_name": "２１",
        "short_name": "２１",
        "types": [
          "premise"
        ]
      },
      {
        "long_name": "９",
        "short_name": "９",
        "types": [
          "political",
          "sublocality",
          "sublocality_level_4"
        ]
      },
      {
        "long_name": "２丁目",
        "short_name": "２丁目",
        "types": [
          "political",
          "sublocality",
          "sublocality_level_3"
        ]
      },
      {
        "long_name": "諏訪",
        "short_name": "諏訪",
        "types": [
          "political",
          "sublocality",
          "sublocality_level_2"
        ]
      },
      {
        "long_name": "諏訪市",
        "short_name": "諏訪市",
        "types": [
          "locality",
          "political"
        ]
      },
      {
        "long_name": "長野県",
        "short_name": "長野県",
        "types": [
          "administrative_area_level_1",
          "political"
        ]
      },
      {
        "long_name": "日本",
        "short_name": "JP",
        "types": [
          "country",
          "political"
        ]
      },
      {
        "long_name": "392-0004",
        "short_name": "392-0004",
        "types": [
          "postal_code"
        ]
      }
    ],
    "formatted_address": "日本、〒392-0004 長野県諏訪市諏訪２丁目９−２１",
    "geometry": {
      "bounds": {
        "northeast": {
          "lat": 36.0422725,
          "lng": 138.1207746
        },
        "southwest": {
          "lat": 36.0421158,
          "lng": 138.1205787
        }
      },
      "location": {
        "lat": 36.0421835,
        "lng": 138.1206604
      },
      "location_type": "ROOFTOP",
      "viewport": {
        "northeast": {
          "lat": 36.04354313029149,
          "lng": 138.1219766802915
        },
        "southwest": {
          "lat": 36.0408451697085,
          "lng": 138.1192787197085
        }
      }
    },
    "place_id": "ChIJTdmNpEpUHGARipVlFGv6QME",
    "types": [
      "premise"
    ]
  }
]