[
  {
    "address_components": [
      {
        "long_name": "７",
        "short_name": "７",
        "types": [
          "premise"
        ]
      },
      {
        "long_name": "１０",
        "short_name": "１０",
        "types": [
          "political",
          "sublocality",
          "sublocality_level_4"
        ]
      },
      {
        "long_name": "２丁目",
        "short_name": "２丁目",
        "types": [
          "political",
          "sublocality",
          "sublocality_level_3"
        ]
      },
      {
        "long_name": "諏訪",
        "short_name": "諏訪",
        "types": [
          "political",
          "sublocality",
          "sublocality_level_2"
        ]
      },
      {
        "long_name": "諏訪市",
        "short_name": "諏訪市",
        "types": [
          "locality",
          "political"
        ]
      },
      {
        "long_name": "長野県",
        "short_name": "長野県",
        "types": [
          "administrative_area_level_1",
          "political"
        ]
      },
      {
        "long_name": "日本",
        "short_name": "JP",
        "types": [
          "country",
          "political"
        ]
      },
      {
        "long_name": "392-0004",
        "short_name": "392-0004",
        "types": [
          "postal_code"
        ]
      }
    ],
    "formatted_address": "日本、〒392-0004 長野県諏訪市諏訪２丁目１０−７",
    "geometry": {
      "bounds": {
        "northeast": {
          "lat": 36.044301,
          "lng": 138.119396
        },
        "southwest": {
          "lat": 36.0441748,
          "lng": 138.1192184
        }
      },
      "location": {
        "lat": 36.0442415,
        "lng": 138.1193028
      },
      "location_type": "ROOFTOP",
      "viewport": {
        "northeast": {
          "lat": 36.04559688029151,
          "lng": 138.1206715302915
        },
        "southwest": {
          "lat": 36.04289891970851,
          "lng": 138.1179735697085
        }
      }
    },
    "place_id": "ChIJ0TOpxbRVHGAR68GEsD2vWhA",
    "types": [
      "premise"
    ]
  }
]