[
  {
    "address_components": [
      {
        "long_name": "１２００−３",
        "short_name": "１２００−３",
        "types": [
          "premise"
        ]
      },
      {
        "long_name": "２丁目",
        "short_name": "２丁目",
        "types": [
          "political",
          "sublocality",
          "sublocality_level_3"
        ]
      },
      {
        "long_name": "高島",
        "short_name": "高島",
        "types": [
          "political",
          "sublocality",
          "sublocality_level_2"
        ]
      },
      {
        "long_name": "諏訪市",
        "short_name": "諏訪市",
        "types": [
          "locality",
          "political"
        ]
      },
      {
        "long_name": "長野県",
        "short_name": "長野県",
        "types": [
          "administrative_area_level_1",
          "political"
        ]
      },
      {
        "long_name": "日本",
        "short_name": "JP",
        "types": [
          "country",
          "political"
        ]
      },
      {
        "long_name": "392-0022",
        "short_name": "392-0022",
        "types": [
          "postal_code"
        ]
      }
    ],
    "formatted_address": "日本、〒392-0022 長野県諏訪市高島２丁目１２００−３",
    "geometry": {
      "bounds": {
        "northeast": {
          "lat": 36.0422827,
          "lng": 138.1058121
        },
        "southwest": {
          "lat": 36.0421245,
          "lng": 138.1053915
        }
      },
      "location": {
        "lat": 36.0421969,
        "lng": 138.1056119
      },
      "location_type": "ROOFTOP",
      "viewport": {
        "northeast": {
          "lat": 36.0435525802915,
          "lng": 138.1069507802915
        },
        "southwest": {
          "lat": 36.0408546197085,
          "lng": 138.1042528197085
        }
      }
    },
    "place_id": "ChIJkxlMeLtVHGAReKR167KEEWY",
    "types": [
      "premise"
    ]
  }
]