{
  "candidates": [
    {
      "business_status": "OPERATIONAL",
      "formatted_address": "日本、〒392-0022 長野県諏訪市高島２丁目１２００",
      "geometry": {
        "location": {
          "lat": 36.0423904,
          "lng": 138.1055777
        },
        "viewport": {
          "northeast": {
            "lat": 36.04379737989272,
            "lng": 138.1069447798927
          },
          "southwest": {
            "lat": 36.04109772010727,
            "lng": 138.1042451201073
          }
        }
      },
      "icon": "https://maps.gstatic.com/mapfiles/place_api/icons/v1/png_71/restaurant-71.png",
      "name": "中華料理 華林",
      "photos": [
        {
          "height": 2160,
          "html_attributions": [
            "<a href=\"https://maps.google.com/maps/contrib/108459597913285489734\">勝嶋肇</a>"
          ],
          "photo_reference": "Aap_uEC2p2jZVv-RZa1rlcZ9TICXTpAK5YPYAyV8JepnuTKPKZ4WFUWsw9gvQNfa1V7pGFyw5mINRvLjotVIuzotpbH8Cf8kMNhWavcqc5keTW4A8SVfJiWJ3q1xkrN-jo3wFyzbIX2eGIuErkxmCVV8-w_GeFvRapvT0psvOZbYK-gp9mmm",
          "width": 3840
        }
      ],
      "place_id": "ChIJORZsebtVHGARrS5X7Ok-JlQ",
      "plus_code": {
        "compound_code": "24R4+X6 諏訪市、長野県",
        "global_code": "8Q8W24R4+X6"
      },
      "types": [
        "restaurant",
        "food",
        "point_of_interest",
        "establishment"
      ]
    },
    {
      "business_status": "OPERATIONAL",
      "formatted_address": "日本、〒392-0022 長野県諏訪市高島２丁目１２００−３",
      "geometry": {
        "location": {
          "lat": 36.0422143,
          "lng": 138.1057671
        },
        "viewport": {
          "northeast": {
            "lat": 36.04355887989272,
            "lng": 138.1070482298927
          },
          "southwest": {
            "lat": 36.04085922010727,
            "lng": 138.1043485701073
          }
        }
      },
      "icon": "https://maps.gstatic.com/mapfiles/place_api/icons/v1/png_71/lodging-71.png",
      "name": "RAKO 華乃井ホテル",
      "photos": [
        {
          "height": 2592,
          "html_attributions": [
            "<a href=\"https://maps.google.com/maps/contrib/106690658119888679156\">A Google User</a>"
          ],
          "photo_reference": "Aap_uEBY9x_Mh5YecMGkC56dVpCndwdJr1JMr4ylRSuBbGyyJMzt9Xl6LiGPVJEWWu9yk4gPn80jA2c1pwWRgmvNZkVMx6e9xJI64HLTqp1WbMOioBOW4z486GLApPpIgKvSpDZ1XKWe0PT7vZEbIBnZy0yleUrwhQ0OUusoy7OCo4KJq3Zc",
          "width": 3872
        }
      ],
      "place_id": "ChIJ2ZZPeLtVHGAR691rchT8gZ8",
      "plus_code": {
        "compound_code": "24R4+W8 諏訪市、長野県",
        "global_code": "8Q8W24R4+W8"
      },
      "types": [
        "lodging",
        "point_of_interest",
        "establishment"
      ]
    }
  ],
  "status": "OK"
}