[
  {
    "address_components": [
      {
        "long_name": "５",
        "short_name": "５",
        "types": [
          "premise"
        ]
      },
      {
        "long_name": "９",
        "short_name": "９",
        "types": [
          "political",
          "sublocality",
          "sublocality_level_4"
        ]
      },
      {
        "long_name": "２丁目",
        "short_name": "２丁目",
        "types": [
          "political",
          "sublocality",
          "sublocality_level_3"
        ]
      },
      {
        "long_name": "大手",
        "short_name": "大手",
        "types": [
          "political",
          "sublocality",
          "sublocality_level_2"
        ]
      },
      {
        "long_name": "諏訪市",
        "short_name": "諏訪市",
        "types": [
          "locality",
          "political"
        ]
      },
      {
        "long_name": "長野県",
        "short_name": "長野県",
        "types": [
          "administrative_area_level_1",
          "political"
        ]
      },
      {
        "long_name": "日本",
        "short_name": "JP",
        "types": [
          "country",
          "political"
        ]
      },
      {
        "long_name": "392-0026",
        "short_name": "392-0026",
        "types": [
          "postal_code"
        ]
      }
    ],
    "formatted_address": "日本、〒392-0026 長野県諏訪市大手２丁目９−５",
    "geometry": {
      "bounds": {
        "northeast": {
          "lat": 36.0419278,
          "lng": 138.1144386
        },
        "southwest": {
          "lat": 36.041796,
          "lng": 138.1142618
        }
      },
      "location": {
        "lat": 36.0418586,
        "lng": 138.1143767
      },
      "location_type": "ROOFTOP",
      "viewport": {
        "northeast": {
          "lat": 36.0431455302915,
          "lng": 138.1158097302915
        },
        "southwest": {
          "lat": 36.0404475697085,
          "lng": 138.1131117697085
        }
      }
    },
    "place_id": "ChIJGRK7j7ZVHGARyOxxxYsrKRc",
    "types": [
      "premise"
    ]
  }
]