[
  {
    "address_components": [
      {
        "long_name": "２０１",
        "short_name": "２０１",
        "types": [
          "premise"
        ]
      },
      {
        "long_name": "中洲",
        "short_name": "中洲",
        "types": [
          "political",
          "sublocality",
          "sublocality_level_2"
        ]
      },
      {
        "long_name": "諏訪市",
        "short_name": "諏訪市",
        "types": [
          "locality",
          "political"
        ]
      },
      {
        "long_name": "長野県",
        "short_name": "長野県",
        "types": [
          "administrative_area_level_1",
          "political"
        ]
      },
      {
        "long_name": "日本",
        "short_name": "JP",
        "types": [
          "country",
          "political"
        ]
      },
      {
        "long_name": "392-0015",
        "short_name": "392-0015",
        "types": [
          "postal_code"
        ]
      }
    ],
    "formatted_address": "日本、〒392-0015 長野県諏訪市中洲２０１",
    "geometry": {
      "bounds": {
        "northeast": {
          "lat": 35.9999056,
          "lng": 138.1193581
        },
        "southwest": {
          "lat": 35.99980000000001,
          "lng": 138.1192474
        }
      },
      "location": {
        "lat": 35.9998563,
        "lng": 138.1193028
      },
      "location_type": "ROOFTOP",
      "viewport": {
        "northeast": {
          "lat": 36.0011641302915,
          "lng": 138.1207965802915
        },
        "southwest": {
          "lat": 35.99846616970851,
          "lng": 138.1180986197085
        }
      }
    },
    "place_id": "ChIJWXt6vFhWHGARB3uS1rcUtqk",
    "types": [
      "premise"
    ]
  }
]