{
  "candidates": [
    {
      "business_status": "OPERATIONAL",
      "formatted_address": "日本、〒392-0015 長野県諏訪市中洲５７２３−８",
      "geometry": {
        "location": {
          "lat": 36.0267209,
          "lng": 138.1144734
        },
        "viewport": {
          "northeast": {
            "lat": 36.02811667989272,
            "lng": 138.1158478298927
          },
          "southwest": {
            "lat": 36.02541702010728,
            "lng": 138.1131481701073
          }
        }
      },
      "icon": "https://maps.gstatic.com/mapfiles/place_api/icons/v1/png_71/generic_business-71.png",
      "name": "王滝ケ―タリングサービス諏訪支店",
      "place_id": "ChIJ2ROIzk1VHGARSElm3WWRfYQ",
      "plus_code": {
        "compound_code": "24G7+JQ 諏訪市、長野県",
        "global_code": "8Q8W24G7+JQ"
      },
      "types": [
        "point_of_interest",
        "establishment"
      ]
    },
    {
      "business_status": "OPERATIONAL",
      "formatted_address": "日本、〒399-0033 長野県松本市笹賀７６００−５１",
      "geometry": {
        "location": {
          "lat": 36.191202,
          "lng": 137.948655
        },
        "viewport": {
          "northeast": {
            "lat": 36.19259112989272,
            "lng": 137.9498813298927
          },
          "southwest": {
            "lat": 36.18989147010728,
            "lng": 137.9471816701073
          }
        }
      },
      "icon": "https://maps.gstatic.com/mapfiles/place_api/icons/v1/png_71/generic_business-71.png",
      "name": "王滝 ケータリングサービス",
      "photos": [
        {
          "height": 480,
          "html_attributions": [
            "<a href=\"https://maps.google.com/maps/contrib/101818332114153557497\">A Google User</a>"
          ],
          "photo_reference": "Aap_uEAWzdJTMJXyS2ZLWhV_iS5OB3wLeiSmx1X9YwDd-k3JiQy-nbbdfb7hsMXgH_evqsoee-5fyNpnqdLRWqA4sjQfk6DXCtp8m_c3DHYqVQWY-2magYbNepmnXQJ83T27ngm_BjCw2AYSfm66oJVLj2qP3bi8cLPbShFgSXLzI3zIpa1l",
          "width": 734
        }
      ],
      "place_id": "ChIJbWINWroPHWARrqW4ln31QsM",
      "plus_code": {
        "compound_code": "5WRX+FF 松本市、長野県",
        "global_code": "8Q8V5WRX+FF"
      },
      "types": [
        "meal_delivery",
        "point_of_interest",
        "food",
        "establishment"
      ]
    }
  ],
  "status": "OK"
}