{
  "candidates": [
    {
      "business_status": "OPERATIONAL",
      "formatted_address": "日本、〒392-0016 長野県諏訪市豊田１１５２",
      "geometry": {
        "location": {
          "lat": 36.0245197,
          "lng": 138.102828
        },
        "viewport": {
          "northeast": {
            "lat": 36.02580607989272,
            "lng": 138.1041314798927
          },
          "southwest": {
            "lat": 36.02310642010728,
            "lng": 138.1014318201073
          }
        }
      },
      "icon": "https://maps.gstatic.com/mapfiles/place_api/icons/v1/png_71/generic_business-71.png",
      "name": "柿木観光バス 諏訪営業所",
      "place_id": "ChIJV7FZKN1VHGAR6KbQNKeEF4A",
      "plus_code": {
        "compound_code": "24F3+V3 諏訪市、長野県",
        "global_code": "8Q8W24F3+V3"
      },
      "types": [
        "travel_agency",
        "point_of_interest",
        "establishment"
      ]
    },
    {
      "business_status": "OPERATIONAL",
      "formatted_address": "日本、〒392-0016 長野県諏訪市豊田１１５２",
      "geometry": {
        "location": {
          "lat": 36.0245192,
          "lng": 138.1028271
        },
        "viewport": {
          "northeast": {
            "lat": 36.02580542989272,
            "lng": 138.1041312298927
          },
          "southwest": {
            "lat": 36.02310577010728,
            "lng": 138.1014315701073
          }
        }
      },
      "icon": "https://maps.gstatic.com/mapfiles/place_api/icons/v1/png_71/generic_business-71.png",
      "name": "柿木観光バス（株） 本社",
      "place_id": "ChIJw-ECKN1VHGARsvmpgppHkuU",
      "plus_code": {
        "compound_code": "24F3+V3 諏訪市、長野県",
        "global_code": "8Q8W24F3+V3"
      },
      "types": [
        "travel_agency",
        "point_of_interest",
        "establishment"
      ]
    }
  ],
  "status": "OK"
}