[
  {
    "address_components": [
      {
        "long_name": "１３",
        "short_name": "１３",
        "types": [
          "premise"
        ]
      },
      {
        "long_name": "３",
        "short_name": "３",
        "types": [
          "political",
          "sublocality",
          "sublocality_level_4"
        ]
      },
      {
        "long_name": "上穂北",
        "short_name": "上穂北",
        "types": [
          "political",
          "sublocality",
          "sublocality_level_2"
        ]
      },
      {
        "long_name": "駒ヶ根市",
        "short_name": "駒ヶ根市",
        "types": [
          "locality",
          "political"
        ]
      },
      {
        "long_name": "長野県",
        "short_name": "長野県",
        "types": [
          "administrative_area_level_1",
          "political"
        ]
      },
      {
        "long_name": "日本",
        "short_name": "JP",
        "types": [
          "country",
          "political"
        ]
      },
      {
        "long_name": "399-4116",
        "short_name": "399-4116",
        "types": [
          "postal_code"
        ]
      }
    ],
    "formatted_address": "日本、〒399-4116 長野県駒ヶ根市上穂北３−１３",
    "geometry": {
      "bounds": {
        "northeast": {
          "lat": 35.741449,
          "lng": 137.933662
        },
        "southwest": {
          "lat": 35.7412996,
          "lng": 137.9334442
        }
      },
      "location": {
        "lat": 35.741381,
        "lng": 137.9335511
      },
      "location_type": "ROOFTOP",
      "viewport": {
        "northeast": {
          "lat": 35.74272328029149,
          "lng": 137.9348871302915
        },
        "southwest": {
          "lat": 35.7400253197085,
          "lng": 137.9321891697085
        }
      }
    },
    "place_id": "ChIJr8_TnLzyHGARlnsEjnDUBLE",
    "types": [
      "premise"
    ]
  }
]