{
  "candidates": [
    {
      "business_status": "OPERATIONAL",
      "formatted_address": "日本、〒395-0083 長野県飯田市錦町１ １ 395-0083",
      "geometry": {
        "location": {
          "lat": 35.5209244,
          "lng": 137.8242953
        },
        "viewport": {
          "northeast": {
            "lat": 35.52231587989272,
            "lng": 137.8256060298927
          },
          "southwest": {
            "lat": 35.51961622010728,
            "lng": 137.8229063701072
          }
        }
      },
      "icon": "https://maps.gstatic.com/mapfiles/place_api/icons/v1/png_71/lodging-71.png",
      "name": "シルクホテル アネックス",
      "photos": [
        {
          "height": 724,
          "html_attributions": [
            "<a href=\"https://maps.google.com/maps/contrib/106636173652897362169\">A Google User</a>"
          ],
          "photo_reference": "Aap_uEDI13vL2RAibQLjS19yjlzWPbkJk2D9pHSQdcp5E8fwA1r1_ER3e6avKtDGW6e_JwYujFh5G3-pjNRYx0a5QkKc6ulCRqO5jq6P6TkQuSvKZyuY-Cdfq-fzG5qQDEAMBtKMybgQmrqNNg6P22L19C3gTT3C-ywWo-DjiOC6cH2J6rOJ",
          "width": 1024
        }
      ],
      "place_id": "ChIJz33ZWOqZHGAR9MmAF-nsbM8",
      "plus_code": {
        "compound_code": "GRCF+9P 飯田市、長野県",
        "global_code": "8Q7VGRCF+9P"
      },
      "types": [
        "lodging",
        "point_of_interest",
        "establishment"
      ]
    },
    {
      "business_status": "OPERATIONAL",
      "formatted_address": "日本、〒395-0083 長野県飯田市錦町１丁目１０",
      "geometry": {
        "location": {
          "lat": 35.521374,
          "lng": 137.824279
        },
        "viewport": {
          "northeast": {
            "lat": 35.52258857989273,
            "lng": 137.8256751298927
          },
          "southwest": {
            "lat": 35.51988892010728,
            "lng": 137.8229754701073
          }
        }
      },
      "icon": "https://maps.gstatic.com/mapfiles/place_api/icons/v1/png_71/lodging-71.png",
      "name": "シルクホテル",
      "photos": [
        {
          "height": 600,
          "html_attributions": [
            "<a href=\"https://maps.google.com/maps/contrib/104759243532601220471\">A Google User</a>"
          ],
          "photo_reference": "Aap_uEBXVBeXV6bgTuG3pnhqgHBb6rza1nJCf6Yf_irIRaUUpbSxrXOivoWfmzcyAFCeD0dRMBK0EHsNRXVE3WnrqP93bwto4EVLTE672E-J8Z3reIua_ljKJdfG5pdRGQJOV2pV0JclKL_LjyvQl1BE5v6H_nakr8naVJgWu1wFu_xzA2Ps",
          "width": 660
        }
      ],
      "place_id": "ChIJ_ci1QuqZHGARAuk3lHnRvy0",
      "plus_code": {
        "compound_code": "GRCF+GP 飯田市、長野県",
        "global_code": "8Q7VGRCF+GP"
      },
      "types": [
        "lodging",
        "point_of_interest",
        "establishment"
      ]
    }
  ],
  "status": "OK"
}