[
  {
    "address_components": [
      {
        "long_name": "１０",
        "short_name": "１０",
        "types": [
          "premise"
        ]
      },
      {
        "long_name": "１丁目",
        "short_name": "１丁目",
        "types": [
          "political",
          "sublocality",
          "sublocality_level_3"
        ]
      },
      {
        "long_name": "錦町",
        "short_name": "錦町",
        "types": [
          "political",
          "sublocality",
          "sublocality_level_2"
        ]
      },
      {
        "long_name": "飯田市",
        "short_name": "飯田市",
        "types": [
          "locality",
          "political"
        ]
      },
      {
        "long_name": "長野県",
        "short_name": "長野県",
        "types": [
          "administrative_area_level_1",
          "political"
        ]
      },
      {
        "long_name": "日本",
        "short_name": "JP",
        "types": [
          "country",
          "political"
        ]
      },
      {
        "long_name": "395-0083",
        "short_name": "395-0083",
        "types": [
          "postal_code"
        ]
      }
    ],
    "formatted_address": "日本、〒395-0083 長野県飯田市錦町１丁目１０",
    "geometry": {
      "bounds": {
        "northeast": {
          "lat": 35.5215338,
          "lng": 137.8246423
        },
        "southwest": {
          "lat": 35.5210953,
          "lng": 137.82395
        }
      },
      "location": {
        "lat": 35.5212617,
        "lng": 137.8243256
      },
      "location_type": "ROOFTOP",
      "viewport": {
        "northeast": {
          "lat": 35.5226635302915,
          "lng": 137.8256451302915
        },
        "southwest": {
          "lat": 35.5199655697085,
          "lng": 137.8229471697085
        }
      }
    },
    "place_id": "ChIJHTCTQuqZHGARl5T8-7uABqY",
    "types": [
      "premise"
    ]
  }
]