[
  {
    "address_components": [
      {
        "long_name": "１５",
        "short_name": "１５",
        "types": [
          "premise"
        ]
      },
      {
        "long_name": "１丁目",
        "short_name": "１丁目",
        "types": [
          "political",
          "sublocality",
          "sublocality_level_3"
        ]
      },
      {
        "long_name": "銀座",
        "short_name": "銀座",
        "types": [
          "political",
          "sublocality",
          "sublocality_level_2"
        ]
      },
      {
        "long_name": "飯田市",
        "short_name": "飯田市",
        "types": [
          "locality",
          "political"
        ]
      },
      {
        "long_name": "長野県",
        "short_name": "長野県",
        "types": [
          "administrative_area_level_1",
          "political"
        ]
      },
      {
        "long_name": "日本",
        "short_name": "JP",
        "types": [
          "country",
          "political"
        ]
      },
      {
        "long_name": "395-0031",
        "short_name": "395-0031",
        "types": [
          "postal_code"
        ]
      }
    ],
    "formatted_address": "日本、〒395-0031 長野県飯田市銀座１丁目１５",
    "geometry": {
      "bounds": {
        "northeast": {
          "lat": 35.5158981,
          "lng": 137.8278029
        },
        "southwest": {
          "lat": 35.5157233,
          "lng": 137.8275679
        }
      },
      "location": {
        "lat": 35.5158121,
        "lng": 137.8277012
      },
      "location_type": "ROOFTOP",
      "viewport": {
        "northeast": {
          "lat": 35.5171596802915,
          "lng": 137.8290002302915
        },
        "southwest": {
          "lat": 35.5144617197085,
          "lng": 137.8263022697085
        }
      }
    },
    "place_id": "ChIJZU6OBpSZHGARtZXTkkEl3xw",
    "types": [
      "premise"
    ]
  }
]