[
  {
    "address_components": [
      {
        "long_name": "３６９３−６",
        "short_name": "３６９３−６",
        "types": [
          "premise"
        ]
      },
      {
        "long_name": "座光寺",
        "short_name": "座光寺",
        "types": [
          "political",
          "sublocality",
          "sublocality_level_2"
        ]
      },
      {
        "long_name": "飯田市",
        "short_name": "飯田市",
        "types": [
          "locality",
          "political"
        ]
      },
      {
        "long_name": "長野県",
        "short_name": "長野県",
        "types": [
          "administrative_area_level_1",
          "political"
        ]
      },
      {
        "long_name": "日本",
        "short_name": "JP",
        "types": [
          "country",
          "political"
        ]
      },
      {
        "long_name": "395-0001",
        "short_name": "395-0001",
        "types": [
          "postal_code"
        ]
      }
    ],
    "formatted_address": "日本、〒395-0001 長野県飯田市座光寺３６９３−６",
    "geometry": {
      "bounds": {
        "northeast": {
          "lat": 35.5313674,
          "lng": 137.8579433
        },
        "southwest": {
          "lat": 35.5312355,
          "lng": 137.8577648
        }
      },
      "location": {
        "lat": 35.531304,
        "lng": 137.8578495
      },
      "location_type": "ROOFTOP",
      "viewport": {
        "northeast": {
          "lat": 35.5326529802915,
          "lng": 137.8591656802915
        },
        "southwest": {
          "lat": 35.5299550197085,
          "lng": 137.8564677197085
        }
      }
    },
    "place_id": "ChIJU9jSdj6aHGAREvkzKfCt3lk",
    "types": [
      "premise"
    ]
  }
]