[
  {
    "address_components": [
      {
        "long_name": "３３３８−１",
        "short_name": "３３３８−１",
        "types": [
          "premise"
        ]
      },
      {
        "long_name": "山本",
        "short_name": "山本",
        "types": [
          "political",
          "sublocality",
          "sublocality_level_2"
        ]
      },
      {
        "long_name": "飯田市",
        "short_name": "飯田市",
        "types": [
          "locality",
          "political"
        ]
      },
      {
        "long_name": "長野県",
        "short_name": "長野県",
        "types": [
          "administrative_area_level_1",
          "political"
        ]
      },
      {
        "long_name": "日本",
        "short_name": "JP",
        "types": [
          "country",
          "political"
        ]
      },
      {
        "long_name": "395-0244",
        "short_name": "395-0244",
        "types": [
          "postal_code"
        ]
      }
    ],
    "formatted_address": "日本、〒395-0244 長野県飯田市山本３３３８−１",
    "geometry": {
      "bounds": {
        "northeast": {
          "lat": 35.471443,
          "lng": 137.7618774
        },
        "southwest": {
          "lat": 35.4712728,
          "lng": 137.7616998
        }
      },
      "location": {
        "lat": 35.4713579,
        "lng": 137.7617721
      },
      "location_type": "ROOFTOP",
      "viewport": {
        "northeast": {
          "lat": 35.4727068802915,
          "lng": 137.7631893802915
        },
        "southwest": {
          "lat": 35.4700089197085,
          "lng": 137.7604914197085
        }
      }
    },
    "place_id": "ChIJix0BCH-iHGARDmHBVyhrDNs",
    "types": [
      "premise"
    ]
  }
]