[
  {
    "address_components": [
      {
        "long_name": "２０",
        "short_name": "２０",
        "types": [
          "premise"
        ]
      },
      {
        "long_name": "主税町",
        "short_name": "主税町",
        "types": [
          "political",
          "sublocality",
          "sublocality_level_2"
        ]
      },
      {
        "long_name": "飯田市",
        "short_name": "飯田市",
        "types": [
          "locality",
          "political"
        ]
      },
      {
        "long_name": "長野県",
        "short_name": "長野県",
        "types": [
          "administrative_area_level_1",
          "political"
        ]
      },
      {
        "long_name": "日本",
        "short_name": "JP",
        "types": [
          "country",
          "political"
        ]
      },
      {
        "long_name": "395-0032",
        "short_name": "395-0032",
        "types": [
          "postal_code"
        ]
      }
    ],
    "formatted_address": "日本、〒395-0032 長野県飯田市主税町２０",
    "geometry": {
      "bounds": {
        "northeast": {
          "lat": 35.5148453,
          "lng": 137.8288652
        },
        "southwest": {
          "lat": 35.5143606,
          "lng": 137.8282031
        }
      },
      "location": {
        "lat": 35.5145954,
        "lng": 137.8286078
      },
      "location_type": "ROOFTOP",
      "viewport": {
        "northeast": {
          "lat": 35.51597468029149,
          "lng": 137.8298831302915
        },
        "southwest": {
          "lat": 35.51327671970849,
          "lng": 137.8271851697085
        }
      }
    },
    "place_id": "ChIJ51R0OJGZHGARPaaDUlFNk24",
    "types": [
      "premise"
    ]
  }
]