[
  {
    "address_components": [
      {
        "long_name": "２５",
        "short_name": "２５",
        "types": [
          "premise"
        ]
      },
      {
        "long_name": "主税町",
        "short_name": "主税町",
        "types": [
          "political",
          "sublocality",
          "sublocality_level_2"
        ]
      },
      {
        "long_name": "飯田市",
        "short_name": "飯田市",
        "types": [
          "locality",
          "political"
        ]
      },
      {
        "long_name": "長野県",
        "short_name": "長野県",
        "types": [
          "administrative_area_level_1",
          "political"
        ]
      },
      {
        "long_name": "日本",
        "short_name": "JP",
        "types": [
          "country",
          "political"
        ]
      },
      {
        "long_name": "395-0032",
        "short_name": "395-0032",
        "types": [
          "postal_code"
        ]
      }
    ],
    "formatted_address": "日本、〒395-0032 長野県飯田市主税町２５",
    "geometry": {
      "bounds": {
        "northeast": {
          "lat": 35.51476359999999,
          "lng": 137.8277971
        },
        "southwest": {
          "lat": 35.5145863,
          "lng": 137.8276412
        }
      },
      "location": {
        "lat": 35.5146998,
        "lng": 137.8277397
      },
      "location_type": "ROOFTOP",
      "viewport": {
        "northeast": {
          "lat": 35.5159938802915,
          "lng": 137.8290640302915
        },
        "southwest": {
          "lat": 35.5132959197085,
          "lng": 137.8263660697085
        }
      }
    },
    "place_id": "ChIJOxqks5aZHGARt44cv22YSoo",
    "types": [
      "premise"
    ]
  }
]