[
  {
    "address_components": [
      {
        "long_name": "１４５５−３",
        "short_name": "１４５５−３",
        "types": [
          "premise"
        ]
      },
      {
        "long_name": "松尾代田",
        "short_name": "松尾代田",
        "types": [
          "political",
          "sublocality",
          "sublocality_level_2"
        ]
      },
      {
        "long_name": "飯田市",
        "short_name": "飯田市",
        "types": [
          "locality",
          "political"
        ]
      },
      {
        "long_name": "長野県",
        "short_name": "長野県",
        "types": [
          "administrative_area_level_1",
          "political"
        ]
      },
      {
        "long_name": "日本",
        "short_name": "JP",
        "types": [
          "country",
          "political"
        ]
      },
      {
        "long_name": "395-0812",
        "short_name": "395-0812",
        "types": [
          "postal_code"
        ]
      }
    ],
    "formatted_address": "日本、〒395-0812 長野県飯田市松尾代田１４５５−３",
    "geometry": {
      "bounds": {
        "northeast": {
          "lat": 35.4910696,
          "lng": 137.8364785
        },
        "southwest": {
          "lat": 35.4909585,
          "lng": 137.8363694
        }
      },
      "location": {
        "lat": 35.4910046,
        "lng": 137.8364207
      },
      "location_type": "ROOFTOP",
      "viewport": {
        "northeast": {
          "lat": 35.4924277302915,
          "lng": 137.8377729302915
        },
        "southwest": {
          "lat": 35.4897297697085,
          "lng": 137.8350749697085
        }
      }
    },
    "place_id": "ChIJfc-6lWaZHGARlOWe0UTUUt8",
    "types": [
      "premise"
    ]
  }
]