[
  {
    "address_components": [
      {
        "long_name": "２７２１−１",
        "short_name": "２７２１−１",
        "types": [
          "premise"
        ]
      },
      {
        "long_name": "上郷黒田",
        "short_name": "上郷黒田",
        "types": [
          "political",
          "sublocality",
          "sublocality_level_2"
        ]
      },
      {
        "long_name": "飯田市",
        "short_name": "飯田市",
        "types": [
          "locality",
          "political"
        ]
      },
      {
        "long_name": "長野県",
        "short_name": "長野県",
        "types": [
          "administrative_area_level_1",
          "political"
        ]
      },
      {
        "long_name": "日本",
        "short_name": "JP",
        "types": [
          "country",
          "political"
        ]
      },
      {
        "long_name": "395-0004",
        "short_name": "395-0004",
        "types": [
          "postal_code"
        ]
      }
    ],
    "formatted_address": "日本、〒395-0004 長野県飯田市上郷黒田２７２１−１",
    "geometry": {
      "bounds": {
        "northeast": {
          "lat": 35.533569,
          "lng": 137.8359685
        },
        "southwest": {
          "lat": 35.5333292,
          "lng": 137.83567
        }
      },
      "location": {
        "lat": 35.5334521,
        "lng": 137.8358226
      },
      "location_type": "ROOFTOP",
      "viewport": {
        "northeast": {
          "lat": 35.5347980802915,
          "lng": 137.8370873802915
        },
        "southwest": {
          "lat": 35.5321001197085,
          "lng": 137.8343894197085
        }
      }
    },
    "place_id": "ChIJ66imZ_qZHGARAxC86zpkb64",
    "types": [
      "premise"
    ]
  }
]