[
  {
    "address_components": [
      {
        "long_name": "３４０３",
        "short_name": "３４０３",
        "types": [
          "premise"
        ]
      },
      {
        "long_name": "上郷飯沼",
        "short_name": "上郷飯沼",
        "types": [
          "political",
          "sublocality",
          "sublocality_level_2"
        ]
      },
      {
        "long_name": "飯田市",
        "short_name": "飯田市",
        "types": [
          "locality",
          "political"
        ]
      },
      {
        "long_name": "長野県",
        "short_name": "長野県",
        "types": [
          "administrative_area_level_1",
          "political"
        ]
      },
      {
        "long_name": "日本",
        "short_name": "JP",
        "types": [
          "country",
          "political"
        ]
      },
      {
        "long_name": "395-0002",
        "short_name": "395-0002",
        "types": [
          "postal_code"
        ]
      }
    ],
    "formatted_address": "日本、〒395-0002 長野県飯田市上郷飯沼３４０３",
    "geometry": {
      "bounds": {
        "northeast": {
          "lat": 35.5144326,
          "lng": 137.8484702
        },
        "southwest": {
          "lat": 35.5142568,
          "lng": 137.8481315
        }
      },
      "location": {
        "lat": 35.5143619,
        "lng": 137.8482484
      },
      "location_type": "ROOFTOP",
      "viewport": {
        "northeast": {
          "lat": 35.5156896802915,
          "lng": 137.8496703302915
        },
        "southwest": {
          "lat": 35.5129917197085,
          "lng": 137.8469723697085
        }
      }
    },
    "place_id": "ChIJ4fP5DSyaHGARXGQfqCPo9BI",
    "types": [
      "premise"
    ]
  }
]