[
  {
    "address_components": [
      {
        "long_name": "８２２−２",
        "short_name": "８２２−２",
        "types": [
          "premise"
        ]
      },
      {
        "long_name": "上郷飯沼",
        "short_name": "上郷飯沼",
        "types": [
          "political",
          "sublocality",
          "sublocality_level_2"
        ]
      },
      {
        "long_name": "飯田市",
        "short_name": "飯田市",
        "types": [
          "locality",
          "political"
        ]
      },
      {
        "long_name": "長野県",
        "short_name": "長野県",
        "types": [
          "administrative_area_level_1",
          "political"
        ]
      },
      {
        "long_name": "日本",
        "short_name": "JP",
        "types": [
          "country",
          "political"
        ]
      },
      {
        "long_name": "395-0002",
        "short_name": "395-0002",
        "types": [
          "postal_code"
        ]
      }
    ],
    "formatted_address": "日本、〒395-0002 長野県飯田市上郷飯沼８２２−２",
    "geometry": {
      "bounds": {
        "northeast": {
          "lat": 35.5213147,
          "lng": 137.8524367
        },
        "southwest": {
          "lat": 35.5209013,
          "lng": 137.8521038
        }
      },
      "location": {
        "lat": 35.5211603,
        "lng": 137.8522623
      },
      "location_type": "ROOFTOP",
      "viewport": {
        "northeast": {
          "lat": 35.52245698029149,
          "lng": 137.8535773302915
        },
        "southwest": {
          "lat": 35.51975901970849,
          "lng": 137.8508793697085
        }
      }
    },
    "place_id": "ChIJa3lM-S-aHGARIoIiLC_M3iA",
    "types": [
      "premise"
    ]
  }
]