[
  {
    "address_components": [
      {
        "long_name": "８−１",
        "short_name": "８−１",
        "types": [
          "premise"
        ]
      },
      {
        "long_name": "上殿岡",
        "short_name": "上殿岡",
        "types": [
          "political",
          "sublocality",
          "sublocality_level_2"
        ]
      },
      {
        "long_name": "飯田市",
        "short_name": "飯田市",
        "types": [
          "locality",
          "political"
        ]
      },
      {
        "long_name": "長野県",
        "short_name": "長野県",
        "types": [
          "administrative_area_level_1",
          "political"
        ]
      },
      {
        "long_name": "日本",
        "short_name": "JP",
        "types": [
          "country",
          "political"
        ]
      },
      {
        "long_name": "395-0153",
        "short_name": "395-0153",
        "types": [
          "postal_code"
        ]
      }
    ],
    "formatted_address": "日本、〒395-0153 長野県飯田市上殿岡８−１",
    "geometry": {
      "bounds": {
        "northeast": {
          "lat": 35.4957523,
          "lng": 137.8028114
        },
        "southwest": {
          "lat": 35.4953398,
          "lng": 137.8018897
        }
      },
      "location": {
        "lat": 35.4955316,
        "lng": 137.8022259
      },
      "location_type": "ROOFTOP",
      "viewport": {
        "northeast": {
          "lat": 35.4968950302915,
          "lng": 137.8036995302915
        },
        "southwest": {
          "lat": 35.4941970697085,
          "lng": 137.8010015697085
        }
      }
    },
    "place_id": "ChIJp1ScX1OYHGARpviehHnA1do",
    "types": [
      "premise"
    ]
  }
]