[
  {
    "address_components": [
      {
        "long_name": "１３",
        "short_name": "１３",
        "types": [
          "premise"
        ]
      },
      {
        "long_name": "常盤町",
        "short_name": "常盤町",
        "types": [
          "political",
          "sublocality",
          "sublocality_level_2"
        ]
      },
      {
        "long_name": "飯田市",
        "short_name": "飯田市",
        "types": [
          "locality",
          "political"
        ]
      },
      {
        "long_name": "長野県",
        "short_name": "長野県",
        "types": [
          "administrative_area_level_1",
          "political"
        ]
      },
      {
        "long_name": "日本",
        "short_name": "JP",
        "types": [
          "country",
          "political"
        ]
      },
      {
        "long_name": "395-0033",
        "short_name": "395-0033",
        "types": [
          "postal_code"
        ]
      }
    ],
    "formatted_address": "日本、〒395-0033 長野県飯田市常盤町１３",
    "geometry": {
      "bounds": {
        "northeast": {
          "lat": 35.5134547,
          "lng": 137.8265635
        },
        "southwest": {
          "lat": 35.5133549,
          "lng": 137.8264418
        }
      },
      "location": {
        "lat": 35.5133997,
        "lng": 137.8264956
      },
      "location_type": "ROOFTOP",
      "viewport": {
        "northeast": {
          "lat": 35.5148150802915,
          "lng": 137.8278730302915
        },
        "southwest": {
          "lat": 35.5121171197085,
          "lng": 137.8251750697085
        }
      }
    },
    "partial_match": true,
    "place_id": "ChIJpUxz6ZaZHGARiIYVdZ4QvSA",
    "types": [
      "premise"
    ]
  }
]