[
  {
    "address_components": [
      {
        "long_name": "１８",
        "short_name": "１８",
        "types": [
          "premise"
        ]
      },
      {
        "long_name": "１丁目",
        "short_name": "１丁目",
        "types": [
          "political",
          "sublocality",
          "sublocality_level_3"
        ]
      },
      {
        "long_name": "中央通り",
        "short_name": "中央通り",
        "types": [
          "political",
          "sublocality",
          "sublocality_level_2"
        ]
      },
      {
        "long_name": "飯田市",
        "short_name": "飯田市",
        "types": [
          "locality",
          "political"
        ]
      },
      {
        "long_name": "長野県",
        "short_name": "長野県",
        "types": [
          "administrative_area_level_1",
          "political"
        ]
      },
      {
        "long_name": "日本",
        "short_name": "JP",
        "types": [
          "country",
          "political"
        ]
      },
      {
        "long_name": "395-0041",
        "short_name": "395-0041",
        "types": [
          "postal_code"
        ]
      }
    ],
    "formatted_address": "日本、〒395-0041 長野県飯田市中央通り１丁目１８",
    "geometry": {
      "bounds": {
        "northeast": {
          "lat": 35.51632370000001,
          "lng": 137.8264562
        },
        "southwest": {
          "lat": 35.5161628,
          "lng": 137.8262814
        }
      },
      "location": {
        "lat": 35.5162213,
        "lng": 137.8263509
      },
      "location_type": "ROOFTOP",
      "viewport": {
        "northeast": {
          "lat": 35.5176035302915,
          "lng": 137.8277364302915
        },
        "southwest": {
          "lat": 35.5149055697085,
          "lng": 137.8250384697085
        }
      }
    },
    "place_id": "ChIJA10ERJSZHGARjdJZ6z1zapc",
    "types": [
      "premise"
    ]
  }
]