[
  {
    "address_components": [
      {
        "long_name": "b1",
        "short_name": "b1",
        "types": [
          "subpremise"
        ]
      },
      {
        "long_name": "７",
        "short_name": "７",
        "types": [
          "premise"
        ]
      },
      {
        "long_name": "２丁目",
        "short_name": "２丁目",
        "types": [
          "political",
          "sublocality",
          "sublocality_level_3"
        ]
      },
      {
        "long_name": "中央通り",
        "short_name": "中央通り",
        "types": [
          "political",
          "sublocality",
          "sublocality_level_2"
        ]
      },
      {
        "long_name": "飯田市",
        "short_name": "飯田市",
        "types": [
          "locality",
          "political"
        ]
      },
      {
        "long_name": "長野県",
        "short_name": "長野県",
        "types": [
          "administrative_area_level_1",
          "political"
        ]
      },
      {
        "long_name": "日本",
        "short_name": "JP",
        "types": [
          "country",
          "political"
        ]
      },
      {
        "long_name": "395-0041",
        "short_name": "395-0041",
        "types": [
          "postal_code"
        ]
      }
    ],
    "formatted_address": "日本、〒395-0041 長野県飯田市中央通り２丁目７ b1",
    "geometry": {
      "bounds": {
        "northeast": {
          "lat": 35.5172719,
          "lng": 137.8254388
        },
        "southwest": {
          "lat": 35.5171184,
          "lng": 137.8252847
        }
      },
      "location": {
        "lat": 35.5172026,
        "lng": 137.8253479
      },
      "location_type": "ROOFTOP",
      "viewport": {
        "northeast": {
          "lat": 35.5185165302915,
          "lng": 137.8266894802915
        },
        "southwest": {
          "lat": 35.5158185697085,
          "lng": 137.8239915197085
        }
      }
    },
    "partial_match": true,
    "place_id": "EjhiMSwgMi1jaMWNbWUtNyBDaMWrxY1kxY1yaSwgSWlkYSwgTmFnYW5vIDM5NS0wMDQxLCBKYXBhbiIeGhwKFgoUChIJu0POApWZHGARGr9T4VuKw5MSAmIx",
    "types": [
      "subpremise"
    ]
  },
  {
    "address_components": [
      {
        "long_name": "７",
        "short_name": "７",
        "types": [
          "premise"
        ]
      },
      {
        "long_name": "２丁目",
        "short_name": "２丁目",
        "types": [
          "political",
          "sublocality",
          "sublocality_level_3"
        ]
      },
      {
        "long_name": "中央通り",
        "short_name": "中央通り",
        "types": [
          "political",
          "sublocality",
          "sublocality_level_2"
        ]
      },
      {
        "long_name": "飯田市",
        "short_name": "飯田市",
        "types": [
          "locality",
          "political"
        ]
      },
      {
        "long_name": "長野県",
        "short_name": "長野県",
        "types": [
          "administrative_area_level_1",
          "political"
        ]
      },
      {
        "long_name": "日本",
        "short_name": "JP",
        "types": [
          "country",
          "political"
        ]
      },
      {
        "long_name": "395-0041",
        "short_name": "395-0041",
        "types": [
          "postal_code"
        ]
      }
    ],
    "formatted_address": "日本、〒395-0041 長野県飯田市中央通り２丁目７",
    "geometry": {
      "bounds": {
        "northeast": {
          "lat": 35.5172719,
          "lng": 137.8254388
        },
        "southwest": {
          "lat": 35.5171184,
          "lng": 137.8252847
        }
      },
      "location": {
        "lat": 35.5172026,
        "lng": 137.8253479
      },
      "location_type": "ROOFTOP",
      "viewport": {
        "northeast": {
          "lat": 35.5185165302915,
          "lng": 137.8266894802915
        },
        "southwest": {
          "lat": 35.5158185697085,
          "lng": 137.8239915197085
        }
      }
    },
    "partial_match": true,
    "place_id": "ChIJu0POApWZHGARGr9T4VuKw5M",
    "types": [
      "premise"
    ]
  }
]