[
  {
    "address_components": [
      {
        "long_name": "23番地",
        "short_name": "23番地",
        "types": [
          "premise"
        ]
      },
      {
        "long_name": "２３",
        "short_name": "２３",
        "types": [
          "premise"
        ]
      },
      {
        "long_name": "２丁目",
        "short_name": "２丁目",
        "types": [
          "political",
          "sublocality",
          "sublocality_level_4"
        ]
      },
      {
        "long_name": "２丁目",
        "short_name": "２丁目",
        "types": [
          "political",
          "sublocality",
          "sublocality_level_3"
        ]
      },
      {
        "long_name": "通り町",
        "short_name": "通り町",
        "types": [
          "political",
          "sublocality",
          "sublocality_level_2"
        ]
      },
      {
        "long_name": "飯田市",
        "short_name": "飯田市",
        "types": [
          "locality",
          "political"
        ]
      },
      {
        "long_name": "長野県",
        "short_name": "長野県",
        "types": [
          "administrative_area_level_1",
          "political"
        ]
      },
      {
        "long_name": "日本",
        "short_name": "JP",
        "types": [
          "country",
          "political"
        ]
      },
      {
        "long_name": "395-0043",
        "short_name": "395-0043",
        "types": [
          "postal_code"
        ]
      }
    ],
    "formatted_address": "日本、〒395-0043 長野県飯田市通り町２丁目２丁目２３ 23番地",
    "geometry": {
      "bounds": {
        "northeast": {
          "lat": 35.5155637,
          "lng": 137.8251656
        },
        "southwest": {
          "lat": 35.5153814,
          "lng": 137.8249553
        }
      },
      "location": {
        "lat": 35.5154644,
        "lng": 137.8250778
      },
      "location_type": "ROOFTOP",
      "viewport": {
        "northeast": {
          "lat": 35.5168215302915,
          "lng": 137.8264094302915
        },
        "southwest": {
          "lat": 35.5141235697085,
          "lng": 137.8237114697085
        }
      }
    },
    "place_id": "ChIJA8FAtpWZHGAR0C-3DtcIae8",
    "types": [
      "premise"
    ]
  }
]