[
  {
    "address_components": [
      {
        "long_name": "４５６",
        "short_name": "４５６",
        "types": [
          "premise"
        ]
      },
      {
        "long_name": "鼎一色",
        "short_name": "鼎一色",
        "types": [
          "political",
          "sublocality",
          "sublocality_level_2"
        ]
      },
      {
        "long_name": "飯田市",
        "short_name": "飯田市",
        "types": [
          "locality",
          "political"
        ]
      },
      {
        "long_name": "長野県",
        "short_name": "長野県",
        "types": [
          "administrative_area_level_1",
          "political"
        ]
      },
      {
        "long_name": "日本",
        "short_name": "JP",
        "types": [
          "country",
          "political"
        ]
      },
      {
        "long_name": "395-0805",
        "short_name": "395-0805",
        "types": [
          "postal_code"
        ]
      }
    ],
    "formatted_address": "日本、〒395-0805 長野県飯田市鼎一色４５６",
    "geometry": {
      "bounds": {
        "northeast": {
          "lat": 35.5005003,
          "lng": 137.8163676
        },
        "southwest": {
          "lat": 35.4999518,
          "lng": 137.8155804
        }
      },
      "location": {
        "lat": 35.5001968,
        "lng": 137.8159937
      },
      "location_type": "ROOFTOP",
      "viewport": {
        "northeast": {
          "lat": 35.50157503029149,
          "lng": 137.8173229802915
        },
        "southwest": {
          "lat": 35.4988770697085,
          "lng": 137.8146250197085
        }
      }
    },
    "place_id": "ChIJjYikkqaZHGARmtRJuEMMbZU",
    "types": [
      "premise"
    ]
  }
]