{
  "candidates": [
    {
      "business_status": "OPERATIONAL",
      "formatted_address": "日本、〒395-0026 長野県飯田市鼎西鼎５７４",
      "geometry": {
        "location": {
          "lat": 35.5090629,
          "lng": 137.8367967
        },
        "viewport": {
          "northeast": {
            "lat": 35.51040687989272,
            "lng": 137.8381628298927
          },
          "southwest": {
            "lat": 35.50770722010727,
            "lng": 137.8354631701073
          }
        }
      },
      "icon": "https://maps.gstatic.com/mapfiles/place_api/icons/v1/png_71/restaurant-71.png",
      "name": "ピノキオ 鼎店",
      "photos": [
        {
          "height": 3024,
          "html_attributions": [
            "<a href=\"https://maps.google.com/maps/contrib/110311636204947864136\">A Google User</a>"
          ],
          "photo_reference": "Aap_uEAXrMSs7onFlKV8Tyh5pGzepj7r1ZebcAZwgfA7ZHJpdq99GJfbBZ2YmJnWv8nWA4hZ89F3a57VckUtNPxu5zY26Nfr253K_9q-9hbRnsRMv6c4PuKV57sHOtFR1ubZ-g9ITrBM40_TVo07Ja1pfzdXCaJljn9mXBkqKo260y-VO_MK",
          "width": 4032
        }
      ],
      "place_id": "ChIJz6bVwYOZHGARcj83Ah8z8hg",
      "plus_code": {
        "compound_code": "GR5P+JM 飯田市、長野県",
        "global_code": "8Q7VGR5P+JM"
      },
      "types": [
        "restaurant",
        "point_of_interest",
        "food",
        "establishment"
      ]
    },
    {
      "business_status": "OPERATIONAL",
      "formatted_address": "日本、〒399-2565 長野県飯田市桐林１８３２",
      "geometry": {
        "location": {
          "lat": 35.4722097,
          "lng": 137.8239248
        },
        "viewport": {
          "northeast": {
            "lat": 35.47340492989272,
            "lng": 137.8252398798927
          },
          "southwest": {
            "lat": 35.47070527010728,
            "lng": 137.8225402201072
          }
        }
      },
      "icon": "https://maps.gstatic.com/mapfiles/place_api/icons/v1/png_71/restaurant-71.png",
      "name": "ピノキオ桐林店",
      "photos": [
        {
          "height": 3024,
          "html_attributions": [
            "<a href=\"https://maps.google.com/maps/contrib/110831563661728846470\">A Google User</a>"
          ],
          "photo_reference": "Aap_uECSTvYjVsv3zWqrVqBLysDo22AkMJXENFfJN-TZYEsa45seFccTuU-SSGBGglfcDtfEyvH-e6Q-Tte0ba1Z3kZk0_4uFn_8vv2X9VYm2y17i4FYQX1dASmuv1YMZck1y4WZQJskn1wyfOsbaeheMB1izNtF4nSeGmEuECchvPdgTaAR",
          "width": 4032
        }
      ],
      "place_id": "ChIJ3Q3RFkiZHGARcZm8ETSWgB4",
      "plus_code": {
        "compound_code": "FRCF+VH 飯田市、長野県",
        "global_code": "8Q7VFRCF+VH"
      },
      "types": [
        "restaurant",
        "point_of_interest",
        "food",
        "establishment"
      ]
    }
  ],
  "status": "OK"
}