[
  {
    "address_components": [
      {
        "long_name": "飯田市",
        "short_name": "飯田市",
        "types": [
          "locality",
          "political"
        ]
      },
      {
        "long_name": "長野県",
        "short_name": "長野県",
        "types": [
          "administrative_area_level_1",
          "political"
        ]
      },
      {
        "long_name": "日本",
        "short_name": "JP",
        "types": [
          "country",
          "political"
        ]
      }
    ],
    "formatted_address": "日本、長野県飯田市",
    "geometry": {
      "bounds": {
        "northeast": {
          "lat": 35.655717,
          "lng": 138.1530655
        },
        "southwest": {
          "lat": 35.253339,
          "lng": 137.6892207
        }
      },
      "location": {
        "lat": 35.51487,
        "lng": 137.8217006
      },
      "location_type": "APPROXIMATE",
      "viewport": {
        "northeast": {
          "lat": 35.655717,
          "lng": 138.1530655
        },
        "southwest": {
          "lat": 35.253339,
          "lng": 137.6892207
        }
      }
    },
    "partial_match": true,
    "place_id": "ChIJNeX_xjSdHGARxqitnTSMRU4",
    "types": [
      "locality",
      "political"
    ]
  },
  {
    "address_components": [
      {
        "long_name": "2F",
        "short_name": "2F",
        "types": [
          "subpremise"
        ]
      },
      {
        "long_name": "１６",
        "short_name": "１６",
        "types": [
          "premise"
        ]
      },
      {
        "long_name": "８",
        "short_name": "８",
        "types": [
          "political",
          "sublocality",
          "sublocality_level_4"
        ]
      },
      {
        "long_name": "４丁目",
        "short_name": "４丁目",
        "types": [
          "political",
          "sublocality",
          "sublocality_level_3"
        ]
      },
      {
        "long_name": "淡路",
        "short_name": "淡路",
        "types": [
          "political",
          "sublocality",
          "sublocality_level_2"
        ]
      },
      {
        "long_name": "東淀川区",
        "short_name": "東淀川区",
        "types": [
          "political",
          "sublocality",
          "sublocality_level_1"
        ]
      },
      {
        "long_name": "大阪市",
        "short_name": "大阪市",
        "types": [
          "locality",
          "political"
        ]
      },
      {
        "long_name": "大阪府",
        "short_name": "大阪府",
        "types": [
          "administrative_area_level_1",
          "political"
        ]
      },
      {
        "long_name": "日本",
        "short_name": "JP",
        "types": [
          "country",
          "political"
        ]
      },
      {
        "long_name": "533-0032",
        "short_name": "533-0032",
        "types": [
          "postal_code"
        ]
      }
    ],
    "formatted_address": "日本、〒533-0032 大阪府大阪市東淀川区淡路４丁目８−１６ 2F",
    "geometry": {
      "location": {
        "lat": 34.7398233,
        "lng": 135.5163214
      },
      "location_type": "ROOFTOP",
      "viewport": {
        "northeast": {
          "lat": 34.74117228029149,
          "lng": 135.5176703802915
        },
        "southwest": {
          "lat": 34.73847431970849,
          "lng": 135.5149724197085
        }
      }
    },
    "partial_match": true,
    "place_id": "ChIJB_ZAVjHlAGARvEfn3hpKiU0",
    "plus_code": {
      "compound_code": "PGQ8+WG 大阪府大阪市",
      "global_code": "8Q6QPGQ8+WG"
    },
    "types": [
      "cafe",
      "establishment",
      "food",
      "point_of_interest",
      "store"
    ]
  }
]