[
  {
    "address_components": [
      {
        "long_name": "４１",
        "short_name": "４１",
        "types": [
          "premise"
        ]
      },
      {
        "long_name": "１丁目",
        "short_name": "１丁目",
        "types": [
          "political",
          "sublocality",
          "sublocality_level_3"
        ]
      },
      {
        "long_name": "伝馬町",
        "short_name": "伝馬町",
        "types": [
          "political",
          "sublocality",
          "sublocality_level_2"
        ]
      },
      {
        "long_name": "飯田市",
        "short_name": "飯田市",
        "types": [
          "locality",
          "political"
        ]
      },
      {
        "long_name": "長野県",
        "short_name": "長野県",
        "types": [
          "administrative_area_level_1",
          "political"
        ]
      },
      {
        "long_name": "日本",
        "short_name": "JP",
        "types": [
          "country",
          "political"
        ]
      },
      {
        "long_name": "395-0016",
        "short_name": "395-0016",
        "types": [
          "postal_code"
        ]
      }
    ],
    "formatted_address": "日本、〒395-0016 長野県飯田市伝馬町１丁目４１",
    "geometry": {
      "bounds": {
        "northeast": {
          "lat": 35.5166027,
          "lng": 137.8278054
        },
        "southwest": {
          "lat": 35.5164507,
          "lng": 137.8276126
        }
      },
      "location": {
        "lat": 35.5164988,
        "lng": 137.8277397
      },
      "location_type": "ROOFTOP",
      "viewport": {
        "northeast": {
          "lat": 35.51784258029151,
          "lng": 137.8290403802915
        },
        "southwest": {
          "lat": 35.51514461970851,
          "lng": 137.8263424197085
        }
      }
    },
    "place_id": "ChIJx2fMCpSZHGAR8B11HdAbvWE",
    "types": [
      "premise"
    ]
  }
]