[
  {
    "address_components": [
      {
        "long_name": "１４９６",
        "short_name": "１４９６",
        "types": [
          "premise"
        ]
      },
      {
        "long_name": "南信濃和田",
        "short_name": "南信濃和田",
        "types": [
          "political",
          "sublocality",
          "sublocality_level_2"
        ]
      },
      {
        "long_name": "飯田市",
        "short_name": "飯田市",
        "types": [
          "locality",
          "political"
        ]
      },
      {
        "long_name": "長野県",
        "short_name": "長野県",
        "types": [
          "administrative_area_level_1",
          "political"
        ]
      },
      {
        "long_name": "日本",
        "short_name": "JP",
        "types": [
          "country",
          "political"
        ]
      },
      {
        "long_name": "399-1311",
        "short_name": "399-1311",
        "types": [
          "postal_code"
        ]
      }
    ],
    "formatted_address": "日本、〒399-1311 長野県飯田市南信濃和田１４９６",
    "geometry": {
      "bounds": {
        "northeast": {
          "lat": 35.3197501,
          "lng": 137.9322168
        },
        "southwest": {
          "lat": 35.3196159,
          "lng": 137.932061
        }
      },
      "location": {
        "lat": 35.3196811,
        "lng": 137.9321595
      },
      "location_type": "ROOFTOP",
      "viewport": {
        "northeast": {
          "lat": 35.3210225802915,
          "lng": 137.9334878802915
        },
        "southwest": {
          "lat": 35.3183246197085,
          "lng": 137.9307899197085
        }
      }
    },
    "place_id": "ChIJjdFCWsV6G2ARvXSYtG7T4JQ",
    "types": [
      "premise"
    ]
  }
]