[
  {
    "address_components": [
      {
        "long_name": "４５６−１",
        "short_name": "４５６−１",
        "types": [
          "premise"
        ]
      },
      {
        "long_name": "南信濃和田",
        "short_name": "南信濃和田",
        "types": [
          "political",
          "sublocality",
          "sublocality_level_2"
        ]
      },
      {
        "long_name": "飯田市",
        "short_name": "飯田市",
        "types": [
          "locality",
          "political"
        ]
      },
      {
        "long_name": "長野県",
        "short_name": "長野県",
        "types": [
          "administrative_area_level_1",
          "political"
        ]
      },
      {
        "long_name": "日本",
        "short_name": "JP",
        "types": [
          "country",
          "political"
        ]
      },
      {
        "long_name": "399-1311",
        "short_name": "399-1311",
        "types": [
          "postal_code"
        ]
      }
    ],
    "formatted_address": "日本、〒399-1311 長野県飯田市南信濃和田４５６−１",
    "geometry": {
      "bounds": {
        "northeast": {
          "lat": 35.3219196,
          "lng": 137.9311722
        },
        "southwest": {
          "lat": 35.32169409999999,
          "lng": 137.9307644
        }
      },
      "location": {
        "lat": 35.3218179,
        "lng": 137.9309032
      },
      "location_type": "ROOFTOP",
      "viewport": {
        "northeast": {
          "lat": 35.3231578802915,
          "lng": 137.9323172802915
        },
        "southwest": {
          "lat": 35.3204599197085,
          "lng": 137.9296193197085
        }
      }
    },
    "place_id": "ChIJ2-aOY9B6G2ARDbHDWXcZXSQ",
    "types": [
      "premise"
    ]
  }
]