[
  {
    "address_components": [
      {
        "long_name": "４７６−１",
        "short_name": "４７６−１",
        "types": [
          "premise"
        ]
      },
      {
        "long_name": "北方",
        "short_name": "北方",
        "types": [
          "political",
          "sublocality",
          "sublocality_level_2"
        ]
      },
      {
        "long_name": "飯田市",
        "short_name": "飯田市",
        "types": [
          "locality",
          "political"
        ]
      },
      {
        "long_name": "長野県",
        "short_name": "長野県",
        "types": [
          "administrative_area_level_1",
          "political"
        ]
      },
      {
        "long_name": "日本",
        "short_name": "JP",
        "types": [
          "country",
          "political"
        ]
      },
      {
        "long_name": "395-0151",
        "short_name": "395-0151",
        "types": [
          "postal_code"
        ]
      }
    ],
    "formatted_address": "日本、〒395-0151 長野県飯田市北方４７６−１",
    "geometry": {
      "bounds": {
        "northeast": {
          "lat": 35.5013391,
          "lng": 137.8091688
        },
        "southwest": {
          "lat": 35.501266,
          "lng": 137.8090037
        }
      },
      "location": {
        "lat": 35.5013046,
        "lng": 137.8090708
      },
      "location_type": "ROOFTOP",
      "viewport": {
        "northeast": {
          "lat": 35.5025347302915,
          "lng": 137.8104352302915
        },
        "southwest": {
          "lat": 35.4998367697085,
          "lng": 137.8077372697085
        }
      }
    },
    "place_id": "ChIJ46sxb66ZHGARhZWb71fFGD0",
    "types": [
      "premise"
    ]
  }
]