[
  {
    "address_components": [
      {
        "long_name": "７４５４",
        "short_name": "７４５４",
        "types": [
          "premise"
        ]
      },
      {
        "long_name": "龍江",
        "short_name": "龍江",
        "types": [
          "political",
          "sublocality",
          "sublocality_level_2"
        ]
      },
      {
        "long_name": "飯田市",
        "short_name": "飯田市",
        "types": [
          "locality",
          "political"
        ]
      },
      {
        "long_name": "長野県",
        "short_name": "長野県",
        "types": [
          "administrative_area_level_1",
          "political"
        ]
      },
      {
        "long_name": "日本",
        "short_name": "JP",
        "types": [
          "country",
          "political"
        ]
      },
      {
        "long_name": "399-2221",
        "short_name": "399-2221",
        "types": [
          "postal_code"
        ]
      }
    ],
    "formatted_address": "日本、〒399-2221 長野県飯田市龍江７４５４",
    "geometry": {
      "bounds": {
        "northeast": {
          "lat": 35.4406611,
          "lng": 137.8202173
        },
        "southwest": {
          "lat": 35.4400694,
          "lng": 137.8198218
        }
      },
      "location": {
        "lat": 35.4404434,
        "lng": 137.8200052
      },
      "location_type": "ROOFTOP",
      "viewport": {
        "northeast": {
          "lat": 35.4417251802915,
          "lng": 137.8214289302915
        },
        "southwest": {
          "lat": 35.43902721970851,
          "lng": 137.8187309697085
        }
      }
    },
    "place_id": "ChIJz8JFheueHGARXRKVQb714Nk",
    "types": [
      "premise"
    ]
  }
]