[
  {
    "address_components": [
      {
        "long_name": "２２２２",
        "short_name": "２２２２",
        "types": [
          "premise"
        ]
      },
      {
        "long_name": "平穏",
        "short_name": "平穏",
        "types": [
          "political",
          "sublocality",
          "sublocality_level_2"
        ]
      },
      {
        "long_name": "山ノ内町",
        "short_name": "山ノ内町",
        "types": [
          "locality",
          "political"
        ]
      },
      {
        "long_name": "下高井郡",
        "short_name": "下高井郡",
        "types": [
          "administrative_area_level_2",
          "political"
        ]
      },
      {
        "long_name": "長野県",
        "short_name": "長野県",
        "types": [
          "administrative_area_level_1",
          "political"
        ]
      },
      {
        "long_name": "日本",
        "short_name": "JP",
        "types": [
          "country",
          "political"
        ]
      },
      {
        "long_name": "381-0401",
        "short_name": "381-0401",
        "types": [
          "postal_code"
        ]
      }
    ],
    "formatted_address": "日本、〒381-0401 長野県下高井郡山ノ内町平穏２２２２",
    "geometry": {
      "bounds": {
        "northeast": {
          "lat": 36.7344877,
          "lng": 138.433458
        },
        "southwest": {
          "lat": 36.7343437,
          "lng": 138.4332759
        }
      },
      "location": {
        "lat": 36.7344079,
        "lng": 138.4333541
      },
      "location_type": "ROOFTOP",
      "viewport": {
        "northeast": {
          "lat": 36.7357646802915,
          "lng": 138.4347159302915
        },
        "southwest": {
          "lat": 36.7330667197085,
          "lng": 138.4320179697085
        }
      }
    },
    "place_id": "ChIJNWCW0IP0HWARXb5Z-SwXlW8",
    "types": [
      "premise"
    ]
  }
]