{
  "candidates": [
    {
      "business_status": "OPERATIONAL",
      "formatted_address": "日本、〒389-1303 長野県上水内郡信濃町野尻３８０７−３０",
      "geometry": {
        "location": {
          "lat": 36.8214281,
          "lng": 138.1678216
        },
        "viewport": {
          "northeast": {
            "lat": 36.82286142989273,
            "lng": 138.1693974298927
          },
          "southwest": {
            "lat": 36.82016177010728,
            "lng": 138.1666977701073
          }
        }
      },
      "icon": "https://maps.gstatic.com/mapfiles/place_api/icons/v1/png_71/museum-71.png",
      "name": "黒姫童話館",
      "photos": [
        {
          "height": 3000,
          "html_attributions": [
            "<a href=\"https://maps.google.com/maps/contrib/100392386744192681983\">ichihara yumiko</a>"
          ],
          "photo_reference": "Aap_uEDl8rwHGdn4O3suaME_cg9MtgwMyBkZU8ThJztDlQQfAApBl-aC4zAmTPcN3ZRAs00dmTHxEbqXRuihq4QNXnDApdhzpg2lJJgZqd1MoBS1XVV8iuhpbFB8gBDzBRoqxL2tBOcbIfcjlw8aRY-Bq478pGpGXSmshkSFtQVTbBfyndpS",
          "width": 5333
        }
      ],
      "place_id": "ChIJWS5_17sk9l8RNZvtNGIQsFY",
      "plus_code": {
        "compound_code": "R5C9+H4 信濃町、長野県",
        "global_code": "8Q8WR5C9+H4"
      },
      "types": [
        "tourist_attraction",
        "museum",
        "point_of_interest",
        "establishment"
      ]
    },
    {
      "business_status": "OPERATIONAL",
      "formatted_address": "日本、〒389-1303 長野県上水内郡信濃町野尻３８０７−３０",
      "geometry": {
        "location": {
          "lat": 36.8222055,
          "lng": 138.1682011
        },
        "viewport": {
          "northeast": {
            "lat": 36.82348967989272,
            "lng": 138.1696733298927
          },
          "southwest": {
            "lat": 36.82079002010727,
            "lng": 138.1669736701073
          }
        }
      },
      "icon": "https://maps.gstatic.com/mapfiles/place_api/icons/v1/png_71/museum-71.png",
      "name": "童話の森ギャラリー",
      "photos": [
        {
          "height": 2160,
          "html_attributions": [
            "<a href=\"https://maps.google.com/maps/contrib/108272841419725315470\">ttcoupetq</a>"
          ],
          "photo_reference": "Aap_uEAtgus1pq9_So9EV0i6BI3yglluKRyv1M3uFXEFd7L2RVPuloVEZsltTRPp9vpL7-tGmooxplAqUMDrsPeKwesS6qO0trbK5rE8ssnCq_R2gMt0XG4oQqpID7gkFS1zkw1w6-dm-hx4rCpSChaUNEcMzb2lzmVrKbb2oZnBfPcnIqE-",
          "width": 3840
        }
      ],
      "place_id": "ChIJN7ksN7Ak9l8RE47tbFgd_Bc",
      "plus_code": {
        "compound_code": "R5C9+V7 信濃町、長野県",
        "global_code": "8Q8WR5C9+V7"
      },
      "types": [
        "tourist_attraction",
        "museum",
        "point_of_interest",
        "establishment"
      ]
    }
  ],
  "status": "OK"
}