[
  {
    "address_components": [
      {
        "long_name": "２９１２−１",
        "short_name": "２９１２−１",
        "types": [
          "premise"
        ]
      },
      {
        "long_name": "井上",
        "short_name": "井上",
        "types": [
          "political",
          "sublocality",
          "sublocality_level_2"
        ]
      },
      {
        "long_name": "須坂市",
        "short_name": "須坂市",
        "types": [
          "locality",
          "political"
        ]
      },
      {
        "long_name": "長野県",
        "short_name": "長野県",
        "types": [
          "administrative_area_level_1",
          "political"
        ]
      },
      {
        "long_name": "日本",
        "short_name": "JP",
        "types": [
          "country",
          "political"
        ]
      },
      {
        "long_name": "382-0045",
        "short_name": "382-0045",
        "types": [
          "postal_code"
        ]
      }
    ],
    "formatted_address": "日本、〒382-0045 長野県須坂市井上２９１２−１",
    "geometry": {
      "bounds": {
        "northeast": {
          "lat": 36.6303945,
          "lng": 138.2902402
        },
        "southwest": {
          "lat": 36.6303305,
          "lng": 138.2901934
        }
      },
      "location": {
        "lat": 36.6303631,
        "lng": 138.2902157
      },
      "location_type": "ROOFTOP",
      "viewport": {
        "northeast": {
          "lat": 36.6316868802915,
          "lng": 138.2915058302915
        },
        "southwest": {
          "lat": 36.6289889197085,
          "lng": 138.2888078697085
        }
      }
    },
    "place_id": "ChIJvVcyHlqOHWARGSqT9G9BeTk",
    "types": [
      "premise"
    ]
  }
]