[
  {
    "address_components": [
      {
        "long_name": "小河原",
        "short_name": "小河原",
        "types": [
          "political",
          "sublocality",
          "sublocality_level_2"
        ]
      },
      {
        "long_name": "須坂市",
        "short_name": "須坂市",
        "types": [
          "locality",
          "political"
        ]
      },
      {
        "long_name": "長野県",
        "short_name": "長野県",
        "types": [
          "administrative_area_level_1",
          "political"
        ]
      },
      {
        "long_name": "日本",
        "short_name": "JP",
        "types": [
          "country",
          "political"
        ]
      },
      {
        "long_name": "382-0071",
        "short_name": "382-0071",
        "types": [
          "postal_code"
        ]
      }
    ],
    "formatted_address": "日本、〒382-0071 長野県須坂市小河原",
    "geometry": {
      "bounds": {
        "northeast": {
          "lat": 36.6883535,
          "lng": 138.3222971
        },
        "southwest": {
          "lat": 36.6610244,
          "lng": 138.2920702
        }
      },
      "location": {
        "lat": 36.6799038,
        "lng": 138.3065707
      },
      "location_type": "APPROXIMATE",
      "viewport": {
        "northeast": {
          "lat": 36.6883535,
          "lng": 138.3222971
        },
        "southwest": {
          "lat": 36.6610244,
          "lng": 138.2920702
        }
      }
    },
    "partial_match": true,
    "place_id": "ChIJaRqqSLKOHWARmQ1K7-bPs10",
    "types": [
      "political",
      "sublocality",
      "sublocality_level_2"
    ]
  },
  {
    "address_components": [
      {
        "long_name": "松川町",
        "short_name": "松川町",
        "types": [
          "locality",
          "political"
        ]
      },
      {
        "long_name": "下伊那郡",
        "short_name": "下伊那郡",
        "types": [
          "administrative_area_level_2",
          "political"
        ]
      },
      {
        "long_name": "長野県",
        "short_name": "長野県",
        "types": [
          "administrative_area_level_1",
          "political"
        ]
      },
      {
        "long_name": "日本",
        "short_name": "JP",
        "types": [
          "country",
          "political"
        ]
      }
    ],
    "formatted_address": "日本、長野県下伊那郡松川町",
    "geometry": {
      "bounds": {
        "northeast": {
          "lat": 35.6527173,
          "lng": 138.018444
        },
        "southwest": {
          "lat": 35.548076,
          "lng": 137.8076584
        }
      },
      "location": {
        "lat": 35.5971748,
        "lng": 137.9096363
      },
      "location_type": "APPROXIMATE",
      "viewport": {
        "northeast": {
          "lat": 35.6527173,
          "lng": 138.018444
        },
        "southwest": {
          "lat": 35.548076,
          "lng": 137.8076584
        }
      }
    },
    "partial_match": true,
    "place_id": "ChIJCw4_3SSQHGARzPXl3DTlNow",
    "types": [
      "locality",
      "political"
    ]
  }
]