[
  {
    "address_components": [
      {
        "long_name": "２９４１−５０",
        "short_name": "２９４１−５０",
        "types": [
          "premise"
        ]
      },
      {
        "long_name": "平穏",
        "short_name": "平穏",
        "types": [
          "political",
          "sublocality",
          "sublocality_level_2"
        ]
      },
      {
        "long_name": "山ノ内町",
        "short_name": "山ノ内町",
        "types": [
          "locality",
          "political"
        ]
      },
      {
        "long_name": "下高井郡",
        "short_name": "下高井郡",
        "types": [
          "administrative_area_level_2",
          "political"
        ]
      },
      {
        "long_name": "長野県",
        "short_name": "長野県",
        "types": [
          "administrative_area_level_1",
          "political"
        ]
      },
      {
        "long_name": "日本",
        "short_name": "JP",
        "types": [
          "country",
          "political"
        ]
      },
      {
        "long_name": "381-0401",
        "short_name": "381-0401",
        "types": [
          "postal_code"
        ]
      }
    ],
    "formatted_address": "日本、〒381-0401 長野県下高井郡山ノ内町平穏２９４１−５０",
    "geometry": {
      "bounds": {
        "northeast": {
          "lat": 36.7395694,
          "lng": 138.4160684
        },
        "southwest": {
          "lat": 36.7393472,
          "lng": 138.415748
        }
      },
      "location": {
        "lat": 36.7394699,
        "lng": 138.4159374
      },
      "location_type": "ROOFTOP",
      "viewport": {
        "northeast": {
          "lat": 36.7408080302915,
          "lng": 138.4172571802915
        },
        "southwest": {
          "lat": 36.7381100697085,
          "lng": 138.4145592197085
        }
      }
    },
    "place_id": "ChIJWe-s-770HWARoOvTOtb5K10",
    "types": [
      "premise"
    ]
  }
]