[
  {
    "address_components": [
      {
        "long_name": "７４２−１",
        "short_name": "７４２−１",
        "types": [
          "premise"
        ]
      },
      {
        "long_name": "豊丘",
        "short_name": "豊丘",
        "types": [
          "political",
          "sublocality",
          "sublocality_level_2"
        ]
      },
      {
        "long_name": "須坂市",
        "short_name": "須坂市",
        "types": [
          "locality",
          "political"
        ]
      },
      {
        "long_name": "長野県",
        "short_name": "長野県",
        "types": [
          "administrative_area_level_1",
          "political"
        ]
      },
      {
        "long_name": "日本",
        "short_name": "JP",
        "types": [
          "country",
          "political"
        ]
      },
      {
        "long_name": "382-0021",
        "short_name": "382-0021",
        "types": [
          "postal_code"
        ]
      }
    ],
    "formatted_address": "日本、〒382-0021 長野県須坂市豊丘７４２−１",
    "geometry": {
      "bounds": {
        "northeast": {
          "lat": 36.6330932,
          "lng": 138.3464674
        },
        "southwest": {
          "lat": 36.632935,
          "lng": 138.346193
        }
      },
      "location": {
        "lat": 36.6330154,
        "lng": 138.3463453
      },
      "location_type": "ROOFTOP",
      "viewport": {
        "northeast": {
          "lat": 36.63437613029149,
          "lng": 138.3476791802915
        },
        "southwest": {
          "lat": 36.63167816970849,
          "lng": 138.3449812197085
        }
      }
    },
    "place_id": "ChIJlQrsypGNHWAR7j52toAk4qs",
    "types": [
      "premise"
    ]
  }
]