{
  "candidates": [
    {
      "business_status": "OPERATIONAL",
      "formatted_address": "日本、〒382-0098 長野県須坂市墨坂南２丁目１５−１",
      "geometry": {
        "location": {
          "lat": 36.647043,
          "lng": 138.2948926
        },
        "viewport": {
          "northeast": {
            "lat": 36.64844017989272,
            "lng": 138.2962611798927
          },
          "southwest": {
            "lat": 36.64574052010728,
            "lng": 138.2935615201073
          }
        }
      },
      "icon": "https://maps.gstatic.com/mapfiles/place_api/icons/v1/png_71/restaurant-71.png",
      "name": "りんごの木 須坂墨坂店",
      "photos": [
        {
          "height": 1944,
          "html_attributions": [
            "<a href=\"https://maps.google.com/maps/contrib/109262020791194273168\">Tadao</a>"
          ],
          "photo_reference": "Aap_uEA1oJODEPwpB9B52-N7IdlG_pKURNfUxuH8yER3z6UivmSk-Y7bKddfaRaswXBJc_pcsTlDrpdTQxLLVfmqWmAvNK6MuE4WG7iB6Cs-nMR7gllprtVhlyoTAwnNGjZxcUqpVFNWLEbJQ-EYCbs0slkPMNpXn_99sO437nCuHlokJxWE",
          "width": 2592
        }
      ],
      "place_id": "ChIJZbdxwu2OHWARrFyqgsa1glg",
      "plus_code": {
        "compound_code": "J7WV+RX 須坂市、長野県",
        "global_code": "8Q8WJ7WV+RX"
      },
      "types": [
        "bakery",
        "food",
        "point_of_interest",
        "store",
        "establishment"
      ]
    },
    {
      "business_status": "OPERATIONAL",
      "formatted_address": "日本、〒382-0099 長野県須坂市墨坂３丁目３−７",
      "geometry": {
        "location": {
          "lat": 36.6495173,
          "lng": 138.3038067
        },
        "viewport": {
          "northeast": {
            "lat": 36.65083267989272,
            "lng": 138.3052245798928
          },
          "southwest": {
            "lat": 36.64813302010727,
            "lng": 138.3025249201073
          }
        }
      },
      "icon": "https://maps.gstatic.com/mapfiles/place_api/icons/v1/png_71/generic_business-71.png",
      "name": "美容室りんごの木 須坂店",
      "photos": [
        {
          "height": 1069,
          "html_attributions": [
            "<a href=\"https://maps.google.com/maps/contrib/116114813244303341249\">nori baba</a>"
          ],
          "photo_reference": "Aap_uECODf1rsaUqVMMH79ZwvMSrBX1MnkqSq2MqFiGPOfHW_kJrOspSFS8AdJPgWKVi82AGjfEfDPpIfm8f8IFR90Zi7fGbB2sm8EPyUaXchZU3NkgYUXB6DfLC2AVvPtChMJG6glnM0iYqJbsm9q17E0kYZiIjDbcc3JpxRJfG5kaNmhJa",
          "width": 1892
        }
      ],
      "place_id": "ChIJ0R-y-I2OHWARUhZ0-PleRz8",
      "plus_code": {
        "compound_code": "J8X3+RF 須坂市、長野県",
        "global_code": "8Q8WJ8X3+RF"
      },
      "types": [
        "hair_care",
        "point_of_interest",
        "establishment"
      ]
    }
  ],
  "status": "OK"
}