[
  {
    "address_components": [
      {
        "long_name": "１",
        "short_name": "１",
        "types": [
          "premise"
        ]
      },
      {
        "long_name": "１５",
        "short_name": "１５",
        "types": [
          "political",
          "sublocality",
          "sublocality_level_4"
        ]
      },
      {
        "long_name": "２丁目",
        "short_name": "２丁目",
        "types": [
          "political",
          "sublocality",
          "sublocality_level_3"
        ]
      },
      {
        "long_name": "墨坂南",
        "short_name": "墨坂南",
        "types": [
          "political",
          "sublocality",
          "sublocality_level_2"
        ]
      },
      {
        "long_name": "須坂市",
        "short_name": "須坂市",
        "types": [
          "locality",
          "political"
        ]
      },
      {
        "long_name": "長野県",
        "short_name": "長野県",
        "types": [
          "administrative_area_level_1",
          "political"
        ]
      },
      {
        "long_name": "日本",
        "short_name": "JP",
        "types": [
          "country",
          "political"
        ]
      },
      {
        "long_name": "382-0098",
        "short_name": "382-0098",
        "types": [
          "postal_code"
        ]
      }
    ],
    "formatted_address": "日本、〒382-0098 長野県須坂市墨坂南２丁目１５−１",
    "geometry": {
      "bounds": {
        "northeast": {
          "lat": 36.64709149999999,
          "lng": 138.2950327
        },
        "southwest": {
          "lat": 36.6469364,
          "lng": 138.294827
        }
      },
      "location": {
        "lat": 36.6470121,
        "lng": 138.2949145
      },
      "location_type": "ROOFTOP",
      "viewport": {
        "northeast": {
          "lat": 36.6483915302915,
          "lng": 138.2962788302915
        },
        "southwest": {
          "lat": 36.6456935697085,
          "lng": 138.2935808697085
        }
      }
    },
    "place_id": "ChIJYytwwu2OHWAR9dqa3eKl6YQ",
    "types": [
      "premise"
    ]
  }
]