[
  {
    "address_components": [
      {
        "long_name": "２７８８",
        "short_name": "２７８８",
        "types": [
          "premise"
        ]
      },
      {
        "long_name": "屋代",
        "short_name": "屋代",
        "types": [
          "political",
          "sublocality",
          "sublocality_level_2"
        ]
      },
      {
        "long_name": "千曲市",
        "short_name": "千曲市",
        "types": [
          "locality",
          "political"
        ]
      },
      {
        "long_name": "長野県",
        "short_name": "長野県",
        "types": [
          "administrative_area_level_1",
          "political"
        ]
      },
      {
        "long_name": "日本",
        "short_name": "JP",
        "types": [
          "country",
          "political"
        ]
      },
      {
        "long_name": "387-0007",
        "short_name": "387-0007",
        "types": [
          "postal_code"
        ]
      }
    ],
    "formatted_address": "日本、〒387-0007 長野県千曲市屋代２７８８",
    "geometry": {
      "bounds": {
        "northeast": {
          "lat": 36.5530203,
          "lng": 138.1373586
        },
        "southwest": {
          "lat": 36.55272679999999,
          "lng": 138.1370617
        }
      },
      "location": {
        "lat": 36.552845,
        "lng": 138.1372458
      },
      "location_type": "ROOFTOP",
      "viewport": {
        "northeast": {
          "lat": 36.5542225302915,
          "lng": 138.1384156302915
        },
        "southwest": {
          "lat": 36.5515245697085,
          "lng": 138.1357176697085
        }
      }
    },
    "place_id": "ChIJ-S1HoRWDHWARnb6z8onksM0",
    "types": [
      "premise"
    ]
  }
]