[
  {
    "address_components": [
      {
        "long_name": "５０７−１",
        "short_name": "５０７−１",
        "types": [
          "premise"
        ]
      },
      {
        "long_name": "屋代",
        "short_name": "屋代",
        "types": [
          "political",
          "sublocality",
          "sublocality_level_2"
        ]
      },
      {
        "long_name": "千曲市",
        "short_name": "千曲市",
        "types": [
          "locality",
          "political"
        ]
      },
      {
        "long_name": "長野県",
        "short_name": "長野県",
        "types": [
          "administrative_area_level_1",
          "political"
        ]
      },
      {
        "long_name": "日本",
        "short_name": "JP",
        "types": [
          "country",
          "political"
        ]
      },
      {
        "long_name": "387-0007",
        "short_name": "387-0007",
        "types": [
          "postal_code"
        ]
      }
    ],
    "formatted_address": "日本、〒387-0007 長野県千曲市屋代５０７−１",
    "geometry": {
      "bounds": {
        "northeast": {
          "lat": 36.5352561,
          "lng": 138.138728
        },
        "southwest": {
          "lat": 36.5346038,
          "lng": 138.1383505
        }
      },
      "location": {
        "lat": 36.5350225,
        "lng": 138.1385651
      },
      "location_type": "ROOFTOP",
      "viewport": {
        "northeast": {
          "lat": 36.53626173029149,
          "lng": 138.1398882302915
        },
        "southwest": {
          "lat": 36.5335637697085,
          "lng": 138.1371902697085
        }
      }
    },
    "place_id": "ChIJOfKuOTWDHWARtYvSYkNdjVg",
    "types": [
      "premise"
    ]
  }
]