[
  {
    "address_components": [
      {
        "long_name": "４",
        "short_name": "４",
        "types": [
          "premise"
        ]
      },
      {
        "long_name": "３３",
        "short_name": "３３",
        "types": [
          "political",
          "sublocality",
          "sublocality_level_4"
        ]
      },
      {
        "long_name": "１丁目",
        "short_name": "１丁目",
        "types": [
          "political",
          "sublocality",
          "sublocality_level_3"
        ]
      },
      {
        "long_name": "上山田温泉",
        "short_name": "上山田温泉",
        "types": [
          "political",
          "sublocality",
          "sublocality_level_2"
        ]
      },
      {
        "long_name": "千曲市",
        "short_name": "千曲市",
        "types": [
          "locality",
          "political"
        ]
      },
      {
        "long_name": "長野県",
        "short_name": "長野県",
        "types": [
          "administrative_area_level_1",
          "political"
        ]
      },
      {
        "long_name": "日本",
        "short_name": "JP",
        "types": [
          "country",
          "political"
        ]
      },
      {
        "long_name": "389-0821",
        "short_name": "389-0821",
        "types": [
          "postal_code"
        ]
      }
    ],
    "formatted_address": "日本、〒389-0821 長野県千曲市上山田温泉１丁目３３−４",
    "geometry": {
      "bounds": {
        "northeast": {
          "lat": 36.4830491,
          "lng": 138.1426401
        },
        "southwest": {
          "lat": 36.4828488,
          "lng": 138.1423721
        }
      },
      "location": {
        "lat": 36.4829284,
        "lng": 138.1425231
      },
      "location_type": "ROOFTOP",
      "viewport": {
        "northeast": {
          "lat": 36.48429563029149,
          "lng": 138.1438270302915
        },
        "southwest": {
          "lat": 36.4815976697085,
          "lng": 138.1411290697085
        }
      }
    },
    "place_id": "ChIJK3sWJ2ucHWAR0cWRRaj5RYo",
    "types": [
      "premise"
    ]
  }
]