[
  {
    "address_components": [
      {
        "long_name": "１",
        "short_name": "１",
        "types": [
          "premise"
        ]
      },
      {
        "long_name": "３７",
        "short_name": "３７",
        "types": [
          "political",
          "sublocality",
          "sublocality_level_4"
        ]
      },
      {
        "long_name": "１丁目",
        "short_name": "１丁目",
        "types": [
          "political",
          "sublocality",
          "sublocality_level_3"
        ]
      },
      {
        "long_name": "上山田温泉",
        "short_name": "上山田温泉",
        "types": [
          "political",
          "sublocality",
          "sublocality_level_2"
        ]
      },
      {
        "long_name": "千曲市",
        "short_name": "千曲市",
        "types": [
          "locality",
          "political"
        ]
      },
      {
        "long_name": "長野県",
        "short_name": "長野県",
        "types": [
          "administrative_area_level_1",
          "political"
        ]
      },
      {
        "long_name": "日本",
        "short_name": "JP",
        "types": [
          "country",
          "political"
        ]
      },
      {
        "long_name": "389-0821",
        "short_name": "389-0821",
        "types": [
          "postal_code"
        ]
      }
    ],
    "formatted_address": "日本、〒389-0821 長野県千曲市上山田温泉１丁目３７−１",
    "geometry": {
      "bounds": {
        "northeast": {
          "lat": 36.4820892,
          "lng": 138.1424796
        },
        "southwest": {
          "lat": 36.4817683,
          "lng": 138.1421059
        }
      },
      "location": {
        "lat": 36.4819191,
        "lng": 138.1422903
      },
      "location_type": "ROOFTOP",
      "viewport": {
        "northeast": {
          "lat": 36.4832777302915,
          "lng": 138.1436417302915
        },
        "southwest": {
          "lat": 36.48057976970851,
          "lng": 138.1409437697085
        }
      }
    },
    "place_id": "ChIJhTqrKxWcHWAR6BBPWJaZmxE",
    "types": [
      "premise"
    ]
  }
]