[
  {
    "address_components": [
      {
        "long_name": "５",
        "short_name": "５",
        "types": [
          "premise"
        ]
      },
      {
        "long_name": "３７",
        "short_name": "３７",
        "types": [
          "political",
          "sublocality",
          "sublocality_level_4"
        ]
      },
      {
        "long_name": "１丁目",
        "short_name": "１丁目",
        "types": [
          "political",
          "sublocality",
          "sublocality_level_3"
        ]
      },
      {
        "long_name": "上山田温泉",
        "short_name": "上山田温泉",
        "types": [
          "political",
          "sublocality",
          "sublocality_level_2"
        ]
      },
      {
        "long_name": "千曲市",
        "short_name": "千曲市",
        "types": [
          "locality",
          "political"
        ]
      },
      {
        "long_name": "長野県",
        "short_name": "長野県",
        "types": [
          "administrative_area_level_1",
          "political"
        ]
      },
      {
        "long_name": "日本",
        "short_name": "JP",
        "types": [
          "country",
          "political"
        ]
      },
      {
        "long_name": "389-0821",
        "short_name": "389-0821",
        "types": [
          "postal_code"
        ]
      }
    ],
    "formatted_address": "日本、〒389-0821 長野県千曲市上山田温泉１丁目３７−５",
    "geometry": {
      "bounds": {
        "northeast": {
          "lat": 36.4820947,
          "lng": 138.1420779
        },
        "southwest": {
          "lat": 36.48199839999999,
          "lng": 138.1419702
        }
      },
      "location": {
        "lat": 36.4820431,
        "lng": 138.1420284
      },
      "location_type": "ROOFTOP",
      "viewport": {
        "northeast": {
          "lat": 36.4833925302915,
          "lng": 138.1433730302915
        },
        "southwest": {
          "lat": 36.4806945697085,
          "lng": 138.1406750697085
        }
      }
    },
    "place_id": "ChIJBSEU02qcHWARv514KV-I-ck",
    "types": [
      "premise"
    ]
  }
]