[
  {
    "address_components": [
      {
        "long_name": "１",
        "short_name": "１",
        "types": [
          "premise"
        ]
      },
      {
        "long_name": "３８",
        "short_name": "３８",
        "types": [
          "political",
          "sublocality",
          "sublocality_level_4"
        ]
      },
      {
        "long_name": "１丁目",
        "short_name": "１丁目",
        "types": [
          "political",
          "sublocality",
          "sublocality_level_3"
        ]
      },
      {
        "long_name": "上山田温泉",
        "short_name": "上山田温泉",
        "types": [
          "political",
          "sublocality",
          "sublocality_level_2"
        ]
      },
      {
        "long_name": "千曲市",
        "short_name": "千曲市",
        "types": [
          "locality",
          "political"
        ]
      },
      {
        "long_name": "長野県",
        "short_name": "長野県",
        "types": [
          "administrative_area_level_1",
          "political"
        ]
      },
      {
        "long_name": "日本",
        "short_name": "JP",
        "types": [
          "country",
          "political"
        ]
      },
      {
        "long_name": "389-0821",
        "short_name": "389-0821",
        "types": [
          "postal_code"
        ]
      }
    ],
    "formatted_address": "日本、〒389-0821 長野県千曲市上山田温泉１丁目３８−１",
    "geometry": {
      "bounds": {
        "northeast": {
          "lat": 36.48199049999999,
          "lng": 138.1420436
        },
        "southwest": {
          "lat": 36.4817266,
          "lng": 138.1417147
        }
      },
      "location": {
        "lat": 36.481867,
        "lng": 138.1418829
      },
      "location_type": "ROOFTOP",
      "viewport": {
        "northeast": {
          "lat": 36.4832075302915,
          "lng": 138.1432281302915
        },
        "southwest": {
          "lat": 36.4805095697085,
          "lng": 138.1405301697085
        }
      }
    },
    "place_id": "ChIJYcxFLRWcHWARlOSbMelp4EM",
    "types": [
      "premise"
    ]
  }
]