[
  {
    "address_components": [
      {
        "long_name": "９",
        "short_name": "９",
        "types": [
          "premise"
        ]
      },
      {
        "long_name": "１７",
        "short_name": "１７",
        "types": [
          "political",
          "sublocality",
          "sublocality_level_4"
        ]
      },
      {
        "long_name": "２丁目",
        "short_name": "２丁目",
        "types": [
          "political",
          "sublocality",
          "sublocality_level_3"
        ]
      },
      {
        "long_name": "上山田温泉",
        "short_name": "上山田温泉",
        "types": [
          "political",
          "sublocality",
          "sublocality_level_2"
        ]
      },
      {
        "long_name": "千曲市",
        "short_name": "千曲市",
        "types": [
          "locality",
          "political"
        ]
      },
      {
        "long_name": "長野県",
        "short_name": "長野県",
        "types": [
          "administrative_area_level_1",
          "political"
        ]
      },
      {
        "long_name": "日本",
        "short_name": "JP",
        "types": [
          "country",
          "political"
        ]
      },
      {
        "long_name": "389-0821",
        "short_name": "389-0821",
        "types": [
          "postal_code"
        ]
      }
    ],
    "formatted_address": "日本、〒389-0821 長野県千曲市上山田温泉２丁目１７−９",
    "geometry": {
      "bounds": {
        "northeast": {
          "lat": 36.4800706,
          "lng": 138.1426208
        },
        "southwest": {
          "lat": 36.4798992,
          "lng": 138.1423959
        }
      },
      "location": {
        "lat": 36.4799896,
        "lng": 138.1425231
      },
      "location_type": "ROOFTOP",
      "viewport": {
        "northeast": {
          "lat": 36.4813338802915,
          "lng": 138.1438573302915
        },
        "southwest": {
          "lat": 36.4786359197085,
          "lng": 138.1411593697085
        }
      }
    },
    "place_id": "ChIJs8SR_xScHWARE5SM8RgyERg",
    "types": [
      "premise"
    ]
  }
]