[
  {
    "address_components": [
      {
        "long_name": "９",
        "short_name": "９",
        "types": [
          "premise"
        ]
      },
      {
        "long_name": "２９",
        "short_name": "２９",
        "types": [
          "political",
          "sublocality",
          "sublocality_level_4"
        ]
      },
      {
        "long_name": "２丁目",
        "short_name": "２丁目",
        "types": [
          "political",
          "sublocality",
          "sublocality_level_3"
        ]
      },
      {
        "long_name": "上山田温泉",
        "short_name": "上山田温泉",
        "types": [
          "political",
          "sublocality",
          "sublocality_level_2"
        ]
      },
      {
        "long_name": "千曲市",
        "short_name": "千曲市",
        "types": [
          "locality",
          "political"
        ]
      },
      {
        "long_name": "長野県",
        "short_name": "長野県",
        "types": [
          "administrative_area_level_1",
          "political"
        ]
      },
      {
        "long_name": "日本",
        "short_name": "JP",
        "types": [
          "country",
          "political"
        ]
      },
      {
        "long_name": "389-0821",
        "short_name": "389-0821",
        "types": [
          "postal_code"
        ]
      }
    ],
    "formatted_address": "日本、〒389-0821 長野県千曲市上山田温泉２丁目２９−９",
    "geometry": {
      "bounds": {
        "northeast": {
          "lat": 36.4797811,
          "lng": 138.1409546
        },
        "southwest": {
          "lat": 36.47949759999999,
          "lng": 138.1405933
        }
      },
      "location": {
        "lat": 36.4796449,
        "lng": 138.1407381
      },
      "location_type": "ROOFTOP",
      "viewport": {
        "northeast": {
          "lat": 36.4809883302915,
          "lng": 138.1421297802915
        },
        "southwest": {
          "lat": 36.4782903697085,
          "lng": 138.1394318197085
        }
      }
    },
    "place_id": "ChIJg0igcRWcHWARgKYs8wT0q-E",
    "types": [
      "premise"
    ]
  }
]