{
  "candidates": [
    {
      "business_status": "OPERATIONAL",
      "formatted_address": "日本、〒381-0401 長野県下高井郡山ノ内町平穏７１４８",
      "geometry": {
        "location": {
          "lat": 36.7197686,
          "lng": 138.4922901
        },
        "viewport": {
          "northeast": {
            "lat": 36.72101837989273,
            "lng": 138.4934512798927
          },
          "southwest": {
            "lat": 36.71831872010729,
            "lng": 138.4907516201073
          }
        }
      },
      "icon": "https://maps.gstatic.com/mapfiles/place_api/icons/v1/png_71/generic_business-71.png",
      "name": "志賀高原 山の駅",
      "photos": [
        {
          "height": 1440,
          "html_attributions": [
            "<a href=\"https://maps.google.com/maps/contrib/113855130780541473607\">A Google User</a>"
          ],
          "photo_reference": "Aap_uEAIg78QpUEyCIHU8qCRHJ86_MC8COvZ6H7dVEWrqfTc4y376fL95m0TpVFt64M5yPrI9D4uT458qrjqKFFOH_UWS64whvi0Y_AWOvyeb-iXFubqrXREexXKfxoI0-e7HONe6AbjdybD1NHB_Zw8xN0tE5tGNsaaLnXZ0u_vut0TMNaL",
          "width": 1440
        }
      ],
      "place_id": "ChIJQUMRlZ3xHWAR-QVS_z2f8qc",
      "plus_code": {
        "compound_code": "PF9R+WW 山ノ内町、長野県",
        "global_code": "8Q8WPF9R+WW"
      },
      "types": [
        "point_of_interest",
        "establishment"
      ]
    },
    {
      "business_status": "OPERATIONAL",
      "formatted_address": "日本、〒381-0401 長野県下高井郡山ノ内町平穏７１４８",
      "geometry": {
        "location": {
          "lat": 36.7196085,
          "lng": 138.4924648
        },
        "viewport": {
          "northeast": {
            "lat": 36.72097697989272,
            "lng": 138.4935378298927
          },
          "southwest": {
            "lat": 36.71827732010728,
            "lng": 138.4908381701073
          }
        }
      },
      "icon": "https://maps.gstatic.com/mapfiles/place_api/icons/v1/png_71/shopping-71.png",
      "name": "志賀高原山の駅 お土産＆ヤマザキYショップ",
      "photos": [
        {
          "height": 3024,
          "html_attributions": [
            "<a href=\"https://maps.google.com/maps/contrib/103483986412635976841\">倉石薫</a>"
          ],
          "photo_reference": "Aap_uECwg85S2g1-y1hpIIBGfrErWJCqwxujHShPSaDwGQlAfAJ_aLI0kprjgtJYi5NYtDXCbBUhQ6C-RrcnU6csEQTgZ6ycEzkj8Aw_PiAN4lzm-8BMvb-LIqjGQTOFG5MSHFUn_h1OdVTRU9ZKr-4mcjR3bnB1YvlrtIHcJygqZUxciWWO",
          "width": 4032
        }
      ],
      "place_id": "ChIJx_uQ3pbxHWARdD5xY-n5ayM",
      "plus_code": {
        "compound_code": "PF9R+RX 山ノ内町、長野県",
        "global_code": "8Q8WPF9R+RX"
      },
      "types": [
        "convenience_store",
        "point_of_interest",
        "food",
        "store",
        "establishment"
      ]
    }
  ],
  "status": "OK"
}