[
  {
    "address_components": [
      {
        "long_name": "９",
        "short_name": "９",
        "types": [
          "premise"
        ]
      },
      {
        "long_name": "３３",
        "short_name": "３３",
        "types": [
          "political",
          "sublocality",
          "sublocality_level_4"
        ]
      },
      {
        "long_name": "２丁目",
        "short_name": "２丁目",
        "types": [
          "political",
          "sublocality",
          "sublocality_level_3"
        ]
      },
      {
        "long_name": "上山田温泉",
        "short_name": "上山田温泉",
        "types": [
          "political",
          "sublocality",
          "sublocality_level_2"
        ]
      },
      {
        "long_name": "千曲市",
        "short_name": "千曲市",
        "types": [
          "locality",
          "political"
        ]
      },
      {
        "long_name": "長野県",
        "short_name": "長野県",
        "types": [
          "administrative_area_level_1",
          "political"
        ]
      },
      {
        "long_name": "日本",
        "short_name": "JP",
        "types": [
          "country",
          "political"
        ]
      },
      {
        "long_name": "389-0821",
        "short_name": "389-0821",
        "types": [
          "postal_code"
        ]
      }
    ],
    "formatted_address": "日本、〒389-0821 長野県千曲市上山田温泉２丁目３３−９",
    "geometry": {
      "bounds": {
        "northeast": {
          "lat": 36.4781435,
          "lng": 138.1417748
        },
        "southwest": {
          "lat": 36.4778838,
          "lng": 138.1414388
        }
      },
      "location": {
        "lat": 36.4780513,
        "lng": 138.1415918
      },
      "location_type": "ROOFTOP",
      "viewport": {
        "northeast": {
          "lat": 36.4794092802915,
          "lng": 138.1429557802915
        },
        "southwest": {
          "lat": 36.47671131970851,
          "lng": 138.1402578197085
        }
      }
    },
    "place_id": "ChIJk14RxRWcHWARhakFZFe9ZQQ",
    "types": [
      "premise"
    ]
  }
]