[
  {
    "address_components": [
      {
        "long_name": "１１",
        "short_name": "１１",
        "types": [
          "premise"
        ]
      },
      {
        "long_name": "１７",
        "short_name": "１７",
        "types": [
          "political",
          "sublocality",
          "sublocality_level_4"
        ]
      },
      {
        "long_name": "２丁目",
        "short_name": "２丁目",
        "types": [
          "political",
          "sublocality",
          "sublocality_level_3"
        ]
      },
      {
        "long_name": "上山田温泉",
        "short_name": "上山田温泉",
        "types": [
          "political",
          "sublocality",
          "sublocality_level_2"
        ]
      },
      {
        "long_name": "千曲市",
        "short_name": "千曲市",
        "types": [
          "locality",
          "political"
        ]
      },
      {
        "long_name": "長野県",
        "short_name": "長野県",
        "types": [
          "administrative_area_level_1",
          "political"
        ]
      },
      {
        "long_name": "日本",
        "short_name": "JP",
        "types": [
          "country",
          "political"
        ]
      },
      {
        "long_name": "389-0821",
        "short_name": "389-0821",
        "types": [
          "postal_code"
        ]
      }
    ],
    "formatted_address": "日本、〒389-0821 長野県千曲市上山田温泉２丁目１７−１１",
    "geometry": {
      "bounds": {
        "northeast": {
          "lat": 36.4800636,
          "lng": 138.1423738
        },
        "southwest": {
          "lat": 36.4799244,
          "lng": 138.1422041
        }
      },
      "location": {
        "lat": 36.4799857,
        "lng": 138.1423097
      },
      "location_type": "ROOFTOP",
      "viewport": {
        "northeast": {
          "lat": 36.4813422302915,
          "lng": 138.1436379302915
        },
        "southwest": {
          "lat": 36.4786442697085,
          "lng": 138.1409399697085
        }
      }
    },
    "place_id": "ChIJMXhNABWcHWARJ-eB64v-vEA",
    "types": [
      "premise"
    ]
  }
]