[
  {
    "address_components": [
      {
        "long_name": "４",
        "short_name": "４",
        "types": [
          "premise"
        ]
      },
      {
        "long_name": "７",
        "short_name": "７",
        "types": [
          "political",
          "sublocality",
          "sublocality_level_4"
        ]
      },
      {
        "long_name": "３丁目",
        "short_name": "３丁目",
        "types": [
          "political",
          "sublocality",
          "sublocality_level_3"
        ]
      },
      {
        "long_name": "上山田温泉",
        "short_name": "上山田温泉",
        "types": [
          "political",
          "sublocality",
          "sublocality_level_2"
        ]
      },
      {
        "long_name": "千曲市",
        "short_name": "千曲市",
        "types": [
          "locality",
          "political"
        ]
      },
      {
        "long_name": "長野県",
        "short_name": "長野県",
        "types": [
          "administrative_area_level_1",
          "political"
        ]
      },
      {
        "long_name": "日本",
        "short_name": "JP",
        "types": [
          "country",
          "political"
        ]
      },
      {
        "long_name": "389-0821",
        "short_name": "389-0821",
        "types": [
          "postal_code"
        ]
      }
    ],
    "formatted_address": "日本、〒389-0821 長野県千曲市上山田温泉３丁目７−４",
    "geometry": {
      "bounds": {
        "northeast": {
          "lat": 36.4782054,
          "lng": 138.1451127
        },
        "southwest": {
          "lat": 36.4780292,
          "lng": 138.144932
        }
      },
      "location": {
        "lat": 36.4781051,
        "lng": 138.1450262
      },
      "location_type": "ROOFTOP",
      "viewport": {
        "northeast": {
          "lat": 36.4794745302915,
          "lng": 138.1463825302915
        },
        "southwest": {
          "lat": 36.4767765697085,
          "lng": 138.1436845697085
        }
      }
    },
    "place_id": "ChIJX6FXTBGcHWARR_g3ryd6z-g",
    "types": [
      "premise"
    ]
  }
]