[
  {
    "address_components": [
      {
        "long_name": "６６３−５",
        "short_name": "６６３−５",
        "types": [
          "premise"
        ]
      },
      {
        "long_name": "雨宮",
        "short_name": "雨宮",
        "types": [
          "political",
          "sublocality",
          "sublocality_level_2"
        ]
      },
      {
        "long_name": "千曲市",
        "short_name": "千曲市",
        "types": [
          "locality",
          "political"
        ]
      },
      {
        "long_name": "長野県",
        "short_name": "長野県",
        "types": [
          "administrative_area_level_1",
          "political"
        ]
      },
      {
        "long_name": "日本",
        "short_name": "JP",
        "types": [
          "country",
          "political"
        ]
      },
      {
        "long_name": "387-0001",
        "short_name": "387-0001",
        "types": [
          "postal_code"
        ]
      }
    ],
    "formatted_address": "日本、〒387-0001 長野県千曲市雨宮６６３−５",
    "geometry": {
      "bounds": {
        "northeast": {
          "lat": 36.5521286,
          "lng": 138.1442127
        },
        "southwest": {
          "lat": 36.5519597,
          "lng": 138.1440567
        }
      },
      "location": {
        "lat": 36.5520397,
        "lng": 138.1441336
      },
      "location_type": "ROOFTOP",
      "viewport": {
        "northeast": {
          "lat": 36.5533931302915,
          "lng": 138.1455256302915
        },
        "southwest": {
          "lat": 36.5506951697085,
          "lng": 138.1428276697085
        }
      }
    },
    "place_id": "ChIJl_HgdkGDHWARdsEqAxhgbVQ",
    "types": [
      "premise"
    ]
  }
]