[
  {
    "address_components": [
      {
        "long_name": "５",
        "short_name": "５",
        "types": [
          "premise"
        ]
      },
      {
        "long_name": "２",
        "short_name": "２",
        "types": [
          "political",
          "sublocality",
          "sublocality_level_4"
        ]
      },
      {
        "long_name": "１丁目",
        "short_name": "１丁目",
        "types": [
          "political",
          "sublocality",
          "sublocality_level_3"
        ]
      },
      {
        "long_name": "三好町",
        "short_name": "三好町",
        "types": [
          "political",
          "sublocality",
          "sublocality_level_2"
        ]
      },
      {
        "long_name": "中野市",
        "short_name": "中野市",
        "types": [
          "locality",
          "political"
        ]
      },
      {
        "long_name": "長野県",
        "short_name": "長野県",
        "types": [
          "administrative_area_level_1",
          "political"
        ]
      },
      {
        "long_name": "日本",
        "short_name": "JP",
        "types": [
          "country",
          "political"
        ]
      },
      {
        "long_name": "383-0025",
        "short_name": "383-0025",
        "types": [
          "postal_code"
        ]
      }
    ],
    "formatted_address": "日本、〒383-0025 長野県中野市三好町１丁目２−５",
    "geometry": {
      "bounds": {
        "northeast": {
          "lat": 36.744086,
          "lng": 138.3689131
        },
        "southwest": {
          "lat": 36.7439439,
          "lng": 138.3688034
        }
      },
      "location": {
        "lat": 36.7440111,
        "lng": 138.3688541
      },
      "location_type": "ROOFTOP",
      "viewport": {
        "northeast": {
          "lat": 36.7453816302915,
          "lng": 138.3702115302915
        },
        "southwest": {
          "lat": 36.7426836697085,
          "lng": 138.3675135697085
        }
      }
    },
    "place_id": "ChIJhXRFrfyKHWARWT5J0Wxz0Ro",
    "types": [
      "premise"
    ]
  }
]