[
  {
    "address_components": [
      {
        "long_name": "１５３９−１",
        "short_name": "１５３９−１",
        "types": [
          "premise"
        ]
      },
      {
        "long_name": "草間",
        "short_name": "草間",
        "types": [
          "political",
          "sublocality",
          "sublocality_level_2"
        ]
      },
      {
        "long_name": "中野市",
        "short_name": "中野市",
        "types": [
          "locality",
          "political"
        ]
      },
      {
        "long_name": "長野県",
        "short_name": "長野県",
        "types": [
          "administrative_area_level_1",
          "political"
        ]
      },
      {
        "long_name": "日本",
        "short_name": "JP",
        "types": [
          "country",
          "political"
        ]
      },
      {
        "long_name": "383-0053",
        "short_name": "383-0053",
        "types": [
          "postal_code"
        ]
      }
    ],
    "formatted_address": "日本、〒383-0053 長野県中野市草間１５３９−１",
    "geometry": {
      "bounds": {
        "northeast": {
          "lat": 36.7336784,
          "lng": 138.3191156
        },
        "southwest": {
          "lat": 36.7334835,
          "lng": 138.3188966
        }
      },
      "location": {
        "lat": 36.7336059,
        "lng": 138.3189886
      },
      "location_type": "ROOFTOP",
      "viewport": {
        "northeast": {
          "lat": 36.7349299302915,
          "lng": 138.3202074802915
        },
        "southwest": {
          "lat": 36.7322319697085,
          "lng": 138.3175095197085
        }
      }
    },
    "place_id": "ChIJEav9dYqJHWAR0Vw1P_sHejg",
    "types": [
      "premise"
    ]
  }
]