[
  {
    "address_components": [
      {
        "long_name": "１１５０",
        "short_name": "１１５０",
        "types": [
          "premise"
        ]
      },
      {
        "long_name": "中野",
        "short_name": "中野",
        "types": [
          "political",
          "sublocality",
          "sublocality_level_2"
        ]
      },
      {
        "long_name": "中野市",
        "short_name": "中野市",
        "types": [
          "locality",
          "political"
        ]
      },
      {
        "long_name": "長野県",
        "short_name": "長野県",
        "types": [
          "administrative_area_level_1",
          "political"
        ]
      },
      {
        "long_name": "日本",
        "short_name": "JP",
        "types": [
          "country",
          "political"
        ]
      },
      {
        "long_name": "383-0013",
        "short_name": "383-0013",
        "types": [
          "postal_code"
        ]
      }
    ],
    "formatted_address": "日本、〒383-0013 長野県中野市中野１１５０",
    "geometry": {
      "bounds": {
        "northeast": {
          "lat": 36.7419898,
          "lng": 138.3821202
        },
        "southwest": {
          "lat": 36.7417011,
          "lng": 138.3818473
        }
      },
      "location": {
        "lat": 36.7418515,
        "lng": 138.3819391
      },
      "location_type": "ROOFTOP",
      "viewport": {
        "northeast": {
          "lat": 36.7431944302915,
          "lng": 138.3833964802915
        },
        "southwest": {
          "lat": 36.7404964697085,
          "lng": 138.3806985197085
        }
      }
    },
    "place_id": "ChIJRfPVcSGLHWARSVjmvGyc28A",
    "types": [
      "premise"
    ]
  }
]