[
  {
    "address_components": [
      {
        "long_name": "１２２１",
        "short_name": "１２２１",
        "types": [
          "premise"
        ]
      },
      {
        "long_name": "片塩",
        "short_name": "片塩",
        "types": [
          "political",
          "sublocality",
          "sublocality_level_2"
        ]
      },
      {
        "long_name": "中野市",
        "short_name": "中野市",
        "types": [
          "locality",
          "political"
        ]
      },
      {
        "long_name": "長野県",
        "short_name": "長野県",
        "types": [
          "administrative_area_level_1",
          "political"
        ]
      },
      {
        "long_name": "日本",
        "short_name": "JP",
        "types": [
          "country",
          "political"
        ]
      },
      {
        "long_name": "383-0046",
        "short_name": "383-0046",
        "types": [
          "postal_code"
        ]
      }
    ],
    "formatted_address": "日本、〒383-0046 長野県中野市片塩１２２１",
    "geometry": {
      "bounds": {
        "northeast": {
          "lat": 36.7503841,
          "lng": 138.3427377
        },
        "southwest": {
          "lat": 36.74985150000001,
          "lng": 138.3422944
        }
      },
      "location": {
        "lat": 36.7500876,
        "lng": 138.3424697
      },
      "location_type": "ROOFTOP",
      "viewport": {
        "northeast": {
          "lat": 36.7514667802915,
          "lng": 138.3438764802915
        },
        "southwest": {
          "lat": 36.7487688197085,
          "lng": 138.3411785197085
        }
      }
    },
    "place_id": "ChIJgwe-lWuKHWARt5x0--mgfGg",
    "types": [
      "premise"
    ]
  }
]