{
  "candidates": [
    {
      "business_status": "OPERATIONAL",
      "formatted_address": "日本、〒381-4302 長野県長野市鬼無里日影８８５５",
      "geometry": {
        "location": {
          "lat": 36.6842982,
          "lng": 137.9393481
        },
        "viewport": {
          "northeast": {
            "lat": 36.68561197989272,
            "lng": 137.9407766798927
          },
          "southwest": {
            "lat": 36.68291232010728,
            "lng": 137.9380770201073
          }
        }
      },
      "icon": "https://maps.gstatic.com/mapfiles/place_api/icons/v1/png_71/lodging-71.png",
      "name": "鬼無里の湯",
      "photos": [
        {
          "height": 3024,
          "html_attributions": [
            "<a href=\"https://maps.google.com/maps/contrib/111168528165374143083\">大坪靖典</a>"
          ],
          "photo_reference": "Aap_uEBqIK2sEmsVq1fFdy2Jh96GhTjM_gRvxlGqHZW9tPUs2r51KRrDxyanRRzy5IVM4I3NKRBHH9s4yWhnO_O3CCqOKqLqyR1-h1hwysE3XY-d92EJnp8yqSW0MXtOxu5sUDloA6shjY_IbjtSNTY8kWWUKKggpF_r29SLWRiQq4PfUqIG",
          "width": 4032
        }
      ],
      "place_id": "ChIJuZkl4KPT918RE19x3WWmo3s",
      "plus_code": {
        "compound_code": "MWMQ+QM 長野市、長野県",
        "global_code": "8Q8VMWMQ+QM"
      },
      "types": [
        "lodging",
        "point_of_interest",
        "establishment"
      ]
    },
    {
      "business_status": "OPERATIONAL",
      "formatted_address": "日本、〒381-4302 長野県長野市鬼無里日影８８５５",
      "geometry": {
        "location": {
          "lat": 36.6840685,
          "lng": 137.9391846
        },
        "viewport": {
          "northeast": {
            "lat": 36.68540472989272,
            "lng": 137.9405641298927
          },
          "southwest": {
            "lat": 36.68270507010727,
            "lng": 137.9378644701073
          }
        }
      },
      "icon": "https://maps.gstatic.com/mapfiles/place_api/icons/v1/png_71/lodging-71.png",
      "name": "奥裾花温泉",
      "photos": [
        {
          "height": 4032,
          "html_attributions": [
            "<a href=\"https://maps.google.com/maps/contrib/114693916453863768048\">A Google User</a>"
          ],
          "photo_reference": "Aap_uEDJLHPJkFJDvwwEh5xyqrCCkgR5FPz5U7VbjkjLGvuHmptvftuSnPhHlXAbcquTFmXiTpmKzj17V05Zi6wAIPHMtPVAln8j7uWz3gp_Fte-fV5Pu89FgA5bPMzvpS-QSH0wLpxPSQvOsd7RasFBv-EqHWbfKImtcVSQiE-3fXTSe7Ot",
          "width": 3024
        }
      ],
      "place_id": "ChIJY9Av4qPT918R1b14NqXHjIQ",
      "plus_code": {
        "compound_code": "MWMQ+MH 長野市、長野県",
        "global_code": "8Q8VMWMQ+MH"
      },
      "types": [
        "lodging",
        "point_of_interest",
        "establishment"
      ]
    }
  ],
  "status": "OK"
}