[
  {
    "address_components": [
      {
        "long_name": "８８５５",
        "short_name": "８８５５",
        "types": [
          "premise"
        ]
      },
      {
        "long_name": "鬼無里日影",
        "short_name": "鬼無里日影",
        "types": [
          "political",
          "sublocality",
          "sublocality_level_2"
        ]
      },
      {
        "long_name": "長野市",
        "short_name": "長野市",
        "types": [
          "locality",
          "political"
        ]
      },
      {
        "long_name": "長野県",
        "short_name": "長野県",
        "types": [
          "administrative_area_level_1",
          "political"
        ]
      },
      {
        "long_name": "日本",
        "short_name": "JP",
        "types": [
          "country",
          "political"
        ]
      },
      {
        "long_name": "381-4302",
        "short_name": "381-4302",
        "types": [
          "postal_code"
        ]
      }
    ],
    "formatted_address": "日本、〒381-4302 長野県長野市鬼無里日影８８５５",
    "geometry": {
      "bounds": {
        "northeast": {
          "lat": 36.6844692,
          "lng": 137.9393827
        },
        "southwest": {
          "lat": 36.6837734,
          "lng": 137.9387043
        }
      },
      "location": {
        "lat": 36.6842393,
        "lng": 137.9390853
      },
      "location_type": "ROOFTOP",
      "viewport": {
        "northeast": {
          "lat": 36.6854702802915,
          "lng": 137.9404909802915
        },
        "southwest": {
          "lat": 36.6827723197085,
          "lng": 137.9377930197085
        }
      }
    },
    "place_id": "ChIJbQeU4KPT918RokfQE3eYxZE",
    "types": [
      "premise"
    ]
  }
]