[
  {
    "address_components": [
      {
        "long_name": "４８４",
        "short_name": "４８４",
        "types": [
          "premise"
        ]
      },
      {
        "long_name": "元善町",
        "short_name": "元善町",
        "types": [
          "political",
          "sublocality",
          "sublocality_level_3"
        ]
      },
      {
        "long_name": "元善町",
        "short_name": "元善町",
        "types": [
          "political",
          "sublocality",
          "sublocality_level_2"
        ]
      },
      {
        "long_name": "長野市",
        "short_name": "長野市",
        "types": [
          "locality",
          "political"
        ]
      },
      {
        "long_name": "長野県",
        "short_name": "長野県",
        "types": [
          "administrative_area_level_1",
          "political"
        ]
      },
      {
        "long_name": "日本",
        "short_name": "JP",
        "types": [
          "country",
          "political"
        ]
      },
      {
        "long_name": "380-0851",
        "short_name": "380-0851",
        "types": [
          "postal_code"
        ]
      }
    ],
    "formatted_address": "日本、〒380-0851 長野県長野市元善町元善町４８４",
    "geometry": {
      "bounds": {
        "northeast": {
          "lat": 36.65921710000001,
          "lng": 138.1874734
        },
        "southwest": {
          "lat": 36.6591698,
          "lng": 138.1873208
        }
      },
      "location": {
        "lat": 36.6591961,
        "lng": 138.1873917
      },
      "location_type": "ROOFTOP",
      "viewport": {
        "northeast": {
          "lat": 36.6603826302915,
          "lng": 138.1888011802915
        },
        "southwest": {
          "lat": 36.6576846697085,
          "lng": 138.1861032197085
        }
      }
    },
    "place_id": "ChIJ279EC-OGHWARIz1U832NxWo",
    "types": [
      "premise"
    ]
  }
]