[
  {
    "address_components": [
      {
        "long_name": "２１５７",
        "short_name": "２１５７",
        "types": [
          "premise"
        ]
      },
      {
        "long_name": "戸隠",
        "short_name": "戸隠",
        "types": [
          "political",
          "sublocality",
          "sublocality_level_2"
        ]
      },
      {
        "long_name": "長野市",
        "short_name": "長野市",
        "types": [
          "locality",
          "political"
        ]
      },
      {
        "long_name": "長野県",
        "short_name": "長野県",
        "types": [
          "administrative_area_level_1",
          "political"
        ]
      },
      {
        "long_name": "日本",
        "short_name": "JP",
        "types": [
          "country",
          "political"
        ]
      },
      {
        "long_name": "381-4101",
        "short_name": "381-4101",
        "types": [
          "postal_code"
        ]
      }
    ],
    "formatted_address": "日本、〒381-4101 長野県長野市戸隠２１５７",
    "geometry": {
      "bounds": {
        "northeast": {
          "lat": 36.7309608,
          "lng": 138.0763613
        },
        "southwest": {
          "lat": 36.7307253,
          "lng": 138.0759673
        }
      },
      "location": {
        "lat": 36.7308631,
        "lng": 138.0761224
      },
      "location_type": "ROOFTOP",
      "viewport": {
        "northeast": {
          "lat": 36.73218638029149,
          "lng": 138.0775132802915
        },
        "southwest": {
          "lat": 36.7294884197085,
          "lng": 138.0748153197085
        }
      }
    },
    "place_id": "ChIJa8WEqwIs9l8RXVgO8iYYHg0",
    "types": [
      "premise"
    ]
  }
]