[
  {
    "address_components": [
      {
        "long_name": "２２８５",
        "short_name": "２２８５",
        "types": [
          "premise"
        ]
      },
      {
        "long_name": "戸隠",
        "short_name": "戸隠",
        "types": [
          "political",
          "sublocality",
          "sublocality_level_2"
        ]
      },
      {
        "long_name": "長野市",
        "short_name": "長野市",
        "types": [
          "locality",
          "political"
        ]
      },
      {
        "long_name": "長野県",
        "short_name": "長野県",
        "types": [
          "administrative_area_level_1",
          "political"
        ]
      },
      {
        "long_name": "日本",
        "short_name": "JP",
        "types": [
          "country",
          "political"
        ]
      },
      {
        "long_name": "381-4101",
        "short_name": "381-4101",
        "types": [
          "postal_code"
        ]
      }
    ],
    "formatted_address": "日本、〒381-4101 長野県長野市戸隠２２８５",
    "geometry": {
      "bounds": {
        "northeast": {
          "lat": 36.7288822,
          "lng": 138.0776495
        },
        "southwest": {
          "lat": 36.7287152,
          "lng": 138.0773077
        }
      },
      "location": {
        "lat": 36.7287895,
        "lng": 138.077482
      },
      "location_type": "ROOFTOP",
      "viewport": {
        "northeast": {
          "lat": 36.73017438029149,
          "lng": 138.0788275802915
        },
        "southwest": {
          "lat": 36.72747641970849,
          "lng": 138.0761296197085
        }
      }
    },
    "place_id": "ChIJX1TeWgIs9l8ReQv2dXvabIE",
    "types": [
      "premise"
    ]
  }
]