[
  {
    "address_components": [
      {
        "long_name": "２３４８",
        "short_name": "２３４８",
        "types": [
          "premise"
        ]
      },
      {
        "long_name": "戸隠",
        "short_name": "戸隠",
        "types": [
          "political",
          "sublocality",
          "sublocality_level_2"
        ]
      },
      {
        "long_name": "長野市",
        "short_name": "長野市",
        "types": [
          "locality",
          "political"
        ]
      },
      {
        "long_name": "長野県",
        "short_name": "長野県",
        "types": [
          "administrative_area_level_1",
          "political"
        ]
      },
      {
        "long_name": "日本",
        "short_name": "JP",
        "types": [
          "country",
          "political"
        ]
      },
      {
        "long_name": "381-4101",
        "short_name": "381-4101",
        "types": [
          "postal_code"
        ]
      }
    ],
    "formatted_address": "日本、〒381-4101 長野県長野市戸隠２３４８",
    "geometry": {
      "bounds": {
        "northeast": {
          "lat": 36.7316072,
          "lng": 138.0785386
        },
        "southwest": {
          "lat": 36.7313672,
          "lng": 138.0781342
        }
      },
      "location": {
        "lat": 36.7314716,
        "lng": 138.0783491
      },
      "location_type": "ROOFTOP",
      "viewport": {
        "northeast": {
          "lat": 36.7327468802915,
          "lng": 138.0796853802915
        },
        "southwest": {
          "lat": 36.7300489197085,
          "lng": 138.0769874197085
        }
      }
    },
    "place_id": "ChIJRdnTc6gu9l8RPXHQ8v6J8YQ",
    "types": [
      "premise"
    ]
  }
]