[
  {
    "address_components": [
      {
        "long_name": "３６７２−１０",
        "short_name": "３６７２−１０",
        "types": [
          "premise"
        ]
      },
      {
        "long_name": "戸隠",
        "short_name": "戸隠",
        "types": [
          "political",
          "sublocality",
          "sublocality_level_2"
        ]
      },
      {
        "long_name": "長野市",
        "short_name": "長野市",
        "types": [
          "locality",
          "political"
        ]
      },
      {
        "long_name": "長野県",
        "short_name": "長野県",
        "types": [
          "administrative_area_level_1",
          "political"
        ]
      },
      {
        "long_name": "日本",
        "short_name": "JP",
        "types": [
          "country",
          "political"
        ]
      },
      {
        "long_name": "381-4101",
        "short_name": "381-4101",
        "types": [
          "postal_code"
        ]
      }
    ],
    "formatted_address": "日本、〒381-4101 長野県長野市戸隠３６７２−１０",
    "geometry": {
      "bounds": {
        "northeast": {
          "lat": 36.7543551,
          "lng": 138.0884155
        },
        "southwest": {
          "lat": 36.7542557,
          "lng": 138.0882637
        }
      },
      "location": {
        "lat": 36.7542951,
        "lng": 138.0883243
      },
      "location_type": "ROOFTOP",
      "viewport": {
        "northeast": {
          "lat": 36.7557009802915,
          "lng": 138.0896885802915
        },
        "southwest": {
          "lat": 36.7530030197085,
          "lng": 138.0869906197085
        }
      }
    },
    "place_id": "ChIJI0t7tPou9l8RdbYc2u-5fl4",
    "types": [
      "premise"
    ]
  }
]