[
  {
    "address_components": [
      {
        "long_name": "１０２１７",
        "short_name": "１０２１７",
        "types": [
          "premise"
        ]
      },
      {
        "long_name": "戸隠豊岡",
        "short_name": "戸隠豊岡",
        "types": [
          "political",
          "sublocality",
          "sublocality_level_2"
        ]
      },
      {
        "long_name": "長野市",
        "short_name": "長野市",
        "types": [
          "locality",
          "political"
        ]
      },
      {
        "long_name": "長野県",
        "short_name": "長野県",
        "types": [
          "administrative_area_level_1",
          "political"
        ]
      },
      {
        "long_name": "日本",
        "short_name": "JP",
        "types": [
          "country",
          "political"
        ]
      },
      {
        "long_name": "381-4102",
        "short_name": "381-4102",
        "types": [
          "postal_code"
        ]
      }
    ],
    "formatted_address": "日本、〒381-4102 長野県長野市戸隠豊岡１０２１７",
    "geometry": {
      "bounds": {
        "northeast": {
          "lat": 36.7137338,
          "lng": 138.1150474
        },
        "southwest": {
          "lat": 36.7134378,
          "lng": 138.1147269
        }
      },
      "location": {
        "lat": 36.7135002,
        "lng": 138.1149416
      },
      "location_type": "ROOFTOP",
      "viewport": {
        "northeast": {
          "lat": 36.7148933302915,
          "lng": 138.1161592302915
        },
        "southwest": {
          "lat": 36.7121953697085,
          "lng": 138.1134612697085
        }
      }
    },
    "place_id": "ChIJd8xGDmMp9l8Rp7EHSnTMns8",
    "types": [
      "premise"
    ]
  }
]