[
  {
    "address_components": [
      {
        "long_name": "二葉堂篠ノ井店",
        "short_name": "二葉堂篠ノ井店",
        "types": [
          "premise"
        ]
      },
      {
        "long_name": "４８０−１",
        "short_name": "４８０−１",
        "types": [
          "premise"
        ]
      },
      {
        "long_name": "篠ノ井小森",
        "short_name": "篠ノ井小森",
        "types": [
          "political",
          "sublocality",
          "sublocality_level_2"
        ]
      },
      {
        "long_name": "長野市",
        "short_name": "長野市",
        "types": [
          "locality",
          "political"
        ]
      },
      {
        "long_name": "長野県",
        "short_name": "長野県",
        "types": [
          "administrative_area_level_1",
          "political"
        ]
      },
      {
        "long_name": "日本",
        "short_name": "JP",
        "types": [
          "country",
          "political"
        ]
      },
      {
        "long_name": "388-8003",
        "short_name": "388-8003",
        "types": [
          "postal_code"
        ]
      }
    ],
    "formatted_address": "日本、〒388-8003 長野県長野市篠ノ井小森４８０−１ 二葉堂篠ノ井店",
    "geometry": {
      "bounds": {
        "northeast": {
          "lat": 36.5753683,
          "lng": 138.153141
        },
        "southwest": {
          "lat": 36.575163,
          "lng": 138.152889
        }
      },
      "location": {
        "lat": 36.5752828,
        "lng": 138.1530212
      },
      "location_type": "ROOFTOP",
      "viewport": {
        "northeast": {
          "lat": 36.57668803029149,
          "lng": 138.1543639802915
        },
        "southwest": {
          "lat": 36.57399006970849,
          "lng": 138.1516660197085
        }
      }
    },
    "place_id": "ChIJTZxjkniDHWARbPtnk1NQSIM",
    "types": [
      "premise"
    ]
  }
]