[
  {
    "address_components": [
      {
        "long_name": "９５３−１",
        "short_name": "９５３−１",
        "types": [
          "premise"
        ]
      },
      {
        "long_name": "篠ノ井東福寺",
        "short_name": "篠ノ井東福寺",
        "types": [
          "political",
          "sublocality",
          "sublocality_level_2"
        ]
      },
      {
        "long_name": "長野市",
        "short_name": "長野市",
        "types": [
          "locality",
          "political"
        ]
      },
      {
        "long_name": "長野県",
        "short_name": "長野県",
        "types": [
          "administrative_area_level_1",
          "political"
        ]
      },
      {
        "long_name": "日本",
        "short_name": "JP",
        "types": [
          "country",
          "political"
        ]
      },
      {
        "long_name": "388-8002",
        "short_name": "388-8002",
        "types": [
          "postal_code"
        ]
      }
    ],
    "formatted_address": "日本、〒388-8002 長野県長野市篠ノ井東福寺９５３−１",
    "geometry": {
      "bounds": {
        "northeast": {
          "lat": 36.5854631,
          "lng": 138.1669302
        },
        "southwest": {
          "lat": 36.5852537,
          "lng": 138.1666686
        }
      },
      "location": {
        "lat": 36.5853724,
        "lng": 138.1668211
      },
      "location_type": "ROOFTOP",
      "viewport": {
        "northeast": {
          "lat": 36.58670738029149,
          "lng": 138.1681521302915
        },
        "southwest": {
          "lat": 36.5840094197085,
          "lng": 138.1654541697085
        }
      }
    },
    "place_id": "ChIJweSlXXyEHWARW0DoHetDiRw",
    "types": [
      "premise"
    ]
  }
]