[
  {
    "address_components": [
      {
        "long_name": "竹風堂松代店",
        "short_name": "竹風堂松代店",
        "types": [
          "premise"
        ]
      },
      {
        "long_name": "１０−１",
        "short_name": "１０−１",
        "types": [
          "premise"
        ]
      },
      {
        "long_name": "松代殿町",
        "short_name": "松代殿町",
        "types": [
          "political",
          "sublocality",
          "sublocality_level_3"
        ]
      },
      {
        "long_name": "松代町",
        "short_name": "松代町",
        "types": [
          "political",
          "sublocality",
          "sublocality_level_2"
        ]
      },
      {
        "long_name": "長野市",
        "short_name": "長野市",
        "types": [
          "locality",
          "political"
        ]
      },
      {
        "long_name": "長野県",
        "short_name": "長野県",
        "types": [
          "administrative_area_level_1",
          "political"
        ]
      },
      {
        "long_name": "日本",
        "short_name": "JP",
        "types": [
          "country",
          "political"
        ]
      },
      {
        "long_name": "381-1231",
        "short_name": "381-1231",
        "types": [
          "postal_code"
        ]
      }
    ],
    "formatted_address": "日本、〒381-1231 長野県長野市松代町松代殿町１０−１ 竹風堂松代店",
    "geometry": {
      "bounds": {
        "northeast": {
          "lat": 36.5649514,
          "lng": 138.1973029
        },
        "southwest": {
          "lat": 36.5643806,
          "lng": 138.196411
        }
      },
      "location": {
        "lat": 36.5646096,
        "lng": 138.1968788
      },
      "location_type": "ROOFTOP",
      "viewport": {
        "northeast": {
          "lat": 36.5659978802915,
          "lng": 138.1982059302915
        },
        "southwest": {
          "lat": 36.5632999197085,
          "lng": 138.1955079697085
        }
      }
    },
    "place_id": "ChIJ89UIjdaEHWARGeRQ79IAHmg",
    "types": [
      "premise"
    ]
  }
]