[
  {
    "address_components": [
      {
        "long_name": "３００−１",
        "short_name": "３００−１",
        "types": [
          "premise"
        ]
      },
      {
        "long_name": "信州新町日原西",
        "short_name": "信州新町日原西",
        "types": [
          "political",
          "sublocality",
          "sublocality_level_2"
        ]
      },
      {
        "long_name": "長野市",
        "short_name": "長野市",
        "types": [
          "locality",
          "political"
        ]
      },
      {
        "long_name": "長野県",
        "short_name": "長野県",
        "types": [
          "administrative_area_level_1",
          "political"
        ]
      },
      {
        "long_name": "日本",
        "short_name": "JP",
        "types": [
          "country",
          "political"
        ]
      },
      {
        "long_name": "381-2423",
        "short_name": "381-2423",
        "types": [
          "postal_code"
        ]
      }
    ],
    "formatted_address": "日本、〒381-2423 長野県長野市信州新町日原西３００−１",
    "geometry": {
      "bounds": {
        "northeast": {
          "lat": 36.5305354,
          "lng": 137.9601854
        },
        "southwest": {
          "lat": 36.5298531,
          "lng": 137.959196
        }
      },
      "location": {
        "lat": 36.5300907,
        "lng": 137.9594759
      },
      "location_type": "ROOFTOP",
      "viewport": {
        "northeast": {
          "lat": 36.5315432302915,
          "lng": 137.9610396802915
        },
        "southwest": {
          "lat": 36.5288452697085,
          "lng": 137.9583417197085
        }
      }
    },
    "place_id": "ChIJ37lORoB8HWARIUkYUtATLYg",
    "types": [
      "premise"
    ]
  }
]