{
  "candidates": [
    {
      "business_status": "OPERATIONAL",
      "formatted_address": "日本、〒388-8020 長野県長野市神明２５ 昌栄高速運輸",
      "geometry": {
        "location": {
          "lat": 36.5900884,
          "lng": 138.1802909
        },
        "viewport": {
          "northeast": {
            "lat": 36.59143657989272,
            "lng": 138.1815602798927
          },
          "southwest": {
            "lat": 36.58873692010728,
            "lng": 138.1788606201073
          }
        }
      },
      "icon": "https://maps.gstatic.com/mapfiles/place_api/icons/v1/png_71/generic_business-71.png",
      "name": "平和観光（株）",
      "place_id": "ChIJb4hbzV-EHWARLJpnaU2KSIg",
      "plus_code": {
        "compound_code": "H5RJ+24 長野市、長野県",
        "global_code": "8Q8WH5RJ+24"
      },
      "types": [
        "point_of_interest",
        "establishment"
      ]
    },
    {
      "business_status": "CLOSED_PERMANENTLY",
      "formatted_address": "日本、〒381-2247 長野県長野市青木島１丁目４−１",
      "geometry": {
        "location": {
          "lat": 36.618061,
          "lng": 138.181153
        },
        "viewport": {
          "northeast": {
            "lat": 36.61941082989272,
            "lng": 138.1825028298927
          },
          "southwest": {
            "lat": 36.61671117010727,
            "lng": 138.1798031701073
          }
        }
      },
      "icon": "https://maps.gstatic.com/mapfiles/place_api/icons/v1/png_71/generic_business-71.png",
      "name": "平和観光タクシー",
      "place_id": "ChIJmYuYQyKEHWARzX7BqYpGuSc",
      "plus_code": {
        "compound_code": "J59J+6F 長野市、長野県",
        "global_code": "8Q8WJ59J+6F"
      },
      "types": [
        "point_of_interest",
        "establishment"
      ]
    }
  ],
  "status": "OK"
}