[
  {
    "address_components": [
      {
        "long_name": "ゲストハウス１１６６バックパッカーズ",
        "short_name": "ゲストハウス１１６６バックパッカーズ",
        "types": [
          "premise"
        ]
      },
      {
        "long_name": "１０４８−２",
        "short_name": "１０４８−２",
        "types": [
          "premise"
        ]
      },
      {
        "long_name": "西町",
        "short_name": "西町",
        "types": [
          "political",
          "sublocality",
          "sublocality_level_3"
        ]
      },
      {
        "long_name": "大字長野西町",
        "short_name": "大字長野西町",
        "types": [
          "political",
          "sublocality",
          "sublocality_level_2"
        ]
      },
      {
        "long_name": "長野市",
        "short_name": "長野市",
        "types": [
          "locality",
          "political"
        ]
      },
      {
        "long_name": "長野県",
        "short_name": "長野県",
        "types": [
          "administrative_area_level_1",
          "political"
        ]
      },
      {
        "long_name": "日本",
        "short_name": "JP",
        "types": [
          "country",
          "political"
        ]
      },
      {
        "long_name": "380-0842",
        "short_name": "380-0842",
        "types": [
          "postal_code"
        ]
      }
    ],
    "formatted_address": "日本、〒380-0842 長野県長野市大字長野西町西町１０４８−２ ゲストハウス１１６６バックパッカーズ",
    "geometry": {
      "bounds": {
        "northeast": {
          "lat": 36.6554348,
          "lng": 138.1863806
        },
        "southwest": {
          "lat": 36.6553472,
          "lng": 138.1860859
        }
      },
      "location": {
        "lat": 36.655381,
        "lng": 138.1863334
      },
      "location_type": "ROOFTOP",
      "viewport": {
        "northeast": {
          "lat": 36.6567399802915,
          "lng": 138.1876062302915
        },
        "southwest": {
          "lat": 36.65404201970851,
          "lng": 138.1849082697085
        }
      }
    },
    "place_id": "ChIJE4acS-SGHWARkMbxJehTKCg",
    "types": [
      "premise"
    ]
  }
]