[
  {
    "address_components": [
      {
        "long_name": "５４−１",
        "short_name": "５４−１",
        "types": [
          "premise"
        ]
      },
      {
        "long_name": "石渡",
        "short_name": "石渡",
        "types": [
          "political",
          "sublocality",
          "sublocality_level_2"
        ]
      },
      {
        "long_name": "長野市",
        "short_name": "長野市",
        "types": [
          "locality",
          "political"
        ]
      },
      {
        "long_name": "長野県",
        "short_name": "長野県",
        "types": [
          "administrative_area_level_1",
          "political"
        ]
      },
      {
        "long_name": "日本",
        "short_name": "JP",
        "types": [
          "country",
          "political"
        ]
      },
      {
        "long_name": "381-0015",
        "short_name": "381-0015",
        "types": [
          "postal_code"
        ]
      }
    ],
    "formatted_address": "日本、〒381-0015 長野県長野市石渡５４−１",
    "geometry": {
      "bounds": {
        "northeast": {
          "lat": 36.6608697,
          "lng": 138.2429402
        },
        "southwest": {
          "lat": 36.660696,
          "lng": 138.2426945
        }
      },
      "location": {
        "lat": 36.6607755,
        "lng": 138.2428906
      },
      "location_type": "ROOFTOP",
      "viewport": {
        "northeast": {
          "lat": 36.6619839302915,
          "lng": 138.2441663302915
        },
        "southwest": {
          "lat": 36.65928596970851,
          "lng": 138.2414683697085
        }
      }
    },
    "place_id": "ChIJSb7iQ6aIHWARKz8jUJAa6WI",
    "types": [
      "premise"
    ]
  }
]