{
  "candidates": [
    {
      "business_status": "OPERATIONAL",
      "formatted_address": "日本、〒381-2221 長野県長野市川中島町御厨９５３−４",
      "geometry": {
        "location": {
          "lat": 36.5983381,
          "lng": 138.1582682
        },
        "viewport": {
          "northeast": {
            "lat": 36.59963957989272,
            "lng": 138.1595679798927
          },
          "southwest": {
            "lat": 36.59693992010728,
            "lng": 138.1568683201073
          }
        }
      },
      "icon": "https://maps.gstatic.com/mapfiles/place_api/icons/v1/png_71/restaurant-71.png",
      "name": "スシロー 長野川中島店",
      "photos": [
        {
          "height": 3024,
          "html_attributions": [
            "<a href=\"https://maps.google.com/maps/contrib/114880309376716088470\">横山大</a>"
          ],
          "photo_reference": "Aap_uEDvxRxHVCqqwZNXIST2HWWgGloAdHboPxbpP6Id7Ya0CKXa80GFF2sgn7ChHKRSZuaW_q21JEGg5Cv6cbuKU4vo4GO8aqAbiX1a9gfXLlHEN-QgZaGz8j9pKQtT2xv8J1eCceZ7w_VoDMyZTyr9OUFWoetkU8A3CHAkL-loUck2vNnX",
          "width": 4032
        }
      ],
      "place_id": "ChIJI_FQDfWDHWARcA9g2Q0ZncQ",
      "plus_code": {
        "compound_code": "H5X5+96 長野市、長野県",
        "global_code": "8Q8WH5X5+96"
      },
      "types": [
        "restaurant",
        "point_of_interest",
        "food",
        "establishment"
      ]
    },
    {
      "business_status": "OPERATIONAL",
      "formatted_address": "日本、〒381-2226 長野県長野市川中島町今井１８３０−１",
      "geometry": {
        "location": {
          "lat": 36.5948796,
          "lng": 138.1560641
        },
        "viewport": {
          "northeast": {
            "lat": 36.59606177989272,
            "lng": 138.1573952798927
          },
          "southwest": {
            "lat": 36.59336212010728,
            "lng": 138.1546956201072
          }
        }
      },
      "icon": "https://maps.gstatic.com/mapfiles/place_api/icons/v1/png_71/restaurant-71.png",
      "name": "くら寿司 長野川中島店",
      "photos": [
        {
          "height": 3366,
          "html_attributions": [
            "<a href=\"https://maps.google.com/maps/contrib/100825439078868842693\">のりつねたかはし</a>"
          ],
          "photo_reference": "Aap_uEDNAuLA0vPjlDvvEk_YbCQWzlRqp-09_uN5mQ88J89plALrV8du9aT07BRHuGHanWFuZFs0b8vODwA4rVn2v9cJXhtpoiHkGP72STVDZ46HmbGhMAI847Pto03e8bbaVnm-pRNIfUyRn5H3T0w1yMieoqMIacrG_4GiiR2PleL5aSPE",
          "width": 5984
        }
      ],
      "place_id": "ChIJ1f9_TOyDHWARxHvc0Gw4UBc",
      "plus_code": {
        "compound_code": "H5V4+WF 長野市、長野県",
        "global_code": "8Q8WH5V4+WF"
      },
      "types": [
        "meal_takeaway",
        "restaurant",
        "point_of_interest",
        "food",
        "establishment"
      ]
    }
  ],
  "status": "OK"
}