{
  "candidates": [
    {
      "business_status": "OPERATIONAL",
      "formatted_address": "日本、〒380-0916 長野県長野市稲葉中千田２１１５ 12F",
      "geometry": {
        "location": {
          "lat": 36.6333333,
          "lng": 138.2063889
        },
        "viewport": {
          "northeast": {
            "lat": 36.63473267989272,
            "lng": 138.2076220298927
          },
          "southwest": {
            "lat": 36.63203302010728,
            "lng": 138.2049223701073
          }
        }
      },
      "icon": "https://maps.gstatic.com/mapfiles/place_api/icons/v1/png_71/restaurant-71.png",
      "name": "牛角 稲葉バイパス店",
      "photos": [
        {
          "height": 3024,
          "html_attributions": [
            "<a href=\"https://maps.google.com/maps/contrib/115256342845302365517\">masahiko 塚田</a>"
          ],
          "photo_reference": "Aap_uEBv2W2dmIOIyMvbujesAopMohEJyQyw1zWbjbFYerwLxqvs-_XNGHmsWdzeqs1ojyWqr6AV5LadETUzWUhTw4SmGjrnwBbmBWZJ9mMz1S-aeGaKW-1LJXWh83p7fpqaPphibbLOdOgLC1OBW1gYSC_JYiW7pNPipHLUB-3kGuoXlLat",
          "width": 4032
        }
      ],
      "place_id": "ChIJFcSAT9aFHWAR1pZUG9FTnvQ",
      "plus_code": {
        "compound_code": "J6M4+8H 長野市、長野県",
        "global_code": "8Q8WJ6M4+8H"
      },
      "types": [
        "restaurant",
        "food",
        "point_of_interest",
        "establishment"
      ]
    },
    {
      "business_status": "OPERATIONAL",
      "formatted_address": "日本、〒380-0916 長野県長野市稲葉中千田２１１５−１",
      "geometry": {
        "location": {
          "lat": 36.6333088,
          "lng": 138.2062711
        },
        "viewport": {
          "northeast": {
            "lat": 36.63472042989272,
            "lng": 138.2075631298927
          },
          "southwest": {
            "lat": 36.63202077010727,
            "lng": 138.2048634701073
          }
        }
      },
      "icon": "https://maps.gstatic.com/mapfiles/place_api/icons/v1/png_71/restaurant-71.png",
      "name": "しゃぶしゃぶ温野菜 稲葉バイパス店",
      "photos": [
        {
          "height": 3000,
          "html_attributions": [
            "<a href=\"https://maps.google.com/maps/contrib/106708915070345441040\">A Google User</a>"
          ],
          "photo_reference": "Aap_uEBqgH6XZPEhw9cxf3p3TCfzVX7YHfF15LYiTtECfj-a7h5TtG3cs6MqvkKPWqe9VrVYrbFBF1pGCIy3VHCEalr7O9m-fUx4SI7bGQMv5RCVaQpKV6LFoidfKbVgntEAx2fH4BKwJ1xXfaPLbNkjN-Nfo3H8Y6KORfQyfMTzknFk4kLI",
          "width": 5333
        }
      ],
      "place_id": "ChIJEeVkWLCFHWARWuyOEHeNRuQ",
      "plus_code": {
        "compound_code": "J6M4+8G 長野市、長野県",
        "global_code": "8Q8WJ6M4+8G"
      },
      "types": [
        "restaurant",
        "food",
        "point_of_interest",
        "establishment"
      ]
    }
  ],
  "status": "OK"
}