[
  {
    "address_components": [
      {
        "long_name": "岩石町",
        "short_name": "岩石町",
        "types": [
          "political",
          "sublocality",
          "sublocality_level_3"
        ]
      },
      {
        "long_name": "長野",
        "short_name": "長野",
        "types": [
          "political",
          "sublocality",
          "sublocality_level_2"
        ]
      },
      {
        "long_name": "長野市",
        "short_name": "長野市",
        "types": [
          "locality",
          "political"
        ]
      },
      {
        "long_name": "長野県",
        "short_name": "長野県",
        "types": [
          "administrative_area_level_1",
          "political"
        ]
      },
      {
        "long_name": "日本",
        "short_name": "JP",
        "types": [
          "country",
          "political"
        ]
      },
      {
        "long_name": "380-0855",
        "short_name": "380-0855",
        "types": [
          "postal_code"
        ]
      }
    ],
    "formatted_address": "日本、〒380-0855 長野県長野市長野岩石町",
    "geometry": {
      "bounds": {
        "northeast": {
          "lat": 36.6583144,
          "lng": 138.1918189
        },
        "southwest": {
          "lat": 36.6565941,
          "lng": 138.1892448
        }
      },
      "location": {
        "lat": 36.6574133,
        "lng": 138.1905474
      },
      "location_type": "APPROXIMATE",
      "viewport": {
        "northeast": {
          "lat": 36.6588032302915,
          "lng": 138.1918808302915
        },
        "southwest": {
          "lat": 36.6561052697085,
          "lng": 138.1891828697085
        }
      }
    },
    "place_id": "ChIJIT8JJPuGHWARVFT81f7Szxw",
    "types": [
      "political",
      "sublocality",
      "sublocality_level_3"
    ]
  }
]