[
  {
    "address_components": [
      {
        "long_name": "２５６２",
        "short_name": "２５６２",
        "types": [
          "premise"
        ]
      },
      {
        "long_name": "佐野",
        "short_name": "佐野",
        "types": [
          "political",
          "sublocality",
          "sublocality_level_2"
        ]
      },
      {
        "long_name": "山ノ内町",
        "short_name": "山ノ内町",
        "types": [
          "locality",
          "political"
        ]
      },
      {
        "long_name": "下高井郡",
        "short_name": "下高井郡",
        "types": [
          "administrative_area_level_2",
          "political"
        ]
      },
      {
        "long_name": "長野県",
        "short_name": "長野県",
        "types": [
          "administrative_area_level_1",
          "political"
        ]
      },
      {
        "long_name": "日本",
        "short_name": "JP",
        "types": [
          "country",
          "political"
        ]
      },
      {
        "long_name": "381-0402",
        "short_name": "381-0402",
        "types": [
          "postal_code"
        ]
      }
    ],
    "formatted_address": "日本、〒381-0402 長野県下高井郡山ノ内町佐野２５６２",
    "geometry": {
      "bounds": {
        "northeast": {
          "lat": 36.737829,
          "lng": 138.4144188
        },
        "southwest": {
          "lat": 36.7372803,
          "lng": 138.4139328
        }
      },
      "location": {
        "lat": 36.73756940000001,
        "lng": 138.4141824
      },
      "location_type": "ROOFTOP",
      "viewport": {
        "northeast": {
          "lat": 36.7389036302915,
          "lng": 138.4155247802915
        },
        "southwest": {
          "lat": 36.7362056697085,
          "lng": 138.4128268197085
        }
      }
    },
    "place_id": "ChIJ52vPsb70HWAR57flo7PylTw",
    "types": [
      "premise"
    ]
  }
]