{
  "candidates": [
    {
      "business_status": "OPERATIONAL",
      "formatted_address": "日本、〒380-0837 長野県長野市南長野南石堂町１９７１ エーワンシティ 2階 ・ジ・アゴラ",
      "geometry": {
        "location": {
          "lat": 36.6435424,
          "lng": 138.1866247
        },
        "viewport": {
          "northeast": {
            "lat": 36.64478472989272,
            "lng": 138.1880779298927
          },
          "southwest": {
            "lat": 36.64208507010728,
            "lng": 138.1853782701072
          }
        }
      },
      "icon": "https://maps.gstatic.com/mapfiles/place_api/icons/v1/png_71/restaurant-71.png",
      "name": "月の宴 長野駅前店",
      "photos": [
        {
          "height": 525,
          "html_attributions": [
            "<a href=\"https://maps.google.com/maps/contrib/102536648957838331598\">月の宴 長野駅前店</a>"
          ],
          "photo_reference": "Aap_uEBYnO0JsFl3EjTsryshx-Us9P-X10hVlPNQdfpTH-VBl1Y0w7loVN97yuzeAnjOaxWQjeNhHJ6UL0GWXL0v6Kzb72JorE7LI8BIH12INyjFXbrn55Nakh1qm5MbJVtPOmnx-6AcyP5dFkYTnOrxzEk90ls2cfz249LoOCddkGEPzw4",
          "width": 700
        }
      ],
      "place_id": "ChIJt_DkJJOGHWAR9td0Gp0c8EE",
      "plus_code": {
        "compound_code": "J5VP+CJ 長野市、長野県",
        "global_code": "8Q8WJ5VP+CJ"
      },
      "types": [
        "meal_takeaway",
        "restaurant",
        "point_of_interest",
        "food",
        "establishment"
      ]
    },
    {
      "business_status": "OPERATIONAL",
      "formatted_address": "日本、〒380-0837 長野県長野市南長野南石堂町１９７１ エーワンシティ 3階 ・ジ・アゴラ",
      "geometry": {
        "location": {
          "lat": 36.6435269,
          "lng": 138.1866398
        },
        "viewport": {
          "northeast": {
            "lat": 36.64477697989272,
            "lng": 138.1880854798927
          },
          "southwest": {
            "lat": 36.64207732010728,
            "lng": 138.1853858201073
          }
        }
      },
      "icon": "https://maps.gstatic.com/mapfiles/place_api/icons/v1/png_71/restaurant-71.png",
      "name": "白木屋 長野駅前店",
      "photos": [
        {
          "height": 1040,
          "html_attributions": [
            "<a href=\"https://maps.google.com/maps/contrib/110636477240914480344\">Ｎ白木屋 長野駅前店</a>"
          ],
          "photo_reference": "Aap_uEDwMCUFAVp0M1f7AVQZnNHCSZz6FnZEZEMknOoRgy7nFRb0qx2ibMwQzWTVyug4v8K6zRP-G1HL5f4q7UHTi0uqPDJUFUxgbbcR0P3iPn_unWnPEZOuBTl1vT4RKM9_GAJe6t2WcJOUG67pdUyOhxeSjyHV73aafD44h_ifZO_-5xz1",
          "width": 1040
        }
      ],
      "place_id": "ChIJAQDESJOGHWARa1EHn4i8ljA",
      "plus_code": {
        "compound_code": "J5VP+CM 長野市、長野県",
        "global_code": "8Q8WJ5VP+CM"
      },
      "types": [
        "meal_takeaway",
        "restaurant",
        "point_of_interest",
        "food",
        "establishment"
      ]
    }
  ],
  "status": "OK"
}