{
  "candidates": [
    {
      "business_status": "OPERATIONAL",
      "formatted_address": "日本、〒380-0837 長野県長野市南長野北石堂町１３８１ パティオビル 2階",
      "geometry": {
        "location": {
          "lat": 36.645488,
          "lng": 138.1873268
        },
        "viewport": {
          "northeast": {
            "lat": 36.64679262989273,
            "lng": 138.1886230298927
          },
          "southwest": {
            "lat": 36.64409297010728,
            "lng": 138.1859233701073
          }
        }
      },
      "icon": "https://maps.gstatic.com/mapfiles/place_api/icons/v1/png_71/restaurant-71.png",
      "name": "丹波黒どり農場 長野駅前店",
      "photos": [
        {
          "height": 2448,
          "html_attributions": [
            "<a href=\"https://maps.google.com/maps/contrib/107716461852785708460\">hiroshi kato</a>"
          ],
          "photo_reference": "Aap_uECsXEldw00HKKYDIMtZH6zW1Q3PIyXlnkjbpl-w1Z1VcXBROxhFbvgWtFpnwaUtq8fKjzmTAgsLPoHg04MJsqGdQkMb4YxDETQa7LcAy_q0qSDbyGMhZPZnFLH47Sqnnqd9VoRAvY_XEg755KMn-0na66voOKYlZA3xjJ_a-itfmDL-",
          "width": 3264
        }
      ],
      "place_id": "ChIJq6prTuyGHWARlk-0mRU5rpc",
      "plus_code": {
        "compound_code": "J5WP+5W 長野市、長野県",
        "global_code": "8Q8WJ5WP+5W"
      },
      "types": [
        "meal_takeaway",
        "restaurant",
        "point_of_interest",
        "food",
        "establishment"
      ]
    },
    {
      "business_status": "OPERATIONAL",
      "formatted_address": "日本、〒380-0826 長野県長野市大字南長野北石堂町１３８１ パティオ二線路 2階",
      "geometry": {
        "location": {
          "lat": 36.6454259,
          "lng": 138.1872929
        },
        "viewport": {
          "northeast": {
            "lat": 36.64675942989272,
            "lng": 138.1886144798927
          },
          "southwest": {
            "lat": 36.64405977010728,
            "lng": 138.1859148201073
          }
        }
      },
      "icon": "https://maps.gstatic.com/mapfiles/place_api/icons/v1/png_71/restaurant-71.png",
      "name": "ダイニングバークルー",
      "photos": [
        {
          "height": 1773,
          "html_attributions": [
            "<a href=\"https://maps.google.com/maps/contrib/112388419958243993502\">A Google User</a>"
          ],
          "photo_reference": "Aap_uEBf5VgV36w7znZfC0dA0wwOp-Aq9PNWLC69GdYa-E-FqNalXirbDpg42dvyJh8zc6yrpnHtoHQ1GRE4q5bMAHs7ccYD6ctGWOVKY_7bkqnHqMgdqPlxoHcYwq3xbTzQwwZV1s3M664g-_ozt71RptTGbz5kQpzv65TRgXZtXQydgnWB",
          "width": 2364
        }
      ],
      "place_id": "ChIJjQ-JDyuHHWARjWRSXTIzHUw",
      "plus_code": {
        "compound_code": "J5WP+5W 長野市、長野県",
        "global_code": "8Q8WJ5WP+5W"
      },
      "types": [
        "bar",
        "restaurant",
        "point_of_interest",
        "food",
        "establishment"
      ]
    }
  ],
  "status": "OK"
}