[
  {
    "address_components": [
      {
        "long_name": "藤屋御本陳",
        "short_name": "藤屋御本陳",
        "types": [
          "premise"
        ]
      },
      {
        "long_name": "大門町",
        "short_name": "大門町",
        "types": [
          "political",
          "sublocality",
          "sublocality_level_3"
        ]
      },
      {
        "long_name": "長野",
        "short_name": "長野",
        "types": [
          "political",
          "sublocality",
          "sublocality_level_2"
        ]
      },
      {
        "long_name": "長野市",
        "short_name": "長野市",
        "types": [
          "locality",
          "political"
        ]
      },
      {
        "long_name": "長野県",
        "short_name": "長野県",
        "types": [
          "administrative_area_level_1",
          "political"
        ]
      },
      {
        "long_name": "日本",
        "short_name": "JP",
        "types": [
          "country",
          "political"
        ]
      },
      {
        "long_name": "380-0841",
        "short_name": "380-0841",
        "types": [
          "postal_code"
        ]
      }
    ],
    "formatted_address": "日本、〒380-0841 長野県長野市長野大門町 藤屋御本陳",
    "geometry": {
      "bounds": {
        "northeast": {
          "lat": 36.6572443,
          "lng": 138.1877652
        },
        "southwest": {
          "lat": 36.6569902,
          "lng": 138.1876097
        }
      },
      "location": {
        "lat": 36.6571437,
        "lng": 138.187702
      },
      "location_type": "ROOFTOP",
      "viewport": {
        "northeast": {
          "lat": 36.65846623029149,
          "lng": 138.1889888802915
        },
        "southwest": {
          "lat": 36.6557682697085,
          "lng": 138.1862909197085
        }
      }
    },
    "place_id": "ChIJrcttjeSGHWARuVk7m8uD63E",
    "types": [
      "premise"
    ]
  }
]