[
  {
    "address_components": [
      {
        "long_name": "１７０４",
        "short_name": "１７０４",
        "types": [
          "premise"
        ]
      },
      {
        "long_name": "中条住良木",
        "short_name": "中条住良木",
        "types": [
          "political",
          "sublocality",
          "sublocality_level_2"
        ]
      },
      {
        "long_name": "長野市",
        "short_name": "長野市",
        "types": [
          "locality",
          "political"
        ]
      },
      {
        "long_name": "長野県",
        "short_name": "長野県",
        "types": [
          "administrative_area_level_1",
          "political"
        ]
      },
      {
        "long_name": "日本",
        "short_name": "JP",
        "types": [
          "country",
          "political"
        ]
      },
      {
        "long_name": "381-3205",
        "short_name": "381-3205",
        "types": [
          "postal_code"
        ]
      }
    ],
    "formatted_address": "日本、〒381-3205 長野県長野市中条住良木１７０４",
    "geometry": {
      "bounds": {
        "northeast": {
          "lat": 36.603837,
          "lng": 138.0165468
        },
        "southwest": {
          "lat": 36.60364149999999,
          "lng": 138.0162828
        }
      },
      "location": {
        "lat": 36.6037244,
        "lng": 138.016396
      },
      "location_type": "ROOFTOP",
      "viewport": {
        "northeast": {
          "lat": 36.6051483802915,
          "lng": 138.0177585302915
        },
        "southwest": {
          "lat": 36.6024504197085,
          "lng": 138.0150605697085
        }
      }
    },
    "place_id": "ChIJI327jWt-HWARLXXGvWv2LII",
    "types": [
      "premise"
    ]
  }
]