[
  {
    "address_components": [
      {
        "long_name": "かんてんぱぱショップぱてぃお大門店",
        "short_name": "かんてんぱぱショップぱてぃお大門店",
        "types": [
          "premise"
        ]
      },
      {
        "long_name": "５７−２",
        "short_name": "５７−２",
        "types": [
          "premise"
        ]
      },
      {
        "long_name": "大門町",
        "short_name": "大門町",
        "types": [
          "political",
          "sublocality",
          "sublocality_level_3"
        ]
      },
      {
        "long_name": "大字長野大門町",
        "short_name": "大字長野大門町",
        "types": [
          "political",
          "sublocality",
          "sublocality_level_2"
        ]
      },
      {
        "long_name": "長野市",
        "short_name": "長野市",
        "types": [
          "locality",
          "political"
        ]
      },
      {
        "long_name": "長野県",
        "short_name": "長野県",
        "types": [
          "administrative_area_level_1",
          "political"
        ]
      },
      {
        "long_name": "日本",
        "short_name": "JP",
        "types": [
          "country",
          "political"
        ]
      },
      {
        "long_name": "380-0841",
        "short_name": "380-0841",
        "types": [
          "postal_code"
        ]
      }
    ],
    "formatted_address": "日本、〒380-0841 長野県長野市大字長野大門町大門町５７−２ かんてんぱぱショップぱてぃお大門店",
    "geometry": {
      "bounds": {
        "northeast": {
          "lat": 36.6559411,
          "lng": 138.1877295
        },
        "southwest": {
          "lat": 36.6558558,
          "lng": 138.1875603
        }
      },
      "location": {
        "lat": 36.6558952,
        "lng": 138.187615
      },
      "location_type": "ROOFTOP",
      "viewport": {
        "northeast": {
          "lat": 36.6572474302915,
          "lng": 138.1889341802915
        },
        "southwest": {
          "lat": 36.6545494697085,
          "lng": 138.1862362197085
        }
      }
    },
    "place_id": "ChIJPwZ7_eSGHWARRFtG_yGtCvs",
    "types": [
      "premise"
    ]
  }
]