[
  {
    "address_components": [
      {
        "long_name": "1f",
        "short_name": "1f",
        "types": [
          "subpremise"
        ]
      },
      {
        "long_name": "権堂ビル",
        "short_name": "権堂ビル",
        "types": [
          "premise"
        ]
      },
      {
        "long_name": "２２１４−２１",
        "short_name": "２２１４−２１",
        "types": [
          "premise"
        ]
      },
      {
        "long_name": "緑町",
        "short_name": "緑町",
        "types": [
          "political",
          "sublocality",
          "sublocality_level_3"
        ]
      },
      {
        "long_name": "鶴賀",
        "short_name": "鶴賀",
        "types": [
          "political",
          "sublocality",
          "sublocality_level_2"
        ]
      },
      {
        "long_name": "長野市",
        "short_name": "長野市",
        "types": [
          "locality",
          "political"
        ]
      },
      {
        "long_name": "長野県",
        "short_name": "長野県",
        "types": [
          "administrative_area_level_1",
          "political"
        ]
      },
      {
        "long_name": "日本",
        "short_name": "JP",
        "types": [
          "country",
          "political"
        ]
      },
      {
        "long_name": "380-0907",
        "short_name": "380-0907",
        "types": [
          "postal_code"
        ]
      }
    ],
    "formatted_address": "日本、〒380-0907 長野県長野市鶴賀緑町２２１４−２１ 権堂ビル 1f",
    "geometry": {
      "bounds": {
        "northeast": {
          "lat": 36.6515649,
          "lng": 138.1921435
        },
        "southwest": {
          "lat": 36.6514933,
          "lng": 138.1919963
        }
      },
      "location": {
        "lat": 36.6515379,
        "lng": 138.1921205
      },
      "location_type": "ROOFTOP",
      "viewport": {
        "northeast": {
          "lat": 36.6528885302915,
          "lng": 138.1934188802915
        },
        "southwest": {
          "lat": 36.65019056970851,
          "lng": 138.1907209197085
        }
      }
    },
    "partial_match": true,
    "place_id": "ElZKYXBhbiwg44CSMzgwLTA5MDcgTmFnYW5vLCBUc3VydWdhLCBNaWRvcmljaMWN4oiS77yS77yS77yR77yU4oiS77yS77yRIOaoqeWgguODk-ODqyAxZiIeGhwKFgoUChIJpxyRgvGGHWARYMFTmeua0xASAjFm",
    "types": [
      "subpremise"
    ]
  }
]