{
  "candidates": [
    {
      "business_status": "OPERATIONAL",
      "formatted_address": "日本、〒380-0822 長野県長野市鶴賀８４９−１",
      "geometry": {
        "location": {
          "lat": 36.6461098,
          "lng": 138.188311
        },
        "viewport": {
          "northeast": {
            "lat": 36.64744657989272,
            "lng": 138.1897719298927
          },
          "southwest": {
            "lat": 36.64474692010727,
            "lng": 138.1870722701073
          }
        }
      },
      "icon": "https://maps.gstatic.com/mapfiles/place_api/icons/v1/png_71/restaurant-71.png",
      "name": "ゴールデン酒場おさけや長野店",
      "photos": [
        {
          "height": 3096,
          "html_attributions": [
            "<a href=\"https://maps.google.com/maps/contrib/101510788888834732067\">Shinji Niboshi</a>"
          ],
          "photo_reference": "Aap_uEAEzVG6Sotw74OiEHLesXawJF8rqGP2rPyCBJmY0DgCKGLGTnyIpuDr_tBsT1dCyf0qT-3D_6MTk3Hzk3oVg8j54ijS_24p3p5AYzE9-IKuZCJd-gqHKAVjpqx1QmmYRl3Ti3x-UegN7OVKfBctV9RAly1SJ84lxuL8ZIsQznHbMw5T",
          "width": 5504
        }
      ],
      "place_id": "ChIJj5DhP-2GHWAR_Dyfqdr-xws",
      "plus_code": {
        "compound_code": "J5WQ+C8 長野市、長野県",
        "global_code": "8Q8WJ5WQ+C8"
      },
      "types": [
        "restaurant",
        "point_of_interest",
        "food",
        "establishment"
      ]
    },
    {
      "business_status": "OPERATIONAL",
      "formatted_address": "日本、〒380-0825 長野県長野市南長野末広町１３６０−１",
      "geometry": {
        "location": {
          "lat": 36.6442203,
          "lng": 138.1871878
        },
        "viewport": {
          "northeast": {
            "lat": 36.64562867989272,
            "lng": 138.1885764798927
          },
          "southwest": {
            "lat": 36.64292902010727,
            "lng": 138.1858768201073
          }
        }
      },
      "icon": "https://maps.gstatic.com/mapfiles/place_api/icons/v1/png_71/restaurant-71.png",
      "name": "酒場食堂ニューゴールデン",
      "photos": [
        {
          "height": 3464,
          "html_attributions": [
            "<a href=\"https://maps.google.com/maps/contrib/107312751278488000937\">こばやしやすひで</a>"
          ],
          "photo_reference": "Aap_uED1BajsHYh2QB_NYGbIGfNlP8YGMWMdbV9xSL0crGNdy2SlCIUpCeU8J0RiF9fftCZ3qaAB93bP8tPLPPACcrnfQ7Q4G3V5XkIqcZnvTtUHMh0jLqhiRX7cF7ao7uoL2AOrhA7HQ9pSRK_CU5wLNNrZfzHwdBimnK52UzuSqjyQVQsT",
          "width": 4618
        }
      ],
      "place_id": "ChIJoZ2e7ZWHHWARTfTgnJ2FvEw",
      "plus_code": {
        "compound_code": "J5VP+MV 長野市、長野県",
        "global_code": "8Q8WJ5VP+MV"
      },
      "types": [
        "restaurant",
        "point_of_interest",
        "food",
        "establishment"
      ]
    }
  ],
  "status": "OK"
}