[
  {
    "address_components": [
      {
        "long_name": "東町",
        "short_name": "東町",
        "types": [
          "political",
          "sublocality",
          "sublocality_level_3"
        ]
      },
      {
        "long_name": "長野",
        "short_name": "長野",
        "types": [
          "political",
          "sublocality",
          "sublocality_level_2"
        ]
      },
      {
        "long_name": "長野市",
        "short_name": "長野市",
        "types": [
          "locality",
          "political"
        ]
      },
      {
        "long_name": "長野県",
        "short_name": "長野県",
        "types": [
          "administrative_area_level_1",
          "political"
        ]
      },
      {
        "long_name": "日本",
        "short_name": "JP",
        "types": [
          "country",
          "political"
        ]
      },
      {
        "long_name": "380-0831",
        "short_name": "380-0831",
        "types": [
          "postal_code"
        ]
      }
    ],
    "formatted_address": "日本、〒380-0831 長野県長野市長野東町",
    "geometry": {
      "bounds": {
        "northeast": {
          "lat": 36.6571594,
          "lng": 138.1901686
        },
        "southwest": {
          "lat": 36.6545567,
          "lng": 138.1879289
        }
      },
      "location": {
        "lat": 36.6560558,
        "lng": 138.1886831
      },
      "location_type": "APPROXIMATE",
      "viewport": {
        "northeast": {
          "lat": 36.6572070302915,
          "lng": 138.1903977302915
        },
        "southwest": {
          "lat": 36.6545090697085,
          "lng": 138.1876997697085
        }
      }
    },
    "place_id": "ChIJv5ZsMOWGHWARqdFeiVREs2k",
    "types": [
      "political",
      "sublocality",
      "sublocality_level_3"
    ]
  }
]