[
  {
    "address_components": [
      {
        "long_name": "長野市",
        "short_name": "長野市",
        "types": [
          "locality",
          "political"
        ]
      },
      {
        "long_name": "長野県",
        "short_name": "長野県",
        "types": [
          "administrative_area_level_1",
          "political"
        ]
      },
      {
        "long_name": "日本",
        "short_name": "JP",
        "types": [
          "country",
          "political"
        ]
      }
    ],
    "formatted_address": "日本、長野県長野市",
    "geometry": {
      "bounds": {
        "northeast": {
          "lat": 36.8357339,
          "lng": 138.3189125
        },
        "southwest": {
          "lat": 36.4607548,
          "lng": 137.9101149
        }
      },
      "location": {
        "lat": 36.6485258,
        "lng": 138.1950371
      },
      "location_type": "APPROXIMATE",
      "viewport": {
        "northeast": {
          "lat": 36.8357339,
          "lng": 138.3189125
        },
        "southwest": {
          "lat": 36.4607548,
          "lng": 137.9101149
        }
      }
    },
    "partial_match": true,
    "place_id": "ChIJmUQ05l2AHWARyJIoB3SpKPE",
    "types": [
      "locality",
      "political"
    ]
  },
  {
    "address_components": [
      {
        "long_name": "諏訪市",
        "short_name": "諏訪市",
        "types": [
          "locality",
          "political"
        ]
      },
      {
        "long_name": "長野県",
        "short_name": "長野県",
        "types": [
          "administrative_area_level_1",
          "political"
        ]
      },
      {
        "long_name": "日本",
        "short_name": "JP",
        "types": [
          "country",
          "political"
        ]
      }
    ],
    "formatted_address": "日本、長野県諏訪市",
    "geometry": {
      "bounds": {
        "northeast": {
          "lat": 36.1241101,
          "lng": 138.2003509
        },
        "southwest": {
          "lat": 35.9462515,
          "lng": 138.0342909
        }
      },
      "location": {
        "lat": 36.0391525,
        "lng": 138.1140545
      },
      "location_type": "APPROXIMATE",
      "viewport": {
        "northeast": {
          "lat": 36.1241101,
          "lng": 138.2003509
        },
        "southwest": {
          "lat": 35.9462515,
          "lng": 138.0342909
        }
      }
    },
    "partial_match": true,
    "place_id": "ChIJ30EFZMxVHGARRiDmvSJjp-0",
    "types": [
      "locality",
      "political"
    ]
  }
]