[
  {
    "address_components": [
      {
        "long_name": "202",
        "short_name": "202",
        "types": [
          "subpremise"
        ]
      },
      {
        "long_name": "センタープラザ",
        "short_name": "センタープラザ",
        "types": [
          "premise"
        ]
      },
      {
        "long_name": "１２７９−４",
        "short_name": "１２７９−４",
        "types": [
          "premise"
        ]
      },
      {
        "long_name": "南石堂町",
        "short_name": "南石堂町",
        "types": [
          "political",
          "sublocality",
          "sublocality_level_3"
        ]
      },
      {
        "long_name": "大字南長野南石堂町",
        "short_name": "大字南長野南石堂町",
        "types": [
          "political",
          "sublocality",
          "sublocality_level_2"
        ]
      },
      {
        "long_name": "長野市",
        "short_name": "長野市",
        "types": [
          "locality",
          "political"
        ]
      },
      {
        "long_name": "長野県",
        "short_name": "長野県",
        "types": [
          "administrative_area_level_1",
          "political"
        ]
      },
      {
        "long_name": "日本",
        "short_name": "JP",
        "types": [
          "country",
          "political"
        ]
      },
      {
        "long_name": "380-0824",
        "short_name": "380-0824",
        "types": [
          "postal_code"
        ]
      }
    ],
    "formatted_address": "日本、〒380-0824 長野県長野市大字南長野南石堂町南石堂町１２７９−４ センタープラザ 202",
    "geometry": {
      "bounds": {
        "northeast": {
          "lat": 36.64468859999999,
          "lng": 138.1860392
        },
        "southwest": {
          "lat": 36.644564,
          "lng": 138.1858894
        }
      },
      "location": {
        "lat": 36.6446128,
        "lng": 138.1859839
      },
      "location_type": "ROOFTOP",
      "viewport": {
        "northeast": {
          "lat": 36.6459752802915,
          "lng": 138.1873212802915
        },
        "southwest": {
          "lat": 36.6432773197085,
          "lng": 138.1846233197085
        }
      }
    },
    "partial_match": true,
    "place_id": "EnZKYXBhbiwg44CSMzgwLTA4MjQgTmFnYW5vLCDlpKflrZfljZfplbfph47ljZfnn7PloILnlLpNaW5hbWlpc2hpZMWNY2jFjeKIku-8ke-8ku-8l--8meKIku-8lCDjgrvjg7Pjgr_jg7zjg5fjg6njgrYgMjAyIh8aHQoWChQKEgkT_ZXH7IYdYBGseGTZ9TIlgBIDMjAy",
    "types": [
      "subpremise"
    ]
  }
]