[
  {
    "address_components": [
      {
        "long_name": "長谷川ビル",
        "short_name": "長谷川ビル",
        "types": [
          "premise"
        ]
      },
      {
        "long_name": "１２８２−１２",
        "short_name": "１２８２−１２",
        "types": [
          "premise"
        ]
      },
      {
        "long_name": "南石堂町",
        "short_name": "南石堂町",
        "types": [
          "political",
          "sublocality",
          "sublocality_level_3"
        ]
      },
      {
        "long_name": "大字南長野南石堂町",
        "short_name": "大字南長野南石堂町",
        "types": [
          "political",
          "sublocality",
          "sublocality_level_2"
        ]
      },
      {
        "long_name": "長野市",
        "short_name": "長野市",
        "types": [
          "locality",
          "political"
        ]
      },
      {
        "long_name": "長野県",
        "short_name": "長野県",
        "types": [
          "administrative_area_level_1",
          "political"
        ]
      },
      {
        "long_name": "日本",
        "short_name": "JP",
        "types": [
          "country",
          "political"
        ]
      },
      {
        "long_name": "380-0824",
        "short_name": "380-0824",
        "types": [
          "postal_code"
        ]
      }
    ],
    "formatted_address": "日本、〒380-0824 長野県長野市大字南長野南石堂町南石堂町１２８２−１２ 長谷川ビル",
    "geometry": {
      "bounds": {
        "northeast": {
          "lat": 36.6438832,
          "lng": 138.1859252
        },
        "southwest": {
          "lat": 36.6437081,
          "lng": 138.18567
        }
      },
      "location": {
        "lat": 36.6438052,
        "lng": 138.1857703
      },
      "location_type": "ROOFTOP",
      "viewport": {
        "northeast": {
          "lat": 36.6451446302915,
          "lng": 138.1871605302915
        },
        "southwest": {
          "lat": 36.64244666970851,
          "lng": 138.1844625697085
        }
      }
    },
    "partial_match": true,
    "place_id": "ChIJScnzSpOGHWARfsM9eiWxbxA",
    "types": [
      "premise"
    ]
  },
  {
    "address_components": [
      {
        "long_name": "１３６７",
        "short_name": "１３６７",
        "types": [
          "premise"
        ]
      },
      {
        "long_name": "南石堂町",
        "short_name": "南石堂町",
        "types": [
          "political",
          "sublocality",
          "sublocality_level_3"
        ]
      },
      {
        "long_name": "南長野",
        "short_name": "南長野",
        "types": [
          "political",
          "sublocality",
          "sublocality_level_2"
        ]
      },
      {
        "long_name": "長野市",
        "short_name": "長野市",
        "types": [
          "locality",
          "political"
        ]
      },
      {
        "long_name": "長野県",
        "short_name": "長野県",
        "types": [
          "administrative_area_level_1",
          "political"
        ]
      },
      {
        "long_name": "日本",
        "short_name": "JP",
        "types": [
          "country",
          "political"
        ]
      },
      {
        "long_name": "380-0824",
        "short_name": "380-0824",
        "types": [
          "postal_code"
        ]
      }
    ],
    "formatted_address": "日本、〒380-0824 長野県長野市南長野南石堂町１３６７",
    "geometry": {
      "location": {
        "lat": 36.6445658,
        "lng": 138.1871165
      },
      "location_type": "ROOFTOP",
      "viewport": {
        "northeast": {
          "lat": 36.6459436802915,
          "lng": 138.1883869802915
        },
        "southwest": {
          "lat": 36.6432457197085,
          "lng": 138.1856890197085
        }
      }
    },
    "partial_match": true,
    "place_id": "ChIJtzt41eyGHWARkMlOX6YlB5E",
    "plus_code": {
      "compound_code": "J5VP+RR 長野県長野市",
      "global_code": "8Q8WJ5VP+RR"
    },
    "types": [
      "establishment",
      "movie_theater",
      "point_of_interest"
    ]
  }
]