[
  {
    "address_components": [
      {
        "long_name": "1f",
        "short_name": "1f",
        "types": [
          "subpremise"
        ]
      },
      {
        "long_name": "ベルメッソさんぽ館",
        "short_name": "ベルメッソさんぽ館",
        "types": [
          "premise"
        ]
      },
      {
        "long_name": "１７−２",
        "short_name": "１７−２",
        "types": [
          "premise"
        ]
      },
      {
        "long_name": "２丁目",
        "short_name": "２丁目",
        "types": [
          "political",
          "sublocality",
          "sublocality_level_3"
        ]
      },
      {
        "long_name": "南千歳",
        "short_name": "南千歳",
        "types": [
          "political",
          "sublocality",
          "sublocality_level_2"
        ]
      },
      {
        "long_name": "長野市",
        "short_name": "長野市",
        "types": [
          "locality",
          "political"
        ]
      },
      {
        "long_name": "長野県",
        "short_name": "長野県",
        "types": [
          "administrative_area_level_1",
          "political"
        ]
      },
      {
        "long_name": "日本",
        "short_name": "JP",
        "types": [
          "country",
          "political"
        ]
      },
      {
        "long_name": "380-0823",
        "short_name": "380-0823",
        "types": [
          "postal_code"
        ]
      }
    ],
    "formatted_address": "日本、〒380-0823 長野県長野市南千歳２丁目１７−２ ベルメッソさんぽ館 1f",
    "geometry": {
      "bounds": {
        "northeast": {
          "lat": 36.6463574,
          "lng": 138.1918955
        },
        "southwest": {
          "lat": 36.6461874,
          "lng": 138.1916373
        }
      },
      "location": {
        "lat": 36.6462608,
        "lng": 138.1918292
      },
      "location_type": "ROOFTOP",
      "viewport": {
        "northeast": {
          "lat": 36.64762138029149,
          "lng": 138.1931153802915
        },
        "southwest": {
          "lat": 36.6449234197085,
          "lng": 138.1904174197085
        }
      }
    },
    "place_id": "EmBKYXBhbiwg44CSMzgwLTA4MjMgTmFnYW5vLCBNaW5hbWljaGl0b3NlLCAyLWNoxY1tZeKIku-8ke-8l-KIku-8kiDjg5njg6vjg6Hjg4Pjgr3jgZXjgpPjgb3ppKggMWYiHhocChYKFAoSCQW_ciyNhh1gEb1rsM-UQAmfEgIxZg",
    "types": [
      "subpremise"
    ]
  }
]