{
  "candidates": [
    {
      "business_status": "CLOSED_TEMPORARILY",
      "formatted_address": "日本、〒380-0825 長野県長野市末広町末広町１３５８",
      "geometry": {
        "location": {
          "lat": 36.6442843,
          "lng": 138.1867307
        },
        "viewport": {
          "northeast": {
            "lat": 36.64559952989272,
            "lng": 138.1880603798927
          },
          "southwest": {
            "lat": 36.64289987010727,
            "lng": 138.1853607201072
          }
        }
      },
      "icon": "https://maps.gstatic.com/mapfiles/place_api/icons/v1/png_71/lodging-71.png",
      "name": "長野セントラルホテル",
      "photos": [
        {
          "height": 2448,
          "html_attributions": [
            "<a href=\"https://maps.google.com/maps/contrib/110728991888692746073\">TAKASHI TOMII</a>"
          ],
          "photo_reference": "Aap_uECPrIqQCMpTS7JMuyo0cMSfpDqB6zLI2RrLEWnjZYW9wHg0d9fpoyz-dBwGPu3Y2C2S1oYI6SJzVRO7H6bX3zCKS8ntfa7pNXO-klGiJqHwBjjuNucCboSPCBL_GqnFPn84Tv_pryecIiveDCniQ3mD2hOw-f-lugtY3ZFTmJNvw4Fj",
          "width": 3264
        }
      ],
      "place_id": "ChIJDw2r1OyGHWARegfXZnU3DSc",
      "plus_code": {
        "compound_code": "J5VP+PM 長野市、長野県",
        "global_code": "8Q8WJ5VP+PM"
      },
      "types": [
        "lodging",
        "point_of_interest",
        "establishment"
      ]
    },
    {
      "business_status": "OPERATIONAL",
      "formatted_address": "日本、〒380-0825 長野県長野市末広町１３５８ 長野セントラルホテルB1",
      "geometry": {
        "location": {
          "lat": 36.6442564,
          "lng": 138.1868051
        },
        "viewport": {
          "northeast": {
            "lat": 36.64555422989272,
            "lng": 138.1881246298927
          },
          "southwest": {
            "lat": 36.64285457010727,
            "lng": 138.1854249701072
          }
        }
      },
      "icon": "https://maps.gstatic.com/mapfiles/place_api/icons/v1/png_71/restaurant-71.png",
      "name": "くいもの屋わん 長野駅前店",
      "photos": [
        {
          "height": 2160,
          "html_attributions": [
            "<a href=\"https://maps.google.com/maps/contrib/104518376171117586657\">堀米よし江</a>"
          ],
          "photo_reference": "Aap_uEDTNJ_nPpXvzEjlSVDXnIzPArMtFuAewU0fnth1klkqDjkjmdl2gA8Ma0Xf3-a57CkEKHu3-qI1MecuwAP2i3X1uFhKtQZ6QT8MxcF13Sg_kjHwSRSScSzlJX9di3B2J6jy1NkT8KAx-WjUjOMSGDLCBhbexffXZ93jTPXGwN_j9c4",
          "width": 3840
        }
      ],
      "place_id": "ChIJq3P40uyGHWARVp6Hi-p6OEE",
      "plus_code": {
        "compound_code": "J5VP+PP 長野市、長野県",
        "global_code": "8Q8WJ5VP+PP"
      },
      "types": [
        "restaurant",
        "food",
        "point_of_interest",
        "establishment"
      ]
    }
  ],
  "status": "OK"
}