[
  {
    "address_components": [
      {
        "long_name": "末広町",
        "short_name": "末広町",
        "types": [
          "political",
          "sublocality",
          "sublocality_level_3"
        ]
      },
      {
        "long_name": "南長野",
        "short_name": "南長野",
        "types": [
          "political",
          "sublocality",
          "sublocality_level_2"
        ]
      },
      {
        "long_name": "長野市",
        "short_name": "長野市",
        "types": [
          "locality",
          "political"
        ]
      },
      {
        "long_name": "長野県",
        "short_name": "長野県",
        "types": [
          "administrative_area_level_1",
          "political"
        ]
      },
      {
        "long_name": "日本",
        "short_name": "JP",
        "types": [
          "country",
          "political"
        ]
      },
      {
        "long_name": "380-0825",
        "short_name": "380-0825",
        "types": [
          "postal_code"
        ]
      }
    ],
    "formatted_address": "日本、〒380-0825 長野県長野市南長野末広町",
    "geometry": {
      "bounds": {
        "northeast": {
          "lat": 36.6447647,
          "lng": 138.1883884
        },
        "southwest": {
          "lat": 36.6431649,
          "lng": 138.186385
        }
      },
      "location": {
        "lat": 36.6438602,
        "lng": 138.1872849
      },
      "location_type": "APPROXIMATE",
      "viewport": {
        "northeast": {
          "lat": 36.6453137802915,
          "lng": 138.1887356802915
        },
        "southwest": {
          "lat": 36.6426158197085,
          "lng": 138.1860377197085
        }
      }
    },
    "place_id": "ChIJ5Z-T2ZKGHWARq-vctZ8-Gg4",
    "types": [
      "political",
      "sublocality",
      "sublocality_level_3"
    ]
  }
]