[
  {
    "address_components": [
      {
        "long_name": "長野タクシー",
        "short_name": "長野タクシー",
        "types": [
          "premise"
        ]
      },
      {
        "long_name": "１９６２",
        "short_name": "１９６２",
        "types": [
          "premise"
        ]
      },
      {
        "long_name": "北長池",
        "short_name": "北長池",
        "types": [
          "political",
          "sublocality",
          "sublocality_level_2"
        ]
      },
      {
        "long_name": "長野市",
        "short_name": "長野市",
        "types": [
          "locality",
          "political"
        ]
      },
      {
        "long_name": "長野県",
        "short_name": "長野県",
        "types": [
          "administrative_area_level_1",
          "political"
        ]
      },
      {
        "long_name": "日本",
        "short_name": "JP",
        "types": [
          "country",
          "political"
        ]
      },
      {
        "long_name": "381-0025",
        "short_name": "381-0025",
        "types": [
          "postal_code"
        ]
      }
    ],
    "formatted_address": "日本、〒381-0025 長野県長野市北長池１９６２ 長野タクシー",
    "geometry": {
      "bounds": {
        "northeast": {
          "lat": 36.645264,
          "lng": 138.2381104
        },
        "southwest": {
          "lat": 36.645155,
          "lng": 138.2377946
        }
      },
      "location": {
        "lat": 36.6452191,
        "lng": 138.2379339
      },
      "location_type": "ROOFTOP",
      "viewport": {
        "northeast": {
          "lat": 36.6466163802915,
          "lng": 138.2393014802915
        },
        "southwest": {
          "lat": 36.64391841970851,
          "lng": 138.2366035197085
        }
      }
    },
    "place_id": "ChIJ9Xv-P_-FHWARe6HBiZfg4jo",
    "types": [
      "premise"
    ]
  }
]