[
  {
    "address_components": [
      {
        "long_name": "10f",
        "short_name": "10f",
        "types": [
          "subpremise"
        ]
      },
      {
        "long_name": "ウエストプラザ長野",
        "short_name": "ウエストプラザ長野",
        "types": [
          "premise"
        ]
      },
      {
        "long_name": "１３５５−５",
        "short_name": "１３５５−５",
        "types": [
          "premise"
        ]
      },
      {
        "long_name": "末広町",
        "short_name": "末広町",
        "types": [
          "political",
          "sublocality",
          "sublocality_level_3"
        ]
      },
      {
        "long_name": "大字南長野末広町",
        "short_name": "大字南長野末広町",
        "types": [
          "political",
          "sublocality",
          "sublocality_level_2"
        ]
      },
      {
        "long_name": "長野市",
        "short_name": "長野市",
        "types": [
          "locality",
          "political"
        ]
      },
      {
        "long_name": "長野県",
        "short_name": "長野県",
        "types": [
          "administrative_area_level_1",
          "political"
        ]
      },
      {
        "long_name": "日本",
        "short_name": "JP",
        "types": [
          "country",
          "political"
        ]
      },
      {
        "long_name": "380-0825",
        "short_name": "380-0825",
        "types": [
          "postal_code"
        ]
      }
    ],
    "formatted_address": "日本、〒380-0825 長野県長野市大字南長野末広町末広町１３５５−５ ウエストプラザ長野 10f",
    "geometry": {
      "bounds": {
        "northeast": {
          "lat": 36.6439031,
          "lng": 138.1872276
        },
        "southwest": {
          "lat": 36.6434862,
          "lng": 138.1866982
        }
      },
      "location": {
        "lat": 36.6436905,
        "lng": 138.1870519
      },
      "location_type": "ROOFTOP",
      "viewport": {
        "northeast": {
          "lat": 36.6450436302915,
          "lng": 138.1883118802915
        },
        "southwest": {
          "lat": 36.6423456697085,
          "lng": 138.1856139197085
        }
      }
    },
    "partial_match": true,
    "place_id": "EnNKYXBhbiwg44CSMzgwLTA4MjUgTmFnYW5vLCDlpKflrZfljZfplbfph47mnKvluoPnlLpTdWVoaXJvY2jFjeKIku-8ke-8k--8le-8leKIku-8lSDjgqbjgqjjgrnjg4jjg5fjg6njgrbplbfph44gMTBmIh8aHQoWChQKEgmHVuYlk4YdYBGOvJA_ua295RIDMTBm",
    "types": [
      "subpremise"
    ]
  }
]