{
  "candidates": [
    {
      "business_status": "OPERATIONAL",
      "formatted_address": "日本、〒380-0825 長野県長野市１３５５−５",
      "geometry": {
        "location": {
          "lat": 36.64375709999999,
          "lng": 138.1871017
        },
        "viewport": {
          "northeast": {
            "lat": 36.64500767989271,
            "lng": 138.1884962798927
          },
          "southwest": {
            "lat": 36.64230802010727,
            "lng": 138.1857966201073
          }
        }
      },
      "icon": "https://maps.gstatic.com/mapfiles/place_api/icons/v1/png_71/generic_business-71.png",
      "name": "ウェストプラザ長野",
      "photos": [
        {
          "height": 3024,
          "html_attributions": [
            "<a href=\"https://maps.google.com/maps/contrib/109411816431015573515\">Nobuo Suzuki</a>"
          ],
          "photo_reference": "Aap_uEAHLE4pckhVhP2Jz7yMDiRljNEdsRGEPZWceEuHaL5bNRtpUgX5a_PNUvh4v6PS5QcF300hqLFVjmE7uV6FKZM0G0bwj2NiOY2-u8lR1zny7lDgc6gGrR4G6M40bGaQ-NfwX29FcVXysd8wN5l29WmRgyRFJAjEJfamP4hTd_2hSo8L",
          "width": 4032
        }
      ],
      "place_id": "ChIJhQgFJ5OGHWARSVgDV-3lPgo",
      "plus_code": {
        "compound_code": "J5VP+GR 長野市、長野県",
        "global_code": "8Q8WJ5VP+GR"
      },
      "types": [
        "real_estate_agency",
        "point_of_interest",
        "establishment"
      ]
    },
    {
      "business_status": "OPERATIONAL",
      "formatted_address": "日本、〒381-0825 長野県長野市末広町１３５５−５ ウエストプラザ長野 10Ｆ",
      "geometry": {
        "location": {
          "lat": 36.643791,
          "lng": 138.187141
        },
        "viewport": {
          "northeast": {
            "lat": 36.64522287989272,
            "lng": 138.1885242798927
          },
          "southwest": {
            "lat": 36.64252322010728,
            "lng": 138.1858246201073
          }
        }
      },
      "icon": "https://maps.gstatic.com/mapfiles/place_api/icons/v1/png_71/restaurant-71.png",
      "name": "欅屋 びくら 長野駅前",
      "photos": [
        {
          "height": 2002,
          "html_attributions": [
            "<a href=\"https://maps.google.com/maps/contrib/104354130376695016075\">欅屋 びくら</a>"
          ],
          "photo_reference": "Aap_uEA-pvggSIe1vtcUsITBuYFiB2ZMC_P9tUlbZPx3sPuA032rw0dWPIG_xQseuMW3yTVaK6aXGY9U68FmV0zvKoab9v-4Iry6845JyAxJPqKPsgkABh2YwotZptp01aclv6WF6wopIMWYkKvVZeluf_6X79_Atn3ccvbphhXRiQyKuDGH",
          "width": 3000
        }
      ],
      "place_id": "ChIJ5SEdJ5OGHWARd46uU8a7_R8",
      "plus_code": {
        "compound_code": "J5VP+GV 長野市、長野県",
        "global_code": "8Q8WJ5VP+GV"
      },
      "types": [
        "restaurant",
        "point_of_interest",
        "food",
        "store",
        "establishment"
      ]
    }
  ],
  "status": "OK"
}