[
  {
    "address_components": [
      {
        "long_name": "2f",
        "short_name": "2f",
        "types": [
          "subpremise"
        ]
      },
      {
        "long_name": "長野スエヒロビル",
        "short_name": "長野スエヒロビル",
        "types": [
          "premise"
        ]
      },
      {
        "long_name": "１３６０−１",
        "short_name": "１３６０−１",
        "types": [
          "premise"
        ]
      },
      {
        "long_name": "末広町",
        "short_name": "末広町",
        "types": [
          "political",
          "sublocality",
          "sublocality_level_3"
        ]
      },
      {
        "long_name": "大字南長野末広町",
        "short_name": "大字南長野末広町",
        "types": [
          "political",
          "sublocality",
          "sublocality_level_2"
        ]
      },
      {
        "long_name": "長野市",
        "short_name": "長野市",
        "types": [
          "locality",
          "political"
        ]
      },
      {
        "long_name": "長野県",
        "short_name": "長野県",
        "types": [
          "administrative_area_level_1",
          "political"
        ]
      },
      {
        "long_name": "日本",
        "short_name": "JP",
        "types": [
          "country",
          "political"
        ]
      },
      {
        "long_name": "380-0825",
        "short_name": "380-0825",
        "types": [
          "postal_code"
        ]
      }
    ],
    "formatted_address": "日本、〒380-0825 長野県長野市大字南長野末広町末広町１３６０−１ 長野スエヒロビル 2f",
    "geometry": {
      "bounds": {
        "northeast": {
          "lat": 36.6443732,
          "lng": 138.1872038
        },
        "southwest": {
          "lat": 36.644135,
          "lng": 138.1869797
        }
      },
      "location": {
        "lat": 36.6442311,
        "lng": 138.1870907
      },
      "location_type": "ROOFTOP",
      "viewport": {
        "northeast": {
          "lat": 36.64560308029149,
          "lng": 138.1884407302915
        },
        "southwest": {
          "lat": 36.6429051197085,
          "lng": 138.1857427697085
        }
      }
    },
    "partial_match": true,
    "place_id": "Em9KYXBhbiwg44CSMzgwLTA4MjUgTmFnYW5vLCDlpKflrZfljZfplbfph47mnKvluoPnlLpTdWVoaXJvY2jFjeKIku-8ke-8k--8lu-8kOKIku-8kSDplbfph47jgrnjgqjjg5Ljg63jg5Pjg6sgMmYiHhocChYKFAoSCQl_EiqThh1gEV4vdtBPKe5OEgIyZg",
    "types": [
      "subpremise"
    ]
  }
]