[
  {
    "address_components": [
      {
        "long_name": "ワコープラザビル",
        "short_name": "ワコープラザビル",
        "types": [
          "premise"
        ]
      },
      {
        "long_name": "末広町",
        "short_name": "末広町",
        "types": [
          "political",
          "sublocality",
          "sublocality_level_3"
        ]
      },
      {
        "long_name": "南長野",
        "short_name": "南長野",
        "types": [
          "political",
          "sublocality",
          "sublocality_level_2"
        ]
      },
      {
        "long_name": "長野市",
        "short_name": "長野市",
        "types": [
          "locality",
          "political"
        ]
      },
      {
        "long_name": "長野県",
        "short_name": "長野県",
        "types": [
          "administrative_area_level_1",
          "political"
        ]
      },
      {
        "long_name": "日本",
        "short_name": "JP",
        "types": [
          "country",
          "political"
        ]
      },
      {
        "long_name": "380-0825",
        "short_name": "380-0825",
        "types": [
          "postal_code"
        ]
      }
    ],
    "formatted_address": "日本、〒380-0825 長野県長野市南長野末広町 ワコープラザビル",
    "geometry": {
      "bounds": {
        "northeast": {
          "lat": 36.6443278,
          "lng": 138.1872771
        },
        "southwest": {
          "lat": 36.6441032,
          "lng": 138.1870982
        }
      },
      "location": {
        "lat": 36.6442203,
        "lng": 138.1871878
      },
      "location_type": "ROOFTOP",
      "viewport": {
        "northeast": {
          "lat": 36.6455692802915,
          "lng": 138.1885366302915
        },
        "southwest": {
          "lat": 36.6428713197085,
          "lng": 138.1858386697085
        }
      }
    },
    "partial_match": true,
    "place_id": "ChIJnbkO1pKGHWARJJolN9WA6SU",
    "types": [
      "premise"
    ]
  }
]