[
  {
    "address_components": [
      {
        "long_name": "９８１",
        "short_name": "９８１",
        "types": [
          "premise"
        ]
      },
      {
        "long_name": "立町",
        "short_name": "立町",
        "types": [
          "political",
          "sublocality",
          "sublocality_level_3"
        ]
      },
      {
        "long_name": "長野",
        "short_name": "長野",
        "types": [
          "political",
          "sublocality",
          "sublocality_level_2"
        ]
      },
      {
        "long_name": "長野市",
        "short_name": "長野市",
        "types": [
          "locality",
          "political"
        ]
      },
      {
        "long_name": "長野県",
        "short_name": "長野県",
        "types": [
          "administrative_area_level_1",
          "political"
        ]
      },
      {
        "long_name": "日本",
        "short_name": "JP",
        "types": [
          "country",
          "political"
        ]
      },
      {
        "long_name": "380-0864",
        "short_name": "380-0864",
        "types": [
          "postal_code"
        ]
      }
    ],
    "formatted_address": "日本、〒380-0864 長野県長野市長野立町９８１",
    "geometry": {
      "bounds": {
        "northeast": {
          "lat": 36.6570859,
          "lng": 138.1844293
        },
        "southwest": {
          "lat": 36.6570117,
          "lng": 138.1843583
        }
      },
      "location": {
        "lat": 36.6570417,
        "lng": 138.1844013
      },
      "location_type": "ROOFTOP",
      "viewport": {
        "northeast": {
          "lat": 36.6584058802915,
          "lng": 138.1857427802915
        },
        "southwest": {
          "lat": 36.6557079197085,
          "lng": 138.1830448197085
        }
      }
    },
    "place_id": "ChIJ1yOjVuGGHWARiXXc0rhxMzs",
    "types": [
      "premise"
    ]
  }
]