<?xml version="1.0" encoding="UTF-8"?>
<kml xmlns="http://www.opengis.net/kml/2.2">
  <Document>
    <name>信州割クーポン対象店舗 (東信)</name>
    <description/>
    <Style id="icon-1899-0288D1-normal">
      <IconStyle>
        <color>ffd18802</color>
        <scale>1</scale>
        <Icon>
          <href>https://www.gstatic.com/mapspro/images/stock/503-wht-blank_maps.png</href>
        </Icon>
        <hotSpot x="32" xunits="pixels" y="64" yunits="insetPixels"/>
      </IconStyle>
      <LabelStyle>
        <scale>0</scale>
      </LabelStyle>
    </Style>
    <Style id="icon-1899-0288D1-highlight">
      <IconStyle>
        <color>ffd18802</color>
        <scale>1</scale>
        <Icon>
          <href>https://www.gstatic.com/mapspro/images/stock/503-wht-blank_maps.png</href>
        </Icon>
        <hotSpot x="32" xunits="pixels" y="64" yunits="insetPixels"/>
      </IconStyle>
      <LabelStyle>
        <scale>1</scale>
      </LabelStyle>
    </Style>
    <StyleMap id="icon-1899-0288D1">
      <Pair>
        <key>normal</key>
        <styleUrl>#icon-1899-0288D1-normal</styleUrl>
      </Pair>
      <Pair>
        <key>highlight</key>
        <styleUrl>#icon-1899-0288D1-highlight</styleUrl>
      </Pair>
    </StyleMap>

    <Folder>
      <name>東信</name>

      <Placemark>
        <name>長野自動車道みどり湖パーキングエリア上り（小木曽屋玄治郎）</name>
        <description><![CDATA[No.1057<br>長野県塩尻市柿沢651番地3<br>0263-56-2051<br>https://www.ohtaki-gp.jp/brand/pa_1/<br><br>その他土産物店<br>定食屋]]></description>
        <styleUrl>#icon-1899-0288D1</styleUrl>
        <Point><coordinates>137.9961076,36.0995909,0</coordinates></Point>
      </Placemark>

      <Placemark>
        <name>ELOISE's Cafe</name>
        <description><![CDATA[No.1058<br>長野県軽井沢町軽井沢1067-9ハーモニーハウス<br>0267-42-7997<br>https://eloise-cunningham.jp/<br><br>カフェ・スイーツ]]></description>
        <styleUrl>#icon-1899-0288D1</styleUrl>
        <Point><coordinates>138.6278633,36.3333354,0</coordinates></Point>
      </Placemark>

      <Placemark>
        <name>軽井沢ホテルブレストンコート ザ・ラウンジ</name>
        <description><![CDATA[No.1059<br>長野県軽井沢町星野<br>0267-46-6200<br><br><br>土産物店<br>カフェ・スイーツ]]></description>
        <styleUrl>#icon-1899-0288D1</styleUrl>
        <Point><coordinates>138.5887584,36.3579091,0</coordinates></Point>
      </Placemark>

      <Placemark>
        <name>星野リゾートBEB5軽井沢</name>
        <description><![CDATA[No.1060<br>長野県軽井沢町長倉3364-15<br>0267-44-3015<br>https://hoshinoresorts.com/ja/hotels/beb5karuizawa/<br>その他<br>土産物店, その他土産物店<br>カフェ・スイーツ]]></description>
        <styleUrl>#icon-1899-0288D1</styleUrl>
        <Point><coordinates>138.588623,36.3561325,0</coordinates></Point>
      </Placemark>

      <Placemark>
        <name>ニュー交通（有）</name>
        <description><![CDATA[No.1061<br>長野県佐久市安原1525-3<br>0267-22-0015<br>http://members.ctknet.ne.jp/newkotsu/<br><br>タクシー]]></description>
        <styleUrl>#icon-1899-0288D1</styleUrl>
        <Point><coordinates>138.491398,36.274619,0</coordinates></Point>
      </Placemark>

      <Placemark>
        <name>KURABITO STAY</name>
        <description><![CDATA[No.1062<br>長野県佐久市臼田623-2<br>0267-74-0588<br>https://kurabitostay.com<br>料理体験, その他<br>その他土産物店<br>その他グルメ]]></description>
        <styleUrl>#icon-1899-0288D1</styleUrl>
        <Point><coordinates>138.4774109,36.2010256,0</coordinates></Point>
      </Placemark>

      <Placemark>
        <name>橘倉酒造　アンテナショップ酒楽</name>
        <description><![CDATA[No.1063<br>長野県佐久市臼田652-1<br>0267-82-2006<br>https://kitsukura.co.jp<br><br>土産物店, その他土産物店]]></description>
        <styleUrl>#icon-1899-0288D1</styleUrl>
        <Point><coordinates>138.477192,36.2011198,0</coordinates></Point>
      </Placemark>

      <Placemark>
        <name>松葉タクシー佐久営業所</name>
        <description><![CDATA[No.1064<br>長野県佐久市猿久保779番地2<br>0267-67-4321<br>https://www.matsuba-taxi.com/<br><br>タクシー]]></description>
        <styleUrl>#icon-1899-0288D1</styleUrl>
        <Point><coordinates>138.475164,36.256692,0</coordinates></Point>
      </Placemark>

      <Placemark>
        <name>海山亭いっちょう臼田店</name>
        <description><![CDATA[No.1065<br>長野県佐久市下小田切501-1<br>0267-88-5178<br>http://www.icho.co.jp/<br><br>居酒屋・創作料理]]></description>
        <styleUrl>#icon-1899-0288D1</styleUrl>
        <Point><coordinates>138.4803011,36.1881458,0</coordinates></Point>
      </Placemark>

      <Placemark>
        <name>ほのBuonoのタルト屋さんバンビーナ</name>
        <description><![CDATA[No.1066<br>長野県佐久市岩村田161-1井出ビル102<br>0267-67-7770<br><br><br>カフェ・スイーツ]]></description>
        <styleUrl>#icon-1899-0288D1</styleUrl>
        <Point><coordinates>138.481061,36.2821908,0</coordinates></Point>
      </Placemark>

      <Placemark>
        <name>くつろぎイタリアンほのBuono</name>
        <description><![CDATA[No.1067<br>長野県佐久市岩村田1734-6<br>0267-65-7566<br><br><br>イタリアン]]></description>
        <styleUrl>#icon-1899-0288D1</styleUrl>
        <Point><coordinates>138.4649448,36.2692763,0</coordinates></Point>
      </Placemark>

      <Placemark>
        <name>信州焼肉　南山亭　佐久平店</name>
        <description><![CDATA[No.1068<br>長野県佐久市岩村田1772-2<br>0267-67-7020<br>http://youth-g.com<br><br>焼肉・ホルモン]]></description>
        <styleUrl>#icon-1899-0288D1</styleUrl>
        <Point><coordinates>138.4646925,36.2669436,0</coordinates></Point>
      </Placemark>

      <Placemark>
        <name>岩村田観光タクシー株式会社</name>
        <description><![CDATA[No.1069<br>長野県佐久市岩村田3060-1<br>0267-67-2525<br><br><br>タクシー]]></description>
        <styleUrl>#icon-1899-0288D1</styleUrl>
        <Point><coordinates>138.4830722,36.2711263,0</coordinates></Point>
      </Placemark>

      <Placemark>
        <name>御料理処　かつ栄</name>
        <description><![CDATA[No.1070<br>長野県佐久市岩村田3255<br>0267-67-3858<br><br><br>和食・寿司・天ぷら]]></description>
        <styleUrl>#icon-1899-0288D1</styleUrl>
        <Point><coordinates>138.4812834,36.2715358,0</coordinates></Point>
      </Placemark>

      <Placemark>
        <name>佐久ホテル</name>
        <description><![CDATA[No.1071<br>長野県佐久市岩村田553<br>0267-67-3003<br>http://www.sakusaku.co.jp<br>日帰り温泉施設<br>土産物店<br>和食・寿司・天ぷら]]></description>
        <styleUrl>#icon-1899-0288D1</styleUrl>
        <Point><coordinates>138.4800047,36.2737767,0</coordinates></Point>
      </Placemark>

      <Placemark>
        <name>和泉屋菓子店　本店</name>
        <description><![CDATA[No.1072<br>長野県佐久市岩村田749<br>0267-68-5000<br>http://www.izumiya-saku.co.jp/<br><br>土産物店]]></description>
        <styleUrl>#icon-1899-0288D1</styleUrl>
        <Point><coordinates>138.478101,36.2725313,0</coordinates></Point>
      </Placemark>

      <Placemark>
        <name>本町おかず市場</name>
        <description><![CDATA[No.1073<br>長野県佐久市岩村田760-1<br>0267-66-7860<br><br><br>その他グルメ]]></description>
        <styleUrl>#icon-1899-0288D1</styleUrl>
        <Point><coordinates>138.4781725,36.2729512,0</coordinates></Point>
      </Placemark>

      <Placemark>
        <name>ショコラ・デュ・ボヌール　岩村田店</name>
        <description><![CDATA[No.1074<br>長野県佐久市岩村田762<br>0267-88-6112<br><br><br>その他土産物店]]></description>
        <styleUrl>#icon-1899-0288D1</styleUrl>
        <Point><coordinates>138.4784565,36.2731869,0</coordinates></Point>
      </Placemark>

      <Placemark>
        <name>和泉屋商店</name>
        <description><![CDATA[No.1075<br>長野県佐久市岩村田789-2<br>0267-67-2062<br>https://www.izumikura.com<br><br>その他土産物店]]></description>
        <styleUrl>#icon-1899-0288D1</styleUrl>
        <Point><coordinates>138.4784992,36.2739826,0</coordinates></Point>
      </Placemark>

      <Placemark>
        <name>佐久小諸観光(株)</name>
        <description><![CDATA[No.1076<br>長野県佐久市岩村田851番地1<br>0267-22-2475<br>https://www.komoro-kanko.jp<br><br>タクシー]]></description>
        <styleUrl>#icon-1899-0288D1</styleUrl>
        <Point><coordinates>138.47838069768986,36.27683430679309,0</coordinates></Point>
      </Placemark>

      <Placemark>
        <name>肉肉亭　花いちばん　佐久平店</name>
        <description><![CDATA[No.1077<br>長野県佐久市岩村田一本柳2329ー1なんだ館<br>090-5432-8951<br><br><br>鉄板・ステーキ]]></description>
        <styleUrl>#icon-1899-0288D1</styleUrl>
        <Point><coordinates>138.4676812,36.2661888,0</coordinates></Point>
      </Placemark>

      <Placemark>
        <name>海山亭いっちょう佐久店</name>
        <description><![CDATA[No.1078<br>長野県佐久市岩村田北1丁目31-3<br>0267-88-8178<br>http://www.icho.co.jp/<br><br>居酒屋・創作料理]]></description>
        <styleUrl>#icon-1899-0288D1</styleUrl>
        <Point><coordinates>138.480228,36.285653,0</coordinates></Point>
      </Placemark>

      <Placemark>
        <name>寿司・十割りそば天船</name>
        <description><![CDATA[No.1079<br>長野県佐久市協和147-1<br>0267-53-3055<br><br><br>和食・寿司・天ぷら]]></description>
        <styleUrl>#icon-1899-0288D1</styleUrl>
        <Point><coordinates>138.3542985,36.2640113,0</coordinates></Point>
      </Placemark>

      <Placemark>
        <name>わかや酒店</name>
        <description><![CDATA[No.1080<br>長野県佐久市協和2344<br>0267-53-3443<br><br><br>土産物店]]></description>
        <styleUrl>#icon-1899-0288D1</styleUrl>
        <Point><coordinates>138.47685,36.2487978,0</coordinates></Point>
      </Placemark>

      <Placemark>
        <name>食材工房 光志亭</name>
        <description><![CDATA[No.1081<br>長野県佐久市協和2395-1<br>0267-78-5415<br>http://koshitei.web.fc2.com/<br><br>ラーメン・つけ麺]]></description>
        <styleUrl>#icon-1899-0288D1</styleUrl>
        <Point><coordinates>138.3591229,36.2600107,0</coordinates></Point>
      </Placemark>

      <Placemark>
        <name>サニーカントリークラブ</name>
        <description><![CDATA[No.1082<br>長野県佐久市協和3491<br>0267-54-2001<br>http://www.sunny-cc.co.jp<br>アウトドア・スポーツ体験<br>土産物店<br>その他グルメ]]></description>
        <styleUrl>#icon-1899-0288D1</styleUrl>
        <Point><coordinates>138.3081666,36.1903991,0</coordinates></Point>
      </Placemark>

      <Placemark>
        <name>望月東急ゴルフクラブ</name>
        <description><![CDATA[No.1083<br>長野県佐久市協和3597番地27<br>0267-53-6109<br>https://www.tokyu-golf-resort.com/mochizuki/<br>アウトドア・スポーツ体験<br>]]></description>
        <styleUrl>#icon-1899-0288D1</styleUrl>
        <Point><coordinates>138.325499,36.205612,0</coordinates></Point>
      </Placemark>

      <Placemark>
        <name>千曲ハイヤー</name>
        <description><![CDATA[No.1084<br>長野県佐久市原531-4<br>0267-62-1010<br>http://t-k-bus.com/chikuma-hire/<br><br>タクシー]]></description>
        <styleUrl>#icon-1899-0288D1</styleUrl>
        <Point><coordinates>138.473606,36.2258685,0</coordinates></Point>
      </Placemark>

      <Placemark>
        <name>佐久ハイヤー</name>
        <description><![CDATA[No.1085<br>長野県佐久市原531-4<br>0267-62-1515<br>http://t-k-bus.com/chikuma-hire/<br><br>タクシー]]></description>
        <styleUrl>#icon-1899-0288D1</styleUrl>
        <Point><coordinates>138.47685,36.2487978,0</coordinates></Point>
      </Placemark>

      <Placemark>
        <name>浅科観光ハイヤー株式会社</name>
        <description><![CDATA[No.1086<br>長野県佐久市甲1308-1<br>0267-58-2030<br><br><br>タクシー]]></description>
        <styleUrl>#icon-1899-0288D1</styleUrl>
        <Point><coordinates>138.4216077,36.2713894,0</coordinates></Point>
      </Placemark>

      <Placemark>
        <name>道の駅ほっとぱーく浅科</name>
        <description><![CDATA[No.1087<br>長野県佐久市甲2177-1<br>0267-58-0581<br>https://peraichi.com/landing_pages/view/mitinoekihotparkasashina<br><br>道の駅]]></description>
        <styleUrl>#icon-1899-0288D1</styleUrl>
        <Point><coordinates>138.4042687,36.2575639,0</coordinates></Point>
      </Placemark>

      <Placemark>
        <name>ＪＷＴジャパンウインズツアー株式会社</name>
        <description><![CDATA[No.1088<br>長野県佐久市今井533-1<br>0267-66-1268<br>http://www.jwt-tour.jp<br><br>土産物店, その他土産物店]]></description>
        <styleUrl>#icon-1899-0288D1</styleUrl>
        <Point><coordinates>138.4498422,36.2511329,0</coordinates></Point>
      </Placemark>

      <Placemark>
        <name>かっぱ寿司佐久中込店</name>
        <description><![CDATA[No.1089<br>長野県佐久市佐久中込中央区3143-1<br>0267-63-5773<br><br><br>和食・寿司・天ぷら]]></description>
        <styleUrl>#icon-1899-0288D1</styleUrl>
        <Point><coordinates>138.4792123,36.2524013,0</coordinates></Point>
      </Placemark>

      <Placemark>
        <name>プラザ佐久</name>
        <description><![CDATA[No.1090<br>長野県佐久市佐久平駅東1-1<br>0267-68-7433<br>http://www.shinkou-saku.or.jp/plazasaku/<br><br>土産物店]]></description>
        <styleUrl>#icon-1899-0288D1</styleUrl>
        <Point><coordinates>138.4647679,36.2780961,0</coordinates></Point>
      </Placemark>

      <Placemark>
        <name>コスモスカフェ</name>
        <description><![CDATA[No.1091<br>長野県佐久市佐久平駅東1-1<br>0267-78-5853<br>http://www.yokocho.co.jp/cosmoscafe/<br><br>カフェ・スイーツ]]></description>
        <styleUrl>#icon-1899-0288D1</styleUrl>
        <Point><coordinates>138.4716311,36.2515058,0</coordinates></Point>
      </Placemark>

      <Placemark>
        <name>スシロー佐久平店</name>
        <description><![CDATA[No.1092<br>長野県佐久市佐久平駅東10-1<br>0267-66-7670<br>http://www.akindo-sushiro.co.jp/<br><br>和食・寿司・天ぷら]]></description>
        <styleUrl>#icon-1899-0288D1</styleUrl>
        <Point><coordinates>138.4686407,36.279026,0</coordinates></Point>
      </Placemark>

      <Placemark>
        <name>ココス佐久平駅東店</name>
        <description><![CDATA[No.1093<br>長野県佐久市佐久平駅東15番1<br>0267-66-0577<br>https://www.cocos-jpn.co.jp/<br>その他<br>その他土産物店<br>ファミリーレストラン]]></description>
        <styleUrl>#icon-1899-0288D1</styleUrl>
        <Point><coordinates>138.4679974,36.2781235,0</coordinates></Point>
      </Placemark>

      <Placemark>
        <name>佐久平プラザ２１</name>
        <description><![CDATA[No.1094<br>長野県佐久市佐久平駅東2-6<br>0267-65-8811<br>http://sakudaira.ikenotaira-resort.co.jp<br>日帰り温泉施設<br>定食屋]]></description>
        <styleUrl>#icon-1899-0288D1</styleUrl>
        <Point><coordinates>138.4666667,36.2775,0</coordinates></Point>
      </Placemark>

      <Placemark>
        <name>寝ずの甚八佐久平店</name>
        <description><![CDATA[No.1095<br>長野県佐久市佐久平駅東2-6佐久平プラザ211F<br>0267-54-8122<br><br><br>居酒屋・創作料理]]></description>
        <styleUrl>#icon-1899-0288D1</styleUrl>
        <Point><coordinates>138.4666965,36.277345,0</coordinates></Point>
      </Placemark>

      <Placemark>
        <name>ぶたと羊とハイボール</name>
        <description><![CDATA[No.1096<br>長野県佐久市佐久平駅東2-6佐久平プラザ211F<br>0267-54-8166<br><br><br>その他グルメ]]></description>
        <styleUrl>#icon-1899-0288D1</styleUrl>
        <Point><coordinates>138.466742,36.277593,0</coordinates></Point>
      </Placemark>

      <Placemark>
        <name>千年の宴　佐久平駅前店</name>
        <description><![CDATA[No.1097<br>長野県佐久市佐久平駅東2-6佐久平プラザ211階<br>0267-67-7388<br>https://www.monteroza.co.jp/<br><br>居酒屋・創作料理]]></description>
        <styleUrl>#icon-1899-0288D1</styleUrl>
        <Point><coordinates>138.4666231,36.2775709,0</coordinates></Point>
      </Placemark>

      <Placemark>
        <name>魚民　佐久平駅前店</name>
        <description><![CDATA[No.1098<br>長野県佐久市佐久平駅東21-3モンテローザ佐久平ビル2階<br>0267-67-9888<br>https://www.monteroza.co.jp/<br><br>居酒屋・創作料理]]></description>
        <styleUrl>#icon-1899-0288D1</styleUrl>
        <Point><coordinates>138.4663177,36.2769642,0</coordinates></Point>
      </Placemark>

      <Placemark>
        <name>和泉屋菓子店　イオン佐久平店</name>
        <description><![CDATA[No.1099<br>長野県佐久市佐久平駅南11-10<br>0267-68-5000<br>http://www.izumiya-saku.co.jp/<br><br>土産物店]]></description>
        <styleUrl>#icon-1899-0288D1</styleUrl>
        <Point><coordinates>138.4639573,36.27520579999999,0</coordinates></Point>
      </Placemark>

      <Placemark>
        <name>ちゃーしゅうや武蔵　イオンモール佐久平店</name>
        <description><![CDATA[No.1100<br>長野県佐久市佐久平駅南11-102階フードコート内<br>0267-77-7764<br>https://cha-syuyamusashi.com/shop/<br><br>ラーメン・つけ麺]]></description>
        <styleUrl>#icon-1899-0288D1</styleUrl>
        <Point><coordinates>138.4638645,36.27503129999999,0</coordinates></Point>
      </Placemark>

      <Placemark>
        <name>ＪＴＢイオンモール佐久平店</name>
        <description><![CDATA[No.1101<br>長野県佐久市佐久平駅南11-10イオンモール佐久平1階<br>0267-65-8666<br>https://stores.jtb.co.jp/t5646-0<br><br>土産物店]]></description>
        <styleUrl>#icon-1899-0288D1</styleUrl>
        <Point><coordinates>138.4641894,36.2761336,0</coordinates></Point>
      </Placemark>

      <Placemark>
        <name>かつや長野佐久店</name>
        <description><![CDATA[No.1102<br>長野県佐久市佐久平駅南18-5<br>0267-78-5547<br><br><br>丼もの]]></description>
        <styleUrl>#icon-1899-0288D1</styleUrl>
        <Point><coordinates>138.466098,36.274325,0</coordinates></Point>
      </Placemark>

      <Placemark>
        <name>ほっとぱーく屋台村店</name>
        <description><![CDATA[No.1103<br>長野県佐久市佐久平駅南9-1<br>0267-58-0581<br><br><br>その他土産物店<br>カフェ・スイーツ]]></description>
        <styleUrl>#icon-1899-0288D1</styleUrl>
        <Point><coordinates>138.47685,36.2487978,0</coordinates></Point>
      </Placemark>

      <Placemark>
        <name>Bistro　Bucheron</name>
        <description><![CDATA[No.1104<br>長野県佐久市佐久平駅北23-1スイートヒルズ1F<br>0267-67-6777<br>https://www.b-boucheron.com/<br><br>フレンチ]]></description>
        <styleUrl>#icon-1899-0288D1</styleUrl>
        <Point><coordinates>138.4632368,36.2796261,0</coordinates></Point>
      </Placemark>

      <Placemark>
        <name>アクアホテル佐久平</name>
        <description><![CDATA[No.1105<br>長野県佐久市佐久平駅北23-6<br>0267-68-9900<br>http://www.aqa-hotel.com<br><br>土産物店]]></description>
        <styleUrl>#icon-1899-0288D1</styleUrl>
        <Point><coordinates>138.4642419,36.2794146,0</coordinates></Point>
      </Placemark>

      <Placemark>
        <name>ホテルルートインコート佐久</name>
        <description><![CDATA[No.1106<br>長野県佐久市三塚126-1<br>0267-64-8811<br>https://www.route-inn.co.jp/hotel_list/nagano/index_hotel_id_201/<br><br>居酒屋・創作料理]]></description>
        <styleUrl>#icon-1899-0288D1</styleUrl>
        <Point><coordinates>138.4559735,36.231495,0</coordinates></Point>
      </Placemark>

      <Placemark>
        <name>十一屋本店</name>
        <description><![CDATA[No.1107<br>長野県佐久市取出町462-1<br>0267-63-1363<br>https://juuichi-ya.jp<br><br>和食・寿司・天ぷら]]></description>
        <styleUrl>#icon-1899-0288D1</styleUrl>
        <Point><coordinates>138.4686335,36.2195903,0</coordinates></Point>
      </Placemark>

      <Placemark>
        <name>ボスケソ・チーズラボ</name>
        <description><![CDATA[No.1108<br>長野県佐久市春日2208−2<br>050-1170-2575<br>https://bosqueso.official.ec<br><br>土産物店]]></description>
        <styleUrl>#icon-1899-0288D1</styleUrl>
        <Point><coordinates>138.3384053,36.1981139,0</coordinates></Point>
      </Placemark>

      <Placemark>
        <name>信州佐久 春⽇温泉 ⾃然体感リゾート かすがの森</name>
        <description><![CDATA[No.1109<br>長野県佐久市春日2258-1<br>0267-52-2111<br>http://kasuganomori.com<br>日帰り温泉施設<br>土産物店]]></description>
        <styleUrl>#icon-1899-0288D1</styleUrl>
        <Point><coordinates>138.3378594,36.1945691,0</coordinates></Point>
      </Placemark>

      <Placemark>
        <name>国民宿舎もちづき荘</name>
        <description><![CDATA[No.1110<br>長野県佐久市春日5921<br>0267-52-2515<br>http://www.shinkou-saku.or.jp/mochizuki/<br>日帰り温泉施設<br>土産物店<br>その他グルメ]]></description>
        <styleUrl>#icon-1899-0288D1</styleUrl>
        <Point><coordinates>138.3365485,36.1965609,0</coordinates></Point>
      </Placemark>

      <Placemark>
        <name>ボスケソ・ウマバル</name>
        <description><![CDATA[No.1111<br>長野県佐久市春日5928-21<br>050-1037-5797<br><br><br>カフェ・スイーツ]]></description>
        <styleUrl>#icon-1899-0288D1</styleUrl>
        <Point><coordinates>138.3365835,36.1985555,0</coordinates></Point>
      </Placemark>

      <Placemark>
        <name>やまおく</name>
        <description><![CDATA[No.1112<br>長野県佐久市新子田1882-10<br>0267-68-0676<br>http://www.slow-style.com/detail/269/index.html<br><br>和食・寿司・天ぷら]]></description>
        <styleUrl>#icon-1899-0288D1</styleUrl>
        <Point><coordinates>138.4877236,36.2625924,0</coordinates></Point>
      </Placemark>

      <Placemark>
        <name>ビッグボーイ佐久店</name>
        <description><![CDATA[No.1113<br>長野県佐久市大字岩村田6-2<br>0267-68-6595<br>https://www.bigboyjapan.co.jp/<br><br>ファミリーレストラン]]></description>
        <styleUrl>#icon-1899-0288D1</styleUrl>
        <Point><coordinates>138.4872565,36.2891148,0</coordinates></Point>
      </Placemark>

      <Placemark>
        <name>鶏のジョージ　中込駅前店</name>
        <description><![CDATA[No.1114<br>長野県佐久市中込1-17-5中込テナントビル1階<br>0267-63-8488<br>https://www.monteroza.co.jp/shop.html?shop=826054<br><br>居酒屋・創作料理]]></description>
        <styleUrl>#icon-1899-0288D1</styleUrl>
        <Point><coordinates>138.4784869,36.2309592,0</coordinates></Point>
      </Placemark>

      <Placemark>
        <name>魚魚や</name>
        <description><![CDATA[No.1115<br>長野県佐久市中込2-14-10<br>0267-63-4100<br><br><br>居酒屋・創作料理]]></description>
        <styleUrl>#icon-1899-0288D1</styleUrl>
        <Point><coordinates>138.4768872,36.2290032,0</coordinates></Point>
      </Placemark>

      <Placemark>
        <name>洞庭春</name>
        <description><![CDATA[No.1116<br>長野県佐久市中込2-14-22<br>0267-62-0457<br><br>その他<br>中華・台湾]]></description>
        <styleUrl>#icon-1899-0288D1</styleUrl>
        <Point><coordinates>138.4770377,36.2286954,0</coordinates></Point>
      </Placemark>

      <Placemark>
        <name>トラットリアSIN</name>
        <description><![CDATA[No.1117<br>長野県佐久市中込2471-1<br>0267-63-1110<br>https://www.hotpepper.jp/strJ000364019/<br><br>イタリアン]]></description>
        <styleUrl>#icon-1899-0288D1</styleUrl>
        <Point><coordinates>138.477733,36.23865,0</coordinates></Point>
      </Placemark>

      <Placemark>
        <name>柏屋旅館</name>
        <description><![CDATA[No.1118<br>長野県佐久市中込2丁目20-9<br>0267-74-0260<br>https://yosukeyana.wixsite.com/kashiwaya<br><br>カフェ・スイーツ]]></description>
        <styleUrl>#icon-1899-0288D1</styleUrl>
        <Point><coordinates>138.47595,36.228663,0</coordinates></Point>
      </Placemark>

      <Placemark>
        <name>和泉屋菓子店　ツルヤ佐久中央店</name>
        <description><![CDATA[No.1119<br>長野県佐久市中込3020-1<br>0267-54-7118<br>http://www.izumiya-saku.co.jp/<br><br>土産物店]]></description>
        <styleUrl>#icon-1899-0288D1</styleUrl>
        <Point><coordinates>138.4766001,36.2471622,0</coordinates></Point>
      </Placemark>

      <Placemark>
        <name>佐久一萬里温泉ホテル</name>
        <description><![CDATA[No.1120<br>長野県佐久市中込3150-1<br>0267-63-5551<br>https://breezbay-group.com/saku-ichimanri/<br>日帰り温泉施設<br>その他土産物店]]></description>
        <styleUrl>#icon-1899-0288D1</styleUrl>
        <Point><coordinates>138.4800212,36.254019,0</coordinates></Point>
      </Placemark>

      <Placemark>
        <name>居酒屋食堂いつもの屋</name>
        <description><![CDATA[No.1121<br>長野県佐久市中込3150−1<br>080-7828-5698<br><br><br>居酒屋・創作料理]]></description>
        <styleUrl>#icon-1899-0288D1</styleUrl>
        <Point><coordinates>138.47685,36.2487978,0</coordinates></Point>
      </Placemark>

      <Placemark>
        <name>八千穂タクシー(有)</name>
        <description><![CDATA[No.1122<br>長野県佐久市中込3713-156<br>0267-63-4050<br><br><br>タクシー]]></description>
        <styleUrl>#icon-1899-0288D1</styleUrl>
        <Point><coordinates>138.4667105052642,36.253520270021724,0</coordinates></Point>
      </Placemark>

      <Placemark>
        <name>酒蔵　千曲錦</name>
        <description><![CDATA[No.1123<br>長野県佐久市長土呂1110<br>0267-67-3731<br>https://www.chikumanishiki.com/<br><br>土産物店]]></description>
        <styleUrl>#icon-1899-0288D1</styleUrl>
        <Point><coordinates>138.46477,36.286036,0</coordinates></Point>
      </Placemark>

      <Placemark>
        <name>ヴィーナスコート佐久平</name>
        <description><![CDATA[No.1124<br>長野県佐久市長土呂1169-7<br>0267-67-6000<br>https://www.venus-court.com/sakudaira/<br><br>フレンチ]]></description>
        <styleUrl>#icon-1899-0288D1</styleUrl>
        <Point><coordinates>138.461114,36.28574,0</coordinates></Point>
      </Placemark>

      <Placemark>
        <name>軽井沢ブルワリー株式会社</name>
        <description><![CDATA[No.1125<br>長野県佐久市長土呂64-3<br>0120-919-144<br>https://brewery.co.jp/<br>その他<br>その他土産物店<br>その他グルメ]]></description>
        <styleUrl>#icon-1899-0288D1</styleUrl>
        <Point><coordinates>138.47685,36.2487978,0</coordinates></Point>
      </Placemark>

      <Placemark>
        <name>初谷温泉</name>
        <description><![CDATA[No.1126<br>長野県佐久市内山352-イ-1<br>0267-65-2221<br>http://www.shoya.co.jp<br><br>土産物店]]></description>
        <styleUrl>#icon-1899-0288D1</styleUrl>
        <Point><coordinates>138.6021194,36.2241806,0</coordinates></Point>
      </Placemark>

      <Placemark>
        <name>道の駅　ヘルシーテラス佐久南</name>
        <description><![CDATA[No.1127<br>長野県佐久市伴野7-1<br>0267-78-3383<br>http://healthyterrace-saku.jp<br><br>道の駅]]></description>
        <styleUrl>#icon-1899-0288D1</styleUrl>
        <Point><coordinates>138.4398358,36.2364674,0</coordinates></Point>
      </Placemark>

      <Placemark>
        <name>望月ハイヤー有限会社</name>
        <description><![CDATA[No.1128<br>長野県佐久市望月97<br>0267-53-3232<br><br><br>タクシー]]></description>
        <styleUrl>#icon-1899-0288D1</styleUrl>
        <Point><coordinates>138.3626724,36.2629188,0</coordinates></Point>
      </Placemark>

      <Placemark>
        <name>和泉屋菓子店　ツルヤ野沢店</name>
        <description><![CDATA[No.1129<br>長野県佐久市野沢129-1<br>0267-64-1180<br>http://www.izumiya-saku.co.jp/<br><br>土産物店]]></description>
        <styleUrl>#icon-1899-0288D1</styleUrl>
        <Point><coordinates>138.4694913,36.2220041,0</coordinates></Point>
      </Placemark>

      <Placemark>
        <name>ロッヂ八ヶ嶺</name>
        <description><![CDATA[No.1130<br>長野県佐久穂町八郡2049-183<br>0267-88-2567<br>http://yatsugane.com<br><br>土産物店<br>和食・寿司・天ぷら]]></description>
        <styleUrl>#icon-1899-0288D1</styleUrl>
        <Point><coordinates>138.384536,36.076751,0</coordinates></Point>
      </Placemark>

      <Placemark>
        <name>食事処俵屋</name>
        <description><![CDATA[No.1131<br>長野県小県郡青木村村松154-2<br>0268-49-2732<br><br><br>定食屋]]></description>
        <styleUrl>#icon-1899-0288D1</styleUrl>
        <Point><coordinates>138.1340114,36.3705377,0</coordinates></Point>
      </Placemark>

      <Placemark>
        <name>あおき農産物直売所、味処こまゆみ</name>
        <description><![CDATA[No.1132<br>長野県小県郡青木村村松26-1<br>0268-49-0333<br>http://michinoeki-aoki.eek.jp/<br><br>道の駅<br>そば・うどん]]></description>
        <styleUrl>#icon-1899-0288D1</styleUrl>
        <Point><coordinates>138.1401788,36.3729185,0</coordinates></Point>
      </Placemark>

      <Placemark>
        <name>富士屋</name>
        <description><![CDATA[No.1133<br>長野県小県郡青木村田沢2689<br>0268-49-3111<br>http://www.fujiya-h.com<br>日帰り温泉施設<br>]]></description>
        <styleUrl>#icon-1899-0288D1</styleUrl>
        <Point><coordinates>138.1061048,36.3694103,0</coordinates></Point>
      </Placemark>

      <Placemark>
        <name>田沢温泉和泉家旅館</name>
        <description><![CDATA[No.1134<br>長野県小県郡青木村田沢2695<br>0268-49-2017<br>http://www.izumiyaryokan.net<br>日帰り温泉施設<br>]]></description>
        <styleUrl>#icon-1899-0288D1</styleUrl>
        <Point><coordinates>138.1048776,36.3694983,0</coordinates></Point>
      </Placemark>

      <Placemark>
        <name>パラグライダーパーク青木</name>
        <description><![CDATA[No.1135<br>長野県小県郡青木村田沢293-5<br>0268-49-3887<br>https://www.paragliderpark.jp/<br>アウトドア・スポーツ体験<br>]]></description>
        <styleUrl>#icon-1899-0288D1</styleUrl>
        <Point><coordinates>138.118324,36.373871,0</coordinates></Point>
      </Placemark>

      <Placemark>
        <name>ますや旅館</name>
        <description><![CDATA[No.1136<br>長野県小県郡青木村田沢温泉2686<br>0268-49-2001<br>https://www.masuya-1ban.com<br><br>土産物店, 伝統工芸品等の販売店<br>居酒屋・創作料理]]></description>
        <styleUrl>#icon-1899-0288D1</styleUrl>
        <Point><coordinates>138.105206,36.369451,0</coordinates></Point>
      </Placemark>

      <Placemark>
        <name>蕎麦屋やまさん</name>
        <description><![CDATA[No.1137<br>長野県小県郡青木村奈良本761-8<br>0268-71-5357<br>https://r.goope.jp/aoki-yamasan<br><br>そば・うどん]]></description>
        <styleUrl>#icon-1899-0288D1</styleUrl>
        <Point><coordinates>138.1103788,36.3530434,0</coordinates></Point>
      </Placemark>

      <Placemark>
        <name>おみやげ処　菜の花館</name>
        <description><![CDATA[No.1138<br>長野県小県郡長和町古町2424-14<br>0268-41-2051<br>https://www.takeuchi-nousan.com<br><br>土産物店, 道の駅, その他土産物店<br>ファーストフード]]></description>
        <styleUrl>#icon-1899-0288D1</styleUrl>
        <Point><coordinates>138.2577148,36.274123,0</coordinates></Point>
      </Placemark>

      <Placemark>
        <name>かりん亭　長和本店</name>
        <description><![CDATA[No.1139<br>長野県小県郡長和町古町2424-17<br>0268-68-0190<br><br><br>ファミリーレストラン]]></description>
        <styleUrl>#icon-1899-0288D1</styleUrl>
        <Point><coordinates>138.2573835,36.2731339,0</coordinates></Point>
      </Placemark>

      <Placemark>
        <name>マルシェ黒耀</name>
        <description><![CDATA[No.1140<br>長野県小県郡長和町古町2643-3<br>0268-75-8735<br>https://marche-kokuyou.jp<br><br>土産物店]]></description>
        <styleUrl>#icon-1899-0288D1</styleUrl>
        <Point><coordinates>138.1968741,36.1918941,0</coordinates></Point>
      </Placemark>

      <Placemark>
        <name>温泉山岳ホテル　アンデルマット</name>
        <description><![CDATA[No.1141<br>長野県小県郡長和町大門2518-2546<br>0268-69-2001<br>https://andermatt.co.jp<br>アウトドア・スポーツ体験, 日帰り温泉施設, その他<br>その他土産物店]]></description>
        <styleUrl>#icon-1899-0288D1</styleUrl>
        <Point><coordinates>138.2132832,36.119496,0</coordinates></Point>
      </Placemark>

      <Placemark>
        <name>天然酵母パン＆カフェ　むく堂</name>
        <description><![CDATA[No.1142<br>長野県小県郡長和町大門278-1<br>0268-68-2969<br>http://www.mukudo.net<br><br>その他土産物店<br>カフェ・スイーツ]]></description>
        <styleUrl>#icon-1899-0288D1</styleUrl>
        <Point><coordinates>138.2535798,36.2341622,0</coordinates></Point>
      </Placemark>

      <Placemark>
        <name>利休庵</name>
        <description><![CDATA[No.1143<br>長野県小県郡長和町大門3518<br>0268-69-2337<br>http://rikyuan.net<br><br>そば・うどん]]></description>
        <styleUrl>#icon-1899-0288D1</styleUrl>
        <Point><coordinates>138.2300746,36.1252292,0</coordinates></Point>
      </Placemark>

      <Placemark>
        <name>自然派旅人の宿　ダーチャ　ベリオスカ</name>
        <description><![CDATA[No.1144<br>長野県小県郡長和町大門3518-2253<br>0268-41-8258<br>http://www.beriosk.com<br>料理体験<br>その他グルメ]]></description>
        <styleUrl>#icon-1899-0288D1</styleUrl>
        <Point><coordinates>138.2207487,36.1122899,0</coordinates></Point>
      </Placemark>

      <Placemark>
        <name>ペンションあーるいん</name>
        <description><![CDATA[No.1145<br>長野県小県郡長和町大門3518-2378<br>0268-60-0819<br>http://r-in.net<br>工芸体験<br>その他土産物店]]></description>
        <styleUrl>#icon-1899-0288D1</styleUrl>
        <Point><coordinates>138.2133441,36.1210668,0</coordinates></Point>
      </Placemark>

      <Placemark>
        <name>つろーぜ</name>
        <description><![CDATA[No.1146<br>長野県小県郡長和町大門3518-2378<br>0268-69-0200<br>http://www.r-in.net/experience.html<br>アウトドア・スポーツ体験, その他<br>その他土産物店<br>その他グルメ]]></description>
        <styleUrl>#icon-1899-0288D1</styleUrl>
        <Point><coordinates>138.228285,36.136713,0</coordinates></Point>
      </Placemark>

      <Placemark>
        <name>ペンションレンガ家</name>
        <description><![CDATA[No.1147<br>長野県小県郡長和町大門3518-2451<br>0268-69-2944<br>http://www.kokuyou.ne.jp/~rengaya/<br><br>]]></description>
        <styleUrl>#icon-1899-0288D1</styleUrl>
        <Point><coordinates>138.2158594,36.1199992,0</coordinates></Point>
      </Placemark>

      <Placemark>
        <name>リゾートイン　ステラ</name>
        <description><![CDATA[No.1148<br>長野県小県郡長和町大門3518-2558<br>0268-69-2819<br>http://www.stella-himeki.com/index.html<br><br>フレンチ]]></description>
        <styleUrl>#icon-1899-0288D1</styleUrl>
        <Point><coordinates>138.2124443,36.1178861,0</coordinates></Point>
      </Placemark>

      <Placemark>
        <name>リゾートハウス　オックス</name>
        <description><![CDATA[No.1149<br>長野県小県郡長和町大門3518-2562<br>0268-60-2021<br>http://www.1-ox.com<br><br>その他グルメ]]></description>
        <styleUrl>#icon-1899-0288D1</styleUrl>
        <Point><coordinates>138.212034,36.1189481,0</coordinates></Point>
      </Placemark>

      <Placemark>
        <name>手打そばと自家製カレー　ウォールデン</name>
        <description><![CDATA[No.1150<br>長野県小県郡長和町大門3518-2664<br>0268-69-2659<br>http://www.dia.janis.or.jp/~walden/<br><br>そば・うどん]]></description>
        <styleUrl>#icon-1899-0288D1</styleUrl>
        <Point><coordinates>138.2294111,36.1277445,0</coordinates></Point>
      </Placemark>

      <Placemark>
        <name>guesthouse POINSETTIA</name>
        <description><![CDATA[No.1151<br>長野県小県郡長和町大門3518−2394<br>0268-69-2945<br>http://poinsettia.jp<br>工芸体験, 料理体験, アウトドア・スポーツ体験<br>土産物店<br>カフェ・スイーツ]]></description>
        <styleUrl>#icon-1899-0288D1</styleUrl>
        <Point><coordinates>138.2182258,36.1208229,0</coordinates></Point>
      </Placemark>

      <Placemark>
        <name>長門牧場レストハウス</name>
        <description><![CDATA[No.1152<br>長野県小県郡長和町大門3539-2<br>0267-51-2033<br>http://www.nagatofarm.com<br><br>土産物店<br>洋食]]></description>
        <styleUrl>#icon-1899-0288D1</styleUrl>
        <Point><coordinates>138.2778223,36.1710841,0</coordinates></Point>
      </Placemark>

      <Placemark>
        <name>鷹山ファミリー牧場</name>
        <description><![CDATA[No.1153<br>長野県小県郡長和町大門3582<br>0268-69-0550<br>http://www.famiboku.jp<br>乗り物体験, 料理体験, アウトドア・スポーツ体験, レジャー施設, 果物狩り・観光農園<br>土産物店<br>焼肉・ホルモン]]></description>
        <styleUrl>#icon-1899-0288D1</styleUrl>
        <Point><coordinates>138.212449,36.144511,0</coordinates></Point>
      </Placemark>

      <Placemark>
        <name>民宿みや</name>
        <description><![CDATA[No.1154<br>長野県小県郡長和町大門653<br>0268-68-0302<br>http://www.kokuyou.ne.jp/~minsyuku/<br>料理体験, アウトドア・スポーツ体験, 果物狩り・観光農園<br>その他土産物店]]></description>
        <styleUrl>#icon-1899-0288D1</styleUrl>
        <Point><coordinates>138.2523304,36.2300336,0</coordinates></Point>
      </Placemark>

      <Placemark>
        <name>湖北</name>
        <description><![CDATA[No.1155<br>長野県小県郡長和町大門鷹山3518-2623<br>0268-69-2761<br>https://blanche-ski.com/restaurant/detail/?customize_changeset_uuid=e65cbb10-6160-4638-a32d-544ae7ef5891&customize_autosaved=on<br><br>中華・台湾]]></description>
        <styleUrl>#icon-1899-0288D1</styleUrl>
        <Point><coordinates>138.2580282,36.2698987,0</coordinates></Point>
      </Placemark>

      <Placemark>
        <name>ブランシュたかやまスキーリゾート</name>
        <description><![CDATA[No.1156<br>長野県小県郡長和町大門鷹山3652<br>0268-69-2232<br>https://blanche-ski.com/<br>アウトドア・スポーツ体験<br>]]></description>
        <styleUrl>#icon-1899-0288D1</styleUrl>
        <Point><coordinates>138.2052417,36.1481339,0</coordinates></Point>
      </Placemark>

      <Placemark>
        <name>レストランポテト</name>
        <description><![CDATA[No.1157<br>長野県小県郡長和町大門鷹山3652<br>0268-69-2232<br>https://blanche-ski.com/restaurant/<br><br>洋食]]></description>
        <styleUrl>#icon-1899-0288D1</styleUrl>
        <Point><coordinates>138.2580282,36.2698987,0</coordinates></Point>
      </Placemark>

      <Placemark>
        <name>レストランラポルト</name>
        <description><![CDATA[No.1158<br>長野県小県郡長和町大門鷹山3652<br>0268-69-2232<br>https://blanche-ski.com/restaurant/<br><br>洋食]]></description>
        <styleUrl>#icon-1899-0288D1</styleUrl>
        <Point><coordinates>138.2580282,36.2698987,0</coordinates></Point>
      </Placemark>

      <Placemark>
        <name>なごみ亭</name>
        <description><![CDATA[No.1159<br>長野県小県郡長和町大門鷹山3652<br>0268-69-2232<br>https://blanche-ski.com/restaurant/<br><br>和食・寿司・天ぷら]]></description>
        <styleUrl>#icon-1899-0288D1</styleUrl>
        <Point><coordinates>138.2580282,36.2698987,0</coordinates></Point>
      </Placemark>

      <Placemark>
        <name>和みのペンション ここっと 宿内店舗コーナー</name>
        <description><![CDATA[No.1160<br>長野県小県郡長和町姫木平3518<br>0268-69-2908<br>http://www.cocot.info/<br><br>土産物店, 伝統工芸品等の販売店<br>ダイニングバー・バル]]></description>
        <styleUrl>#icon-1899-0288D1</styleUrl>
        <Point><coordinates>138.2163202,36.1194767,0</coordinates></Point>
      </Placemark>

      <Placemark>
        <name>和田宿ステーション</name>
        <description><![CDATA[No.1161<br>長野県小県郡長和町和田2884-1<br>0268-88-0008<br>https://twitter.com/wadajukustation<br><br>その他土産物店]]></description>
        <styleUrl>#icon-1899-0288D1</styleUrl>
        <Point><coordinates>138.2137168,36.2056675,0</coordinates></Point>
      </Placemark>

      <Placemark>
        <name>山本小屋ふる里館</name>
        <description><![CDATA[No.1162<br>長野県小県郡長和町和田美ヶ原高原5101-1<br>0268-86-2311<br>http://furusatokan.jp/<br><br>土産物店<br>そば・うどん]]></description>
        <styleUrl>#icon-1899-0288D1</styleUrl>
        <Point><coordinates>138.1317979,36.2282211,0</coordinates></Point>
      </Placemark>

      <Placemark>
        <name>まきば軽井沢</name>
        <description><![CDATA[No.1163<br>長野県小諸市塩野3876-6<br>090-6876-2975<br>http://www.do-trek.com/index.html<br>アウトドア・スポーツ体験<br>]]></description>
        <styleUrl>#icon-1899-0288D1</styleUrl>
        <Point><coordinates>138.4741312,36.3495565,0</coordinates></Point>
      </Placemark>

      <Placemark>
        <name>千曲バス　小諸営業所</name>
        <description><![CDATA[No.1164<br>長野県小諸市加増581-1<br>0267-22-2100<br>http://www.chikuma-bus.com<br><br>バス]]></description>
        <styleUrl>#icon-1899-0288D1</styleUrl>
        <Point><coordinates>138.444954,36.318662,0</coordinates></Point>
      </Placemark>

      <Placemark>
        <name>小諸グランドキャッスルホテル</name>
        <description><![CDATA[No.1165<br>長野県小諸市古城1-1-5<br>0267-22-8000<br>https://www.itoenhotel.com/komoro/<br><br>土産物店]]></description>
        <styleUrl>#icon-1899-0288D1</styleUrl>
        <Point><coordinates>138.4195975,36.3286438,0</coordinates></Point>
      </Placemark>

      <Placemark>
        <name>はりこし亭</name>
        <description><![CDATA[No.1166<br>長野県小諸市古城乙1210<br>0267-26-6311<br><br>料理体験<br>土産物店<br>そば・うどん]]></description>
        <styleUrl>#icon-1899-0288D1</styleUrl>
        <Point><coordinates>138.4173653,36.3221829,0</coordinates></Point>
      </Placemark>

      <Placemark>
        <name>中棚荘</name>
        <description><![CDATA[No.1167<br>長野県小諸市古城中棚<br>0267-22-1511<br><br><br>土産物店<br>和食・寿司・天ぷら]]></description>
        <styleUrl>#icon-1899-0288D1</styleUrl>
        <Point><coordinates>138.4173279,36.3226128,0</coordinates></Point>
      </Placemark>

      <Placemark>
        <name>牛角　小諸店</name>
        <description><![CDATA[No.1168<br>長野県小諸市御影新田2218<br>0267-25-0029<br>https://www.gyukaku.ne.jp/<br><br>焼肉・ホルモン]]></description>
        <styleUrl>#icon-1899-0288D1</styleUrl>
        <Point><coordinates>138.4649071,36.3014638,0</coordinates></Point>
      </Placemark>

      <Placemark>
        <name>和泉屋菓子店　ツルヤみかげ店</name>
        <description><![CDATA[No.1169<br>長野県小諸市御影新田2590-1<br>0267-31-5300<br>http://www.izumiya-saku.co.jp/<br><br>土産物店]]></description>
        <styleUrl>#icon-1899-0288D1</styleUrl>
        <Point><coordinates>138.467009,36.298035,0</coordinates></Point>
      </Placemark>

      <Placemark>
        <name>Hishiya海賊船</name>
        <description><![CDATA[No.1170<br>長野県小諸市御影新田和田原2746-1<br>0267-22-2793<br>http://kaizoku.asia<br><br>鉄板・ステーキ]]></description>
        <styleUrl>#icon-1899-0288D1</styleUrl>
        <Point><coordinates>138.468305,36.296694,0</coordinates></Point>
      </Placemark>

      <Placemark>
        <name>Nao's kitchen</name>
        <description><![CDATA[No.1171<br>長野県小諸市甲1639-12<br>0267-28-9076<br>http://naoskitchen.com<br><br>中華・台湾]]></description>
        <styleUrl>#icon-1899-0288D1</styleUrl>
        <Point><coordinates>138.426892,36.3134821,0</coordinates></Point>
      </Placemark>

      <Placemark>
        <name>松井農園</name>
        <description><![CDATA[No.1172<br>長野県小諸市甲4385<br>0267-22-0881<br>http://www.matsui-farm.co.jp/<br>レジャー施設, 果物狩り・観光農園<br>土産物店<br>その他グルメ]]></description>
        <styleUrl>#icon-1899-0288D1</styleUrl>
        <Point><coordinates>138.444942,36.338971,0</coordinates></Point>
      </Placemark>

      <Placemark>
        <name>天狗温泉浅間山荘</name>
        <description><![CDATA[No.1173<br>長野県小諸市甲又4766-2<br>0267-22-0959<br>http://www.tenguspa.com<br>料理体験, アウトドア・スポーツ体験, レジャー施設, 日帰り温泉施設, その他<br>]]></description>
        <styleUrl>#icon-1899-0288D1</styleUrl>
        <Point><coordinates>138.4787,36.3803388,0</coordinates></Point>
      </Placemark>

      <Placemark>
        <name>アサマ２０００パーク</name>
        <description><![CDATA[No.1174<br>長野県小諸市高峰高原<br>0267-23-1714<br>http://www.asama2000.com/<br>レジャー施設<br>その他グルメ]]></description>
        <styleUrl>#icon-1899-0288D1</styleUrl>
        <Point><coordinates>138.4691703,36.4091621,0</coordinates></Point>
      </Placemark>

      <Placemark>
        <name>浅間山麓国際自然学校</name>
        <description><![CDATA[No.1175<br>長野県小諸市高峰高原<br>0267-23-3124<br>https://npo-asama.jp/<br>工芸体験, アウトドア・スポーツ体験<br>]]></description>
        <styleUrl>#icon-1899-0288D1</styleUrl>
        <Point><coordinates>138.4696427487357,36.40490154929666,0</coordinates></Point>
      </Placemark>

      <Placemark>
        <name>高峰高原ホテル</name>
        <description><![CDATA[No.1176<br>長野県小諸市高峰高原704<br>0267-25-3000<br>http://www.takamine-kougen.co.jp<br>レジャー施設<br>土産物店<br>その他グルメ]]></description>
        <styleUrl>#icon-1899-0288D1</styleUrl>
        <Point><coordinates>138.4688092,36.4042161,0</coordinates></Point>
      </Placemark>

      <Placemark>
        <name>高峰マウンテンホテル</name>
        <description><![CDATA[No.1177<br>長野県小諸市高峰高原高峰マウンテンホテル<br>0267-23-1712<br><br><br>土産物店<br>その他グルメ]]></description>
        <styleUrl>#icon-1899-0288D1</styleUrl>
        <Point><coordinates>138.4697131,36.4077964,0</coordinates></Point>
      </Placemark>

      <Placemark>
        <name>高峰高原ビジターセンター</name>
        <description><![CDATA[No.1178<br>長野県小諸市高峰高原高峰高原ビジターセンター内<br>0267-23-3124<br>https://asama2000.com/green/<br><br>カフェ・スイーツ]]></description>
        <styleUrl>#icon-1899-0288D1</styleUrl>
        <Point><coordinates>138.4697384,36.4049226,0</coordinates></Point>
      </Placemark>

      <Placemark>
        <name>クレッセント</name>
        <description><![CDATA[No.1179<br>長野県小諸市市677-3<br>0267-26-5678<br>http://cafediningcrescent.com/<br><br>洋食]]></description>
        <styleUrl>#icon-1899-0288D1</styleUrl>
        <Point><coordinates>138.4437048,36.2920673,0</coordinates></Point>
      </Placemark>

      <Placemark>
        <name>茶屋くめや</name>
        <description><![CDATA[No.1180<br>長野県小諸市市町1-2-24脇本陣の宿粂屋<br>0267-27-1482<br>https://www.kumeya.com/<br><br>]]></description>
        <styleUrl>#icon-1899-0288D1</styleUrl>
        <Point><coordinates>138.4205361927597,36.329800228765116,0</coordinates></Point>
      </Placemark>

      <Placemark>
        <name>レストラン八億</name>
        <description><![CDATA[No.1181<br>長野県小諸市滋野甲1197-3<br>0267-23-5878<br>http://www.hachioku.net<br><br>ファミリーレストラン]]></description>
        <styleUrl>#icon-1899-0288D1</styleUrl>
        <Point><coordinates>138.381858,36.344544,0</coordinates></Point>
      </Placemark>

      <Placemark>
        <name>てうちそば　うどん　郷ごころ</name>
        <description><![CDATA[No.1182<br>長野県小諸市森山66番地3<br>0267-22-1789<br>https://satogokoro-soba.com/<br><br>そば・うどん]]></description>
        <styleUrl>#icon-1899-0288D1</styleUrl>
        <Point><coordinates>138.4483416,36.3037738,0</coordinates></Point>
      </Placemark>

      <Placemark>
        <name>小諸駅のまど</name>
        <description><![CDATA[No.1183<br>長野県小諸市相生町1-1-1<br>0267-46-8536<br><br><br>カフェ・スイーツ]]></description>
        <styleUrl>#icon-1899-0288D1</styleUrl>
        <Point><coordinates>138.4216918,36.32720339999999,0</coordinates></Point>
      </Placemark>

      <Placemark>
        <name>停車場ガーデン</name>
        <description><![CDATA[No.1184<br>長野県小諸市相生町1-1-9<br>0267-24-2525<br>http://www.t-garden.org<br><br>その他土産物店<br>カフェ・スイーツ]]></description>
        <styleUrl>#icon-1899-0288D1</styleUrl>
        <Point><coordinates>138.4215053,36.3276702,0</coordinates></Point>
      </Placemark>

      <Placemark>
        <name>中華料理萬祥酒楼</name>
        <description><![CDATA[No.1185<br>長野県小諸市相生町1-2-2<br>0267-25-4622<br><br><br>中華・台湾]]></description>
        <styleUrl>#icon-1899-0288D1</styleUrl>
        <Point><coordinates>138.4221527,36.3274795,0</coordinates></Point>
      </Placemark>

      <Placemark>
        <name>ギャラリーまきの</name>
        <description><![CDATA[No.1186<br>長野県小諸市相生町1-2-9<br>0267-22-5013<br>https://www.makino-mingei.jp<br><br>土産物店, 伝統工芸品等の販売店]]></description>
        <styleUrl>#icon-1899-0288D1</styleUrl>
        <Point><coordinates>138.422689,36.327394,0</coordinates></Point>
      </Placemark>

      <Placemark>
        <name>おみやげのみやさか</name>
        <description><![CDATA[No.1187<br>長野県小諸市相生町1-3-1<br>0267-22-0690<br>http://www.miyasaka-f.com<br><br>土産物店]]></description>
        <styleUrl>#icon-1899-0288D1</styleUrl>
        <Point><coordinates>138.422422,36.326997,0</coordinates></Point>
      </Placemark>

      <Placemark>
        <name>魚民　小諸駅前店</name>
        <description><![CDATA[No.1188<br>長野県小諸市相生町2-1-11アクスプラザ2階<br>0267-23-0288<br>https://www.monteroza.co.jp/<br><br>居酒屋・創作料理]]></description>
        <styleUrl>#icon-1899-0288D1</styleUrl>
        <Point><coordinates>138.4242062,36.3281683,0</coordinates></Point>
      </Placemark>

      <Placemark>
        <name>千年の宴　小諸駅前店</name>
        <description><![CDATA[No.1189<br>長野県小諸市相生町2-1-11アスクプラザ2階<br>0267-24-0488<br>https://www.monteroza.co.jp/<br><br>居酒屋・創作料理]]></description>
        <styleUrl>#icon-1899-0288D1</styleUrl>
        <Point><coordinates>138.4242446,36.3279616,0</coordinates></Point>
      </Placemark>

      <Placemark>
        <name>HARADA</name>
        <description><![CDATA[No.1190<br>長野県小諸市相生町2-2-1<br>0267-22-0253<br>https://hrd1898.jp<br><br>洋食]]></description>
        <styleUrl>#icon-1899-0288D1</styleUrl>
        <Point><coordinates>138.423523,36.32743,0</coordinates></Point>
      </Placemark>

      <Placemark>
        <name>HOMETOWN TRIP JAPAN合同会社</name>
        <description><![CDATA[No.1191<br>長野県小諸市相生町二丁目2-1<br>090-4050-8339<br><br>アウトドア・スポーツ体験<br>]]></description>
        <styleUrl>#icon-1899-0288D1</styleUrl>
        <Point><coordinates>138.4258254,36.3271412,0</coordinates></Point>
      </Placemark>

      <Placemark>
        <name>布引温泉　こもろ</name>
        <description><![CDATA[No.1192<br>長野県小諸市大久保620-3<br>0267-22-2288<br>https://nunohikionsen.info/<br>日帰り温泉施設<br>土産物店<br>その他グルメ]]></description>
        <styleUrl>#icon-1899-0288D1</styleUrl>
        <Point><coordinates>138.3971863,36.3290558,0</coordinates></Point>
      </Placemark>

      <Placemark>
        <name>TEPPAN kitchen PORKY</name>
        <description><![CDATA[No.1193<br>長野県小諸市大字山浦939−5<br>0267-23-0639<br>http://porky.jp<br><br>鉄板・ステーキ]]></description>
        <styleUrl>#icon-1899-0288D1</styleUrl>
        <Point><coordinates>138.418147,36.3021869,0</coordinates></Point>
      </Placemark>

      <Placemark>
        <name>凱</name>
        <description><![CDATA[No.1194<br>長野県小諸市大字滋野甲591−1<br>0267-31-0927<br>http://sobacafe-toki.com/<br><br>そば・うどん]]></description>
        <styleUrl>#icon-1899-0288D1</styleUrl>
        <Point><coordinates>138.4258254,36.3271412,0</coordinates></Point>
      </Placemark>

      <Placemark>
        <name>芳光　本店</name>
        <description><![CDATA[No.1195<br>長野県小諸市大字平原624-5<br>0267-23-9068<br><br><br>土産物店]]></description>
        <styleUrl>#icon-1899-0288D1</styleUrl>
        <Point><coordinates>138.4564866,36.3098115,0</coordinates></Point>
      </Placemark>

      <Placemark>
        <name>すし処　魚がし</name>
        <description><![CDATA[No.1196<br>長野県小諸市大手1-3-3<br>0267-22-0669<br><br><br>和食・寿司・天ぷら]]></description>
        <styleUrl>#icon-1899-0288D1</styleUrl>
        <Point><coordinates>138.4224742,36.327834,0</coordinates></Point>
      </Placemark>

      <Placemark>
        <name>大塚酒造株式会社</name>
        <description><![CDATA[No.1197<br>長野県小諸市大手2-1-24<br>0267-22-0002<br>https://www.asamadake.com/<br><br>その他土産物店]]></description>
        <styleUrl>#icon-1899-0288D1</styleUrl>
        <Point><coordinates>138.4239031,36.328611,0</coordinates></Point>
      </Placemark>

      <Placemark>
        <name>小諸高原ゴルフクラブ</name>
        <description><![CDATA[No.1198<br>長野県小諸市滝原1101<br>0267-22-1811<br>https://www.komoro-kogen.com/<br>アウトドア・スポーツ体験<br>]]></description>
        <styleUrl>#icon-1899-0288D1</styleUrl>
        <Point><coordinates>138.424057,36.3673324,0</coordinates></Point>
      </Placemark>

      <Placemark>
        <name>お陽さまカフェ 小諸懐古園第一駐車場</name>
        <description><![CDATA[No.1199<br>長野県小諸市丁311<br>080-1140-6059<br><br><br>カフェ・スイーツ]]></description>
        <styleUrl>#icon-1899-0288D1</styleUrl>
        <Point><coordinates>138.4175464,36.3271098,0</coordinates></Point>
      </Placemark>

      <Placemark>
        <name>人力車のきらく屋</name>
        <description><![CDATA[No.1200<br>長野県小諸市丁311<br>080-3522-9694<br>https://www.kirakusyo.com/<br>乗り物体験<br>]]></description>
        <styleUrl>#icon-1899-0288D1</styleUrl>
        <Point><coordinates>138.4200214,36.32749829999999,0</coordinates></Point>
      </Placemark>

      <Placemark>
        <name>小諸なる小宮山酒店</name>
        <description><![CDATA[No.1201<br>長野県小諸市鶴巻1-4-14<br>0267-22-0796<br>http://winekan.sakura.ne.jp<br><br>土産物店<br>ダイニングバー・バル]]></description>
        <styleUrl>#icon-1899-0288D1</styleUrl>
        <Point><coordinates>138.428897,36.323478,0</coordinates></Point>
      </Placemark>

      <Placemark>
        <name>蔵の粉屋大西製粉</name>
        <description><![CDATA[No.1202<br>長野県小諸市東小諸甲1581-3<br>0267-22-0585<br>https://www.konaya.jp/<br><br>土産物店]]></description>
        <styleUrl>#icon-1899-0288D1</styleUrl>
        <Point><coordinates>138.431027,36.3141062,0</coordinates></Point>
      </Placemark>

      <Placemark>
        <name>中華坊　胡同</name>
        <description><![CDATA[No.1203<br>長野県小諸市八満1073<br>0267-25-7111<br><br><br>中華・台湾]]></description>
        <styleUrl>#icon-1899-0288D1</styleUrl>
        <Point><coordinates>138.458089,36.32423199999999,0</coordinates></Point>
      </Placemark>

      <Placemark>
        <name>ランプの宿　高峰温泉</name>
        <description><![CDATA[No.1204<br>長野県小諸市菱平704-1<br>0267-25-2000<br>https://www.takamine.co.jp<br>アウトドア・スポーツ体験, 日帰り温泉施設<br>土産物店<br>カフェ・スイーツ]]></description>
        <styleUrl>#icon-1899-0288D1</styleUrl>
        <Point><coordinates>138.45954,36.410019,0</coordinates></Point>
      </Placemark>

      <Placemark>
        <name>常盤館売店</name>
        <description><![CDATA[No.1205<br>長野県小諸市菱平762-2<br>0267-22-0516<br>http://www.tokiwakan.com<br><br>土産物店]]></description>
        <styleUrl>#icon-1899-0288D1</styleUrl>
        <Point><coordinates>138.4463806,36.3619995,0</coordinates></Point>
      </Placemark>

      <Placemark>
        <name>海山亭いっちょう小諸店</name>
        <description><![CDATA[No.1206<br>長野県小諸市丙399-1<br>0267-24-2478<br>http://www.icho.co.jp/<br><br>居酒屋・創作料理]]></description>
        <styleUrl>#icon-1899-0288D1</styleUrl>
        <Point><coordinates>138.4122185,36.3374674,0</coordinates></Point>
      </Placemark>

      <Placemark>
        <name>丸山珈琲　小諸店</name>
        <description><![CDATA[No.1207<br>長野県小諸市平原1152-1<br>0267-31-0075<br>http://www.maruyamacoffee.com<br><br>カフェ・スイーツ]]></description>
        <styleUrl>#icon-1899-0288D1</styleUrl>
        <Point><coordinates>138.459912,36.313774,0</coordinates></Point>
      </Placemark>

      <Placemark>
        <name>お食事処　やまへい</name>
        <description><![CDATA[No.1208<br>長野県小諸市平原1172-1<br>0267-23-4147<br>http://www.yamahei.com/restaurant/komoro/<br><br>そば・うどん]]></description>
        <styleUrl>#icon-1899-0288D1</styleUrl>
        <Point><coordinates>138.461631,36.314236,0</coordinates></Point>
      </Placemark>

      <Placemark>
        <name>和食処みよし</name>
        <description><![CDATA[No.1209<br>長野県小諸市平原1784-3<br>0267-22-8371<br><br><br>和食・寿司・天ぷら]]></description>
        <styleUrl>#icon-1899-0288D1</styleUrl>
        <Point><coordinates>138.473627,36.3161,0</coordinates></Point>
      </Placemark>

      <Placemark>
        <name>富士屋醸造</name>
        <description><![CDATA[No.1210<br>長野県小諸市本町1-3-10<br>0267-22-0398<br>https://fujiyajozo.com<br><br>土産物店]]></description>
        <styleUrl>#icon-1899-0288D1</styleUrl>
        <Point><coordinates>138.421975,36.329885,0</coordinates></Point>
      </Placemark>

      <Placemark>
        <name>そば蔵　丁子庵</name>
        <description><![CDATA[No.1211<br>長野県小諸市本町2-1-3<br>0267-23-0820<br>http://choujiya.jp<br><br>そば・うどん]]></description>
        <styleUrl>#icon-1899-0288D1</styleUrl>
        <Point><coordinates>138.422272,36.32976,0</coordinates></Point>
      </Placemark>

      <Placemark>
        <name>そば七</name>
        <description><![CDATA[No.1212<br>長野県小諸市本町3-1-2<br>0267-22-7688<br>https://soba7.wordpress.com/<br><br>そば・うどん]]></description>
        <styleUrl>#icon-1899-0288D1</styleUrl>
        <Point><coordinates>138.4245379,36.3291847,0</coordinates></Point>
      </Placemark>

      <Placemark>
        <name>ジェイアールバス関東株式会社小諸支店</name>
        <description><![CDATA[No.1213<br>長野県小諸市与良町3-1-3<br>0267-22-0588<br>http://www.jrbuskanto.co.jp<br><br>バス]]></description>
        <styleUrl>#icon-1899-0288D1</styleUrl>
        <Point><coordinates>138.429816,36.3277525,0</coordinates></Point>
      </Placemark>

      <Placemark>
        <name>菅平レストラン　WING</name>
        <description><![CDATA[No.1214<br>長野県上田市,-菅平高原1223-1950,-菅平サンホテル<br>0268-74-2360<br>http://www.hotel-sun@ued.janis.or.jp<br><br>ファミリーレストラン]]></description>
        <styleUrl>#icon-1899-0288D1</styleUrl>
        <Point><coordinates>138.3390706,36.5398926,0</coordinates></Point>
      </Placemark>

      <Placemark>
        <name>斎藤ホテル</name>
        <description><![CDATA[No.1215<br>長野県上田市,鹿教湯温泉1387-2<br>0268-44-2211<br>https://www.saito-hotel.co.jp/<br>レジャー施設, 日帰り温泉施設, その他<br>土産物店<br>その他グルメ]]></description>
        <styleUrl>#icon-1899-0288D1</styleUrl>
        <Point><coordinates>138.136661,36.300461,0</coordinates></Point>
      </Placemark>

      <Placemark>
        <name>斎藤ホテル・バーデンツアーズ</name>
        <description><![CDATA[No.1216<br>長野県上田市,鹿教湯温泉1387-2<br>0268-44-2211<br>https://www.saito-hotel.co.jp/<br><br>バス, タクシー]]></description>
        <styleUrl>#icon-1899-0288D1</styleUrl>
        <Point><coordinates>138.136661,36.300461,0</coordinates></Point>
      </Placemark>

      <Placemark>
        <name>沓掛酒造「福無量」直売店「郷の蔵」</name>
        <description><![CDATA[No.1217<br>長野県上田市下塩尻36番地<br>0268-21-9232<br>https://kutsukake-sake.com/<br><br>土産物店]]></description>
        <styleUrl>#icon-1899-0288D1</styleUrl>
        <Point><coordinates>138.2068166,36.4192191,0</coordinates></Point>
      </Placemark>

      <Placemark>
        <name>やきとり番長　上田古里店</name>
        <description><![CDATA[No.1218<br>長野県上田市古里86-1<br>050-5375-6516<br><br><br>焼鳥・串揚げ]]></description>
        <styleUrl>#icon-1899-0288D1</styleUrl>
        <Point><coordinates>138.2839027,36.3992886,0</coordinates></Point>
      </Placemark>

      <Placemark>
        <name>牛角国分店</name>
        <description><![CDATA[No.1219<br>長野県上田市国分1248-5<br>0268-29-8989<br><br><br>焼肉・ホルモン]]></description>
        <styleUrl>#icon-1899-0288D1</styleUrl>
        <Point><coordinates>138.27349,36.378786,0</coordinates></Point>
      </Placemark>

      <Placemark>
        <name>ビッグボーイ上田国分店</name>
        <description><![CDATA[No.1220<br>長野県上田市国分1丁目3-26<br>0268-29-3026<br>https://www.bigboyjapan.co.jp/<br><br>ファミリーレストラン]]></description>
        <styleUrl>#icon-1899-0288D1</styleUrl>
        <Point><coordinates>138.267414,36.3835462,0</coordinates></Point>
      </Placemark>

      <Placemark>
        <name>かっぱ寿司上田国分店</name>
        <description><![CDATA[No.1221<br>長野県上田市国分字浦沖1251-1<br>0268-23-6711<br><br><br>和食・寿司・天ぷら]]></description>
        <styleUrl>#icon-1899-0288D1</styleUrl>
        <Point><coordinates>138.2740673,36.3788179,0</coordinates></Point>
      </Placemark>

      <Placemark>
        <name>ホテルルートイン上田　花茶屋</name>
        <description><![CDATA[No.1222<br>長野県上田市材木町2-2-5<br>0268-23-2121<br>https://www.route-inn.co.jp/hotel_list/nagano/index_hotel_id_3/<br><br>居酒屋・創作料理]]></description>
        <styleUrl>#icon-1899-0288D1</styleUrl>
        <Point><coordinates>138.2485453,36.3988941,0</coordinates></Point>
      </Placemark>

      <Placemark>
        <name>ステーキ宮　上田店</name>
        <description><![CDATA[No.1223<br>長野県上田市材木町2-92-1<br>0268-26-2911<br>https://www.miya.com/<br><br>鉄板・ステーキ]]></description>
        <styleUrl>#icon-1899-0288D1</styleUrl>
        <Point><coordinates>138.2650579,36.3981642,0</coordinates></Point>
      </Placemark>

      <Placemark>
        <name>上田市鹿教湯健康センター　クアハウスかけゆ</name>
        <description><![CDATA[No.1224<br>長野県上田市鹿教湯温泉1293<br>0268-44-2131<br>http://www2.marukotv.jp/~kurhaus/index.html<br>アウトドア・スポーツ体験<br>]]></description>
        <styleUrl>#icon-1899-0288D1</styleUrl>
        <Point><coordinates>138.1366885,36.30332920000001,0</coordinates></Point>
      </Placemark>

      <Placemark>
        <name>上田市鹿教湯温泉国民宿舎鹿月荘</name>
        <description><![CDATA[No.1225<br>長野県上田市鹿教湯温泉1295番地2<br>0268-44-2206<br>http://www.kagetsusou.com/<br><br>土産物店]]></description>
        <styleUrl>#icon-1899-0288D1</styleUrl>
        <Point><coordinates>138.1373138,36.303215,0</coordinates></Point>
      </Placemark>

      <Placemark>
        <name>清凉堂</name>
        <description><![CDATA[No.1226<br>長野県上田市鹿教湯温泉1322<br>0268-44-2447<br><br><br>土産物店<br>カフェ・スイーツ]]></description>
        <styleUrl>#icon-1899-0288D1</styleUrl>
        <Point><coordinates>138.1356137,36.3016572,0</coordinates></Point>
      </Placemark>

      <Placemark>
        <name>さいとう菓子工房</name>
        <description><![CDATA[No.1227<br>長野県上田市鹿教湯温泉1332-4<br>0268-75-2241<br>https://www.saito-sweets.com/<br><br>土産物店<br>カフェ・スイーツ]]></description>
        <styleUrl>#icon-1899-0288D1</styleUrl>
        <Point><coordinates>138.136783,36.302018,0</coordinates></Point>
      </Placemark>

      <Placemark>
        <name>塩川菓子舗</name>
        <description><![CDATA[No.1228<br>長野県上田市鹿教湯温泉1333-2<br>0268-44-2420<br><br><br>土産物店]]></description>
        <styleUrl>#icon-1899-0288D1</styleUrl>
        <Point><coordinates>138.137039,36.302285,0</coordinates></Point>
      </Placemark>

      <Placemark>
        <name>鮨 八光</name>
        <description><![CDATA[No.1229<br>長野県上田市鹿教湯温泉1337-5<br>0268-44-2514<br><br><br>和食・寿司・天ぷら]]></description>
        <styleUrl>#icon-1899-0288D1</styleUrl>
        <Point><coordinates>138.1379069,36.3024876,0</coordinates></Point>
      </Placemark>

      <Placemark>
        <name>日帰り入浴　つるや旅館</name>
        <description><![CDATA[No.1230<br>長野県上田市鹿教湯温泉1374<br>0268-44-2121<br>http://www.tsuruya-ryokan.co.jp<br>日帰り温泉施設<br>土産物店<br>カフェ・スイーツ]]></description>
        <styleUrl>#icon-1899-0288D1</styleUrl>
        <Point><coordinates>138.1367465,36.301256,0</coordinates></Point>
      </Placemark>

      <Placemark>
        <name>呑み食い処　わんだーれ</name>
        <description><![CDATA[No.1231<br>長野県上田市鹿教湯温泉1377<br>0268-71-6543<br><br><br>居酒屋・創作料理]]></description>
        <styleUrl>#icon-1899-0288D1</styleUrl>
        <Point><coordinates>138.136524,36.30129,0</coordinates></Point>
      </Placemark>

      <Placemark>
        <name>酒 栄屋</name>
        <description><![CDATA[No.1232<br>長野県上田市鹿教湯温泉1380-1<br>0268-44-2314<br><br><br>土産物店, その他土産物店]]></description>
        <styleUrl>#icon-1899-0288D1</styleUrl>
        <Point><coordinates>138.136147,36.301279,0</coordinates></Point>
      </Placemark>

      <Placemark>
        <name>中村旅館</name>
        <description><![CDATA[No.1233<br>長野県上田市鹿教湯温泉1386番地<br>0268-44-2201<br>http://www.nakamuraryokan.net/<br>日帰り温泉施設<br>その他グルメ]]></description>
        <styleUrl>#icon-1899-0288D1</styleUrl>
        <Point><coordinates>138.136505,36.300946,0</coordinates></Point>
      </Placemark>

      <Placemark>
        <name>そば処辰巳屋</name>
        <description><![CDATA[No.1236<br>長野県上田市鹿教湯温泉1427<br>0268-44-2443<br><br><br>そば・うどん]]></description>
        <styleUrl>#icon-1899-0288D1</styleUrl>
        <Point><coordinates>138.135897,36.301281,0</coordinates></Point>
      </Placemark>

      <Placemark>
        <name>おきな菓子舗・翁珈琲</name>
        <description><![CDATA[No.1237<br>長野県上田市鹿教湯温泉1428-2<br>0268-44-2503<br>http://www.okina-kakeyu.com/<br><br>土産物店<br>カフェ・スイーツ]]></description>
        <styleUrl>#icon-1899-0288D1</styleUrl>
        <Point><coordinates>138.1359697,36.3014189,0</coordinates></Point>
      </Placemark>

      <Placemark>
        <name>望山亭ことぶき</name>
        <description><![CDATA[No.1238<br>長野県上田市鹿教湯温泉1447<br>0268-44-2538<br>http://b-kotobuki.com/<br>その他<br>その他土産物店]]></description>
        <styleUrl>#icon-1899-0288D1</styleUrl>
        <Point><coordinates>138.1347405,36.3000382,0</coordinates></Point>
      </Placemark>

      <Placemark>
        <name>鹿教湯温泉鹿乃屋</name>
        <description><![CDATA[No.1239<br>長野県上田市鹿教湯温泉1462<br>0268-44-2141<br>http://www.sikanoya.co.jp/<br><br>土産物店]]></description>
        <styleUrl>#icon-1899-0288D1</styleUrl>
        <Point><coordinates>138.134575,36.299655,0</coordinates></Point>
      </Placemark>

      <Placemark>
        <name>千曲バス　上田営業所</name>
        <description><![CDATA[No.1240<br>長野県上田市秋和112<br>0268-22-2363<br>http://www.chikuma-bus.com<br><br>バス]]></description>
        <styleUrl>#icon-1899-0288D1</styleUrl>
        <Point><coordinates>138.2244719,36.4118725,0</coordinates></Point>
      </Placemark>

      <Placemark>
        <name>スシロー上田店</name>
        <description><![CDATA[No.1241<br>長野県上田市秋和342-5<br>0268-29-7055<br>http://www.akindo-sushiro.co.jp/<br><br>和食・寿司・天ぷら]]></description>
        <styleUrl>#icon-1899-0288D1</styleUrl>
        <Point><coordinates>138.222762,36.415114,0</coordinates></Point>
      </Placemark>

      <Placemark>
        <name>海山亭いっちょう上田秋和店</name>
        <description><![CDATA[No.1242<br>長野県上田市秋和354-3<br>0268-71-6578<br>http://www.icho.co.jp/<br><br>居酒屋・創作料理]]></description>
        <styleUrl>#icon-1899-0288D1</styleUrl>
        <Point><coordinates>138.22432,36.415627,0</coordinates></Point>
      </Placemark>

      <Placemark>
        <name>信州焼肉　NAMSAN　上田秋和店</name>
        <description><![CDATA[No.1243<br>長野県上田市秋和410-4<br>0268-23-7701<br>http://youth-g.com<br><br>焼肉・ホルモン]]></description>
        <styleUrl>#icon-1899-0288D1</styleUrl>
        <Point><coordinates>138.2257429,36.41461839999999,0</coordinates></Point>
      </Placemark>

      <Placemark>
        <name>日帰り温泉ひな詩の湯</name>
        <description><![CDATA[No.1244<br>長野県上田市住吉86-2<br>0268-26-1711<br>http://www.shinanoki-onsen.co.jp<br>日帰り温泉施設<br>和食・寿司・天ぷら]]></description>
        <styleUrl>#icon-1899-0288D1</styleUrl>
        <Point><coordinates>138.272034,36.4033808,0</coordinates></Point>
      </Placemark>

      <Placemark>
        <name>道の駅 上田 道と川の駅 おとぎの里</name>
        <description><![CDATA[No.1245<br>長野県上田市小泉字塩田川原2575-2<br>0268-75-0587<br>https://www.otoginosato.jp/<br><br>土産物店, 伝統工芸品等の販売店, 道の駅]]></description>
        <styleUrl>#icon-1899-0288D1</styleUrl>
        <Point><coordinates>138.2053095,36.4066522,0</coordinates></Point>
      </Placemark>

      <Placemark>
        <name>道の駅 上田 道と川の駅 おとぎの里 お食事処 岩鼻</name>
        <description><![CDATA[No.1246<br>長野県上田市小泉字塩田川原2575-2<br>0268-75-0587<br>https://www.otoginosato.jp/<br><br>その他グルメ]]></description>
        <styleUrl>#icon-1899-0288D1</styleUrl>
        <Point><coordinates>138.2053181,36.4070934,0</coordinates></Point>
      </Placemark>

      <Placemark>
        <name>いっちょう上田店</name>
        <description><![CDATA[No.1247<br>長野県上田市小牧1206-4<br>0268-75-7878<br>http://www.icho.co.jp/<br><br>居酒屋・創作料理]]></description>
        <styleUrl>#icon-1899-0288D1</styleUrl>
        <Point><coordinates>138.256533,36.384699,0</coordinates></Point>
      </Placemark>

      <Placemark>
        <name>信州イゲタ味噌醸造蔵元酒の原商店</name>
        <description><![CDATA[No.1248<br>長野県上田市上塩尻260<br>0268-22-1941<br>https://hara-igeta.jp/<br><br>土産物店]]></description>
        <styleUrl>#icon-1899-0288D1</styleUrl>
        <Point><coordinates>138.21386,36.417826,0</coordinates></Point>
      </Placemark>

      <Placemark>
        <name>和田タクシー</name>
        <description><![CDATA[No.1249<br>長野県上田市上丸子296<br>0268-42-2750<br><br><br>バス, タクシー]]></description>
        <styleUrl>#icon-1899-0288D1</styleUrl>
        <Point><coordinates>138.271876,36.329373,0</coordinates></Point>
      </Placemark>

      <Placemark>
        <name>（株）大桂商店</name>
        <description><![CDATA[No.1250<br>長野県上田市上丸子991-1<br>0268-42-2054<br>http://www.daikeimiso.com<br><br>土産物店]]></description>
        <styleUrl>#icon-1899-0288D1</styleUrl>
        <Point><coordinates>138.2719432,36.3226714,0</coordinates></Point>
      </Placemark>

      <Placemark>
        <name>上田市農林漁業体験実習館 室賀温泉 ささらの湯</name>
        <description><![CDATA[No.1251<br>長野県上田市上室賀1232-1<br>0268-31-1126<br>https://www.city.ueda.nagano.jp/soshiki/nosei/3569.html<br>日帰り温泉施設<br>]]></description>
        <styleUrl>#icon-1899-0288D1</styleUrl>
        <Point><coordinates>138.1473612,36.4102645,0</coordinates></Point>
      </Placemark>

      <Placemark>
        <name>御菓子処花岡　上田山口店</name>
        <description><![CDATA[No.1252<br>長野県上田市上田1221-1<br>0268-21-1354<br>http://info@okashi-hanaoka.jp<br><br>その他土産物店]]></description>
        <styleUrl>#icon-1899-0288D1</styleUrl>
        <Point><coordinates>138.2653869,36.411285,0</coordinates></Point>
      </Placemark>

      <Placemark>
        <name>LECADRE</name>
        <description><![CDATA[No.1253<br>長野県上田市上田2-1-15<br>0268-75-0463<br>http://lecadre-jp.com<br><br>フレンチ]]></description>
        <styleUrl>#icon-1899-0288D1</styleUrl>
        <Point><coordinates>138.2516232,36.400009,0</coordinates></Point>
      </Placemark>

      <Placemark>
        <name>武石温泉　うつくしの湯</name>
        <description><![CDATA[No.1254<br>長野県上田市上武石1454-3<br>0268-85-3900<br>http://www.unkeiso.com/utukushi.html<br>日帰り温泉施設<br>土産物店<br>定食屋]]></description>
        <styleUrl>#icon-1899-0288D1</styleUrl>
        <Point><coordinates>138.2275779,36.2865436,0</coordinates></Point>
      </Placemark>

      <Placemark>
        <name>観光列車「ろくもん」</name>
        <description><![CDATA[No.1255<br>長野県上田市常田1-3-39<br>0268-29-0069<br>https://www.shinanorailway.co.jp/rokumon/<br><br>鉄道]]></description>
        <styleUrl>#icon-1899-0288D1</styleUrl>
        <Point><coordinates>138.249075,36.4019126,0</coordinates></Point>
      </Placemark>

      <Placemark>
        <name>アランフェス　カフェ＆スペインバル</name>
        <description><![CDATA[No.1256<br>長野県上田市常田1-4-13<br>0268-27-1943<br>https://aranjuez271943.com/<br><br>各国料理]]></description>
        <styleUrl>#icon-1899-0288D1</styleUrl>
        <Point><coordinates>138.252747,36.392503,0</coordinates></Point>
      </Placemark>

      <Placemark>
        <name>クリスピーチキンアンドトマト上田店</name>
        <description><![CDATA[No.1257<br>長野県上田市常田2-12-18イオンスタイル上田2Fフードコート<br>0268-80-9215<br><br><br>韓国料理]]></description>
        <styleUrl>#icon-1899-0288D1</styleUrl>
        <Point><coordinates>138.2498222,36.3980007,0</coordinates></Point>
      </Placemark>

      <Placemark>
        <name>松葉タクシー上田営業所</name>
        <description><![CDATA[No.1258<br>長野県上田市常田2-5-9<br>0268-23-1161<br>https://www.matsuba-taxi.com/<br><br>タクシー]]></description>
        <styleUrl>#icon-1899-0288D1</styleUrl>
        <Point><coordinates>138.2551441,36.3954291,0</coordinates></Point>
      </Placemark>

      <Placemark>
        <name>省和タクシー株式会社</name>
        <description><![CDATA[No.1259<br>長野県上田市常田2丁目3-4<br>0268-22-0400<br><br><br>タクシー]]></description>
        <styleUrl>#icon-1899-0288D1</styleUrl>
        <Point><coordinates>138.254308,36.396348,0</coordinates></Point>
      </Placemark>

      <Placemark>
        <name>上田タクシー株式会社</name>
        <description><![CDATA[No.1260<br>長野県上田市常田3-5-26<br>0268-22-0055<br><br><br>タクシー]]></description>
        <styleUrl>#icon-1899-0288D1</styleUrl>
        <Point><coordinates>138.249075,36.4019126,0</coordinates></Point>
      </Placemark>

      <Placemark>
        <name>かっぱ寿司上田店</name>
        <description><![CDATA[No.1261<br>長野県上田市常盤城1丁目8-31<br>0268-25-1728<br><br><br>和食・寿司・天ぷら]]></description>
        <styleUrl>#icon-1899-0288D1</styleUrl>
        <Point><coordinates>138.2430888,36.4084371,0</coordinates></Point>
      </Placemark>

      <Placemark>
        <name>世界大会金賞 ハム工房セキ</name>
        <description><![CDATA[No.1262<br>長野県上田市常磐城4-11-11<br>0268-23-0747<br>https://hamukoubouseki.com/<br><br>土産物店, その他土産物店]]></description>
        <styleUrl>#icon-1899-0288D1</styleUrl>
        <Point><coordinates>138.2385479,36.4110841,0</coordinates></Point>
      </Placemark>

      <Placemark>
        <name>ゆきむら夢工房売店</name>
        <description><![CDATA[No.1263<br>長野県上田市真田町長6090-1<br>0268-72-2204<br><br><br>土産物店, 伝統工芸品等の販売店]]></description>
        <styleUrl>#icon-1899-0288D1</styleUrl>
        <Point><coordinates>138.3074739,36.4405755,0</coordinates></Point>
      </Placemark>

      <Placemark>
        <name>真田温泉健康ランド　ふれあいさなだ館</name>
        <description><![CDATA[No.1264<br>長野県上田市真田町長7369-1<br>0268-72-2500<br>https://www.ueda-rpc.or.jp/facility/fureaisanadakan.html<br>日帰り温泉施設<br>土産物店<br>定食屋]]></description>
        <styleUrl>#icon-1899-0288D1</styleUrl>
        <Point><coordinates>138.3076592,36.443024,0</coordinates></Point>
      </Placemark>

      <Placemark>
        <name>ちゃーしゅうや武蔵　上田原店</name>
        <description><![CDATA[No.1265<br>長野県上田市神畑226-2<br>0268-25-0701<br>https://cha-syuyamusashi.com/shop/<br><br>ラーメン・つけ麺]]></description>
        <styleUrl>#icon-1899-0288D1</styleUrl>
        <Point><coordinates>138.2116221,36.3895892,0</coordinates></Point>
      </Placemark>

      <Placemark>
        <name>牛角　上田原店</name>
        <description><![CDATA[No.1266<br>長野県上田市神畑262-1<br>0268-75-1181<br>https://www.gyukaku.ne.jp/shop/store.php?gid=0268751181<br><br>焼肉・ホルモン]]></description>
        <styleUrl>#icon-1899-0288D1</styleUrl>
        <Point><coordinates>138.2127201,36.3879293,0</coordinates></Point>
      </Placemark>

      <Placemark>
        <name>ハレterrace　グリーンパークしおだ野</name>
        <description><![CDATA[No.1267<br>長野県上田市神畑515-1<br>070-4334-2924<br>https://hareterrace.com<br><br>カフェ・スイーツ]]></description>
        <styleUrl>#icon-1899-0288D1</styleUrl>
        <Point><coordinates>138.211837,36.384101,0</coordinates></Point>
      </Placemark>

      <Placemark>
        <name>プチホテル　ちょっと屋ガーデン</name>
        <description><![CDATA[No.1268<br>長野県上田市菅平高原,1223-1720<br>0268-74-3330<br>http://www.ued.janis.or.jp/~cyottya<br>その他<br>その他土産物店]]></description>
        <styleUrl>#icon-1899-0288D1</styleUrl>
        <Point><coordinates>138.3348309,36.528371,0</coordinates></Point>
      </Placemark>

      <Placemark>
        <name>菅平高原プラザホテル</name>
        <description><![CDATA[No.1269<br>長野県上田市菅平高原,1223-3244<br>0268-74-2345<br>https://sugadaira-plazahotel.com/<br>アウトドア・スポーツ体験, その他<br>土産物店]]></description>
        <styleUrl>#icon-1899-0288D1</styleUrl>
        <Point><coordinates>138.33232,36.529301,0</coordinates></Point>
      </Placemark>

      <Placemark>
        <name>八幡屋</name>
        <description><![CDATA[No.1270<br>長野県上田市菅平高原1223<br>0268-74-2215<br>http://yawataya.net<br><br>定食屋]]></description>
        <styleUrl>#icon-1899-0288D1</styleUrl>
        <Point><coordinates>138.249075,36.4019126,0</coordinates></Point>
      </Placemark>

      <Placemark>
        <name>菅平国際ホテルベルニナ</name>
        <description><![CDATA[No.1271<br>長野県上田市菅平高原1223<br>0268-74-2325<br><br>アウトドア・スポーツ体験, その他<br>土産物店<br>その他グルメ]]></description>
        <styleUrl>#icon-1899-0288D1</styleUrl>
        <Point><coordinates>138.3439463,36.5316883,0</coordinates></Point>
      </Placemark>

      <Placemark>
        <name>CARO FORESTA 菅平 CASOLARE</name>
        <description><![CDATA[No.1272<br>長野県上田市菅平高原1223-1404<br>0268-74-1020<br>https://caro-foresta.com/casolare/index.html<br>その他<br>]]></description>
        <styleUrl>#icon-1899-0288D1</styleUrl>
        <Point><coordinates>138.3245926,36.5359578,0</coordinates></Point>
      </Placemark>

      <Placemark>
        <name>菅平高原スノーリゾート</name>
        <description><![CDATA[No.1273<br>長野県上田市菅平高原1223-146<br>0268-74-2137<br>https://sugadaira-snowresort.com/<br>アウトドア・スポーツ体験, レジャー施設<br>]]></description>
        <styleUrl>#icon-1899-0288D1</styleUrl>
        <Point><coordinates>138.3339796,36.52360609999999,0</coordinates></Point>
      </Placemark>

      <Placemark>
        <name>天狗ロッヂ</name>
        <description><![CDATA[No.1274<br>長野県上田市菅平高原1223-1591<br>0268-74-2431<br>http://www.est.hi-ho.ne.jp/tengu-lodge/<br>アウトドア・スポーツ体験<br>土産物店]]></description>
        <styleUrl>#icon-1899-0288D1</styleUrl>
        <Point><coordinates>138.338056,36.531724,0</coordinates></Point>
      </Placemark>

      <Placemark>
        <name>TASTE OF PUNJAB</name>
        <description><![CDATA[No.1275<br>長野県上田市菅平高原1223-1648<br>0268-71-7299<br><br><br>各国料理]]></description>
        <styleUrl>#icon-1899-0288D1</styleUrl>
        <Point><coordinates>138.3400214,36.5302791,0</coordinates></Point>
      </Placemark>

      <Placemark>
        <name>しゃくなげ</name>
        <description><![CDATA[No.1276<br>長野県上田市菅平高原1223-2093<br>0268-74-3456<br><br><br>土産物店]]></description>
        <styleUrl>#icon-1899-0288D1</styleUrl>
        <Point><coordinates>138.249075,36.4019126,0</coordinates></Point>
      </Placemark>

      <Placemark>
        <name>菅平高原ホテル白樺荘</name>
        <description><![CDATA[No.1277<br>長野県上田市菅平高原1223-2108<br>0268-74-2511<br>https://www.shirakaba.com/<br><br>その他グルメ]]></description>
        <styleUrl>#icon-1899-0288D1</styleUrl>
        <Point><coordinates>138.3446928,36.5315006,0</coordinates></Point>
      </Placemark>

      <Placemark>
        <name>峯村山荘</name>
        <description><![CDATA[No.1278<br>長野県上田市菅平高原1223-2581<br>0268-74-2667<br><br><br>土産物店]]></description>
        <styleUrl>#icon-1899-0288D1</styleUrl>
        <Point><coordinates>138.3201748,36.5183889,0</coordinates></Point>
      </Placemark>

      <Placemark>
        <name>まるみ山荘</name>
        <description><![CDATA[No.1279<br>長野県上田市菅平高原1223-3445<br>0268-74-2065<br>http://tooru-m.03.e5@gold.zero.jp<br>乗り物体験, アウトドア・スポーツ体験<br>土産物店]]></description>
        <styleUrl>#icon-1899-0288D1</styleUrl>
        <Point><coordinates>138.3397115,36.5321937,0</coordinates></Point>
      </Placemark>

      <Placemark>
        <name>菅平プリンスホテル</name>
        <description><![CDATA[No.1280<br>長野県上田市菅平高原1223-3735<br>0268-74-2100<br>http://www.s-prince.co.jp/<br>アウトドア・スポーツ体験, 日帰り温泉施設<br>土産物店<br>その他グルメ]]></description>
        <styleUrl>#icon-1899-0288D1</styleUrl>
        <Point><coordinates>138.3485831,36.5337828,0</coordinates></Point>
      </Placemark>

      <Placemark>
        <name>ホテルニューダボス</name>
        <description><![CDATA[No.1281<br>長野県上田市菅平高原1223-3790<br>0268-74-2066<br>https://new-davos.com/<br><br>土産物店<br>その他グルメ]]></description>
        <styleUrl>#icon-1899-0288D1</styleUrl>
        <Point><coordinates>138.339922,36.538846,0</coordinates></Point>
      </Placemark>

      <Placemark>
        <name>プチホテル　ゾンタック</name>
        <description><![CDATA[No.1282<br>長野県上田市菅平高原1223-3930<br>0268-74-1111<br>http://sonntag.jp<br>アウトドア・スポーツ体験, リゾートテレワーク体験, その他<br>その他土産物店]]></description>
        <styleUrl>#icon-1899-0288D1</styleUrl>
        <Point><coordinates>138.31395,36.523598,0</coordinates></Point>
      </Placemark>

      <Placemark>
        <name>リゾートイン菅平スイスホテル</name>
        <description><![CDATA[No.1283<br>長野県上田市菅平高原1223-4629<br>0268-74-3411<br>https://suisuhotel.com/<br><br>土産物店]]></description>
        <styleUrl>#icon-1899-0288D1</styleUrl>
        <Point><coordinates>138.327301,36.53496,0</coordinates></Point>
      </Placemark>

      <Placemark>
        <name>リゾートロッジすずもと</name>
        <description><![CDATA[No.1284<br>長野県上田市菅平高原1223-5501<br>0268-74-2110<br><br><br>その他土産物店]]></description>
        <styleUrl>#icon-1899-0288D1</styleUrl>
        <Point><coordinates>138.343139,36.532044,0</coordinates></Point>
      </Placemark>

      <Placemark>
        <name>焼きカレー屋 MEL's</name>
        <description><![CDATA[No.1285<br>長野県上田市菅平高原1223-6088<br>0268-74-3505<br>https://www.youtube.com/watch?v=sGXNVVDbKg4<br><br>その他グルメ]]></description>
        <styleUrl>#icon-1899-0288D1</styleUrl>
        <Point><coordinates>138.342365,36.5340083,0</coordinates></Point>
      </Placemark>

      <Placemark>
        <name>レストランTARO</name>
        <description><![CDATA[No.1286<br>長野県上田市菅平高原1223-6204<br>0268-74-2300<br>https://taroukan.com<br><br>その他グルメ]]></description>
        <styleUrl>#icon-1899-0288D1</styleUrl>
        <Point><coordinates>138.249075,36.4019126,0</coordinates></Point>
      </Placemark>

      <Placemark>
        <name>日の出ロッヂ</name>
        <description><![CDATA[No.1287<br>長野県上田市菅平高原1224<br>0268–75-5202<br>http://hinodelodge.com/hinode/<br>その他<br>ダイニングバー・バル]]></description>
        <styleUrl>#icon-1899-0288D1</styleUrl>
        <Point><coordinates>138.3342161,36.5294905,0</coordinates></Point>
      </Placemark>

      <Placemark>
        <name>菅清園　SUGACAFE</name>
        <description><![CDATA[No.1288<br>長野県上田市菅平高原1224-6<br>0268-74-2525<br><br><br>土産物店<br>カフェ・スイーツ]]></description>
        <styleUrl>#icon-1899-0288D1</styleUrl>
        <Point><coordinates>138.3339503,36.5295885,0</coordinates></Point>
      </Placemark>

      <Placemark>
        <name>サングリーン菅平マレットゴルフ場</name>
        <description><![CDATA[No.1289<br>長野県上田市菅平高原1244-5番地<br>0268-74-2672<br>http://www.mallet-golf.com/<br>レジャー施設<br>定食屋]]></description>
        <styleUrl>#icon-1899-0288D1</styleUrl>
        <Point><coordinates>138.3178841,36.5284887,0</coordinates></Point>
      </Placemark>

      <Placemark>
        <name>グリーンパーク</name>
        <description><![CDATA[No.1290<br>長野県上田市菅平高原1245<br>0268-74-3070<br><br>料理体験, アウトドア・スポーツ体験, レジャー施設<br>その他グルメ]]></description>
        <styleUrl>#icon-1899-0288D1</styleUrl>
        <Point><coordinates>138.3437117,36.5207065,0</coordinates></Point>
      </Placemark>

      <Placemark>
        <name>菅平ホテル</name>
        <description><![CDATA[No.1291<br>長野県上田市菅平高原1262-4<br>0268-74-2001<br>https://sugadaira-hotel.jp/<br><br>その他土産物店]]></description>
        <styleUrl>#icon-1899-0288D1</styleUrl>
        <Point><coordinates>138.331548,36.528391,0</coordinates></Point>
      </Placemark>

      <Placemark>
        <name>菅平高原ホテル柄澤</name>
        <description><![CDATA[No.1292<br>長野県上田市菅平高原1278<br>0268-74-2555<br>http://www.hotel-karasawa.co.jp/<br>アウトドア・スポーツ体験, レジャー施設<br>土産物店, その他土産物店<br>その他グルメ]]></description>
        <styleUrl>#icon-1899-0288D1</styleUrl>
        <Point><coordinates>138.3456665,36.5316216,0</coordinates></Point>
      </Placemark>

      <Placemark>
        <name>ペンション紙ヒコーキ</name>
        <description><![CDATA[No.1293<br>長野県上田市菅平高原1278-2785<br>0268-74-2504<br>http://www.p-kamihiko-ki.info/<br>その他<br>その他土産物店]]></description>
        <styleUrl>#icon-1899-0288D1</styleUrl>
        <Point><coordinates>138.357105,36.531883,0</coordinates></Point>
      </Placemark>

      <Placemark>
        <name>菅平牧場売店</name>
        <description><![CDATA[No.1294<br>長野県上田市菅平高原1278-288<br>0268-74-3621<br>https://ranch.sugadaira-hare.com/<br><br>土産物店<br>カフェ・スイーツ]]></description>
        <styleUrl>#icon-1899-0288D1</styleUrl>
        <Point><coordinates>138.3719673,36.5379276,0</coordinates></Point>
      </Placemark>

      <Placemark>
        <name>Versoix</name>
        <description><![CDATA[No.1295<br>長野県上田市菅平高原1278-458<br>0268-74-2331<br><br>アウトドア・スポーツ体験<br>]]></description>
        <styleUrl>#icon-1899-0288D1</styleUrl>
        <Point><coordinates>138.347503,36.533058,0</coordinates></Point>
      </Placemark>

      <Placemark>
        <name>大江戸温泉物語　鹿教湯桜館</name>
        <description><![CDATA[No.1296<br>長野県上田市西内1160<br>0268-44-2104<br>https://www.ooedoonsen.jp/<br><br>その他土産物店]]></description>
        <styleUrl>#icon-1899-0288D1</styleUrl>
        <Point><coordinates>138.137119,36.30559,0</coordinates></Point>
      </Placemark>

      <Placemark>
        <name>鹿教湯温泉　くつろぎの宿　黒岩旅館</name>
        <description><![CDATA[No.1297<br>長野県上田市西内1248<br>0268-44-2428<br>http://kuroiwaryokan.com/<br><br>土産物店]]></description>
        <styleUrl>#icon-1899-0288D1</styleUrl>
        <Point><coordinates>138.13773,36.303833,0</coordinates></Point>
      </Placemark>

      <Placemark>
        <name>大江戸温泉物語　鹿教湯藤館</name>
        <description><![CDATA[No.1298<br>長野県上田市西内1258<br>0268-44-2231<br>https://www.ooedoonsen.jp/<br><br>その他土産物店]]></description>
        <styleUrl>#icon-1899-0288D1</styleUrl>
        <Point><coordinates>138.136277,36.303815,0</coordinates></Point>
      </Placemark>

      <Placemark>
        <name>鹿教湯温泉 斉北荘</name>
        <description><![CDATA[No.1299<br>長野県上田市西内1262<br>0268-44-2417<br>http://saihokuso.info/<br>その他<br>その他土産物店]]></description>
        <styleUrl>#icon-1899-0288D1</styleUrl>
        <Point><coordinates>138.137183,36.303763,0</coordinates></Point>
      </Placemark>

      <Placemark>
        <name>鹿教湯温泉　河鹿荘</name>
        <description><![CDATA[No.1300<br>長野県上田市西内864<br>0268-44-2036<br>https://kajika.kakeyu.org/<br>日帰り温泉施設<br>その他土産物店]]></description>
        <styleUrl>#icon-1899-0288D1</styleUrl>
        <Point><coordinates>138.1382489,36.3038686,0</coordinates></Point>
      </Placemark>

      <Placemark>
        <name>きのこむら深山</name>
        <description><![CDATA[No.1301<br>長野県上田市前山710-2<br>0268-38-7333<br>http://www.e-shinzan.com<br><br>土産物店, その他土産物店<br>和食・寿司・天ぷら]]></description>
        <styleUrl>#icon-1899-0288D1</styleUrl>
        <Point><coordinates>138.1936814,36.3484289,0</coordinates></Point>
      </Placemark>

      <Placemark>
        <name>上田温泉　ホテル祥園</name>
        <description><![CDATA[No.1302<br>長野県上田市大手1-2-2<br>0268-22-2353<br><br><br>]]></description>
        <styleUrl>#icon-1899-0288D1</styleUrl>
        <Point><coordinates>138.2498321,36.3991966,0</coordinates></Point>
      </Placemark>

      <Placemark>
        <name>上田市観光会館売店</name>
        <description><![CDATA[No.1303<br>長野県上田市大手二丁目8番4号<br>0268-25-4403<br><br><br>土産物店, 伝統工芸品等の販売店]]></description>
        <styleUrl>#icon-1899-0288D1</styleUrl>
        <Point><coordinates>138.2473617,36.402951,0</coordinates></Point>
      </Placemark>

      <Placemark>
        <name>かっぱ寿司上田築地店</name>
        <description><![CDATA[No.1304<br>長野県上田市築地32<br>0268-28-6789<br><br><br>和食・寿司・天ぷら]]></description>
        <styleUrl>#icon-1899-0288D1</styleUrl>
        <Point><coordinates>138.2091551,36.3948178,0</coordinates></Point>
      </Placemark>

      <Placemark>
        <name>上田プラザホテル</name>
        <description><![CDATA[No.1305<br>長野県上田市中央1-1-18<br>0268-25-3000<br>https://www.uedaplazahotel.jp/<br><br>その他グルメ]]></description>
        <styleUrl>#icon-1899-0288D1</styleUrl>
        <Point><coordinates>138.2504427,36.3983617,0</coordinates></Point>
      </Placemark>

      <Placemark>
        <name>上田ぶたひつじ</name>
        <description><![CDATA[No.1306<br>長野県上田市中央1-1-20和田源ビル1F<br>0268-75-7939<br><br><br>その他グルメ]]></description>
        <styleUrl>#icon-1899-0288D1</styleUrl>
        <Point><coordinates>138.2502996,36.3981545,0</coordinates></Point>
      </Placemark>

      <Placemark>
        <name>駅前酒場真田坂の小助</name>
        <description><![CDATA[No.1307<br>長野県上田市中央1-1-20和田源ビル2F<br>0268-75-7933<br><br><br>居酒屋・創作料理]]></description>
        <styleUrl>#icon-1899-0288D1</styleUrl>
        <Point><coordinates>138.2502445,36.3982091,0</coordinates></Point>
      </Placemark>

      <Placemark>
        <name>魚民　上田お城口店前</name>
        <description><![CDATA[No.1308<br>長野県上田市中央1-1-22桝林ビル1階<br>0268-23-9288<br>https://www.monteroza.co.jp/<br><br>居酒屋・創作料理]]></description>
        <styleUrl>#icon-1899-0288D1</styleUrl>
        <Point><coordinates>138.2500446,36.3978196,0</coordinates></Point>
      </Placemark>

      <Placemark>
        <name>栄屋工芸店</name>
        <description><![CDATA[No.1309<br>長野県上田市中央2-2-20<br>0268-22-0029<br><br><br>伝統工芸品等の販売店]]></description>
        <styleUrl>#icon-1899-0288D1</styleUrl>
        <Point><coordinates>138.2517453,36.4002151,0</coordinates></Point>
      </Placemark>

      <Placemark>
        <name>hostel mog</name>
        <description><![CDATA[No.1310<br>長野県上田市中央2-24-4<br>0268-71-0504<br>https://instagram.com/hostel_mog?utm_medium=copy_link<br><br>土産物店<br>ダイニングバー・バル]]></description>
        <styleUrl>#icon-1899-0288D1</styleUrl>
        <Point><coordinates>138.2583856,36.3991836,0</coordinates></Point>
      </Placemark>

      <Placemark>
        <name>焼肉ホルモンくろおび</name>
        <description><![CDATA[No.1311<br>長野県上田市中央2-3-15<br>0268-23-3015<br><br><br>焼肉・ホルモン]]></description>
        <styleUrl>#icon-1899-0288D1</styleUrl>
        <Point><coordinates>138.2524108,36.4015366,0</coordinates></Point>
      </Placemark>

      <Placemark>
        <name>るり家</name>
        <description><![CDATA[No.1312<br>長野県上田市中央2-4-2<br>0268-21-7227<br>https://www.instagram.com/ueda_ruriya/<br><br>焼鳥・串揚げ]]></description>
        <styleUrl>#icon-1899-0288D1</styleUrl>
        <Point><coordinates>138.2527027,36.4011869,0</coordinates></Point>
      </Placemark>

      <Placemark>
        <name>写楽</name>
        <description><![CDATA[No.1313<br>長野県上田市中央2-6-13上田第一ホテル1階<br>0268-21-1500<br><br><br>居酒屋・創作料理]]></description>
        <styleUrl>#icon-1899-0288D1</styleUrl>
        <Point><coordinates>138.2524251,36.3996241,0</coordinates></Point>
      </Placemark>

      <Placemark>
        <name>桂旅館</name>
        <description><![CDATA[No.1314<br>長野県上田市中央2‐1‐5<br>0268-22-1940<br><br><br>イタリアン]]></description>
        <styleUrl>#icon-1899-0288D1</styleUrl>
        <Point><coordinates>138.250989,36.399959,0</coordinates></Point>
      </Placemark>

      <Placemark>
        <name>犀の角</name>
        <description><![CDATA[No.1315<br>長野県上田市中央2丁目11-20<br>0268-71-5221<br>http://sainotsuno.org/<br><br>カフェ・スイーツ]]></description>
        <styleUrl>#icon-1899-0288D1</styleUrl>
        <Point><coordinates>138.254684,36.399918,0</coordinates></Point>
      </Placemark>

      <Placemark>
        <name>EMPIRE</name>
        <description><![CDATA[No.1316<br>長野県上田市中央3-1-13<br>0268-23-9055<br><br><br>ダイニングバー・バル]]></description>
        <styleUrl>#icon-1899-0288D1</styleUrl>
        <Point><coordinates>138.249075,36.4019126,0</coordinates></Point>
      </Placemark>

      <Placemark>
        <name>めめ家</name>
        <description><![CDATA[No.1317<br>長野県上田市中央3-10-12<br>0268-23-2008<br><br><br>焼鳥・串揚げ]]></description>
        <styleUrl>#icon-1899-0288D1</styleUrl>
        <Point><coordinates>138.2546687,36.4007264,0</coordinates></Point>
      </Placemark>

      <Placemark>
        <name>信州焼肉　南山亭　上田本店</name>
        <description><![CDATA[No.1318<br>長野県上田市中央3-3-17<br>0268-25-2377<br>http://youth-g.com<br><br>焼肉・ホルモン]]></description>
        <styleUrl>#icon-1899-0288D1</styleUrl>
        <Point><coordinates>138.2531370568343,36.403125521325464,0</coordinates></Point>
      </Placemark>

      <Placemark>
        <name>にの屋</name>
        <description><![CDATA[No.1319<br>長野県上田市中央3-7-33<br>0268-75-0795<br><br><br>居酒屋・創作料理]]></description>
        <styleUrl>#icon-1899-0288D1</styleUrl>
        <Point><coordinates>138.2538953,36.4026451,0</coordinates></Point>
      </Placemark>

      <Placemark>
        <name>手羽先番長　総本店</name>
        <description><![CDATA[No.1320<br>長野県上田市中央3-7-6<br>0268-26-1818<br><br><br>焼鳥・串揚げ]]></description>
        <styleUrl>#icon-1899-0288D1</styleUrl>
        <Point><coordinates>138.2535608,36.4034207,0</coordinates></Point>
      </Placemark>

      <Placemark>
        <name>寝ずの甚八上田店</name>
        <description><![CDATA[No.1321<br>長野県上田市中央3-9-13<br>0268-28-1522<br><br><br>居酒屋・創作料理]]></description>
        <styleUrl>#icon-1899-0288D1</styleUrl>
        <Point><coordinates>138.2539929,36.40089580000001,0</coordinates></Point>
      </Placemark>

      <Placemark>
        <name>Unity 0268 Shop(玉井フルーツ店)</name>
        <description><![CDATA[No.1322<br>長野県上田市中央4-11-11<br>0268-22-0581<br>https://tamaifruit.com/<br><br>土産物店, 伝統工芸品等の販売店]]></description>
        <styleUrl>#icon-1899-0288D1</styleUrl>
        <Point><coordinates>138.2536616,36.4075687,0</coordinates></Point>
      </Placemark>

      <Placemark>
        <name>隠れ家　えん</name>
        <description><![CDATA[No.1323<br>長野県上田市中央4-7-27<br>0268-75-6019<br><br><br>焼鳥・串揚げ]]></description>
        <styleUrl>#icon-1899-0288D1</styleUrl>
        <Point><coordinates>138.2528899,36.4063532,0</coordinates></Point>
      </Placemark>

      <Placemark>
        <name>柳町屋</name>
        <description><![CDATA[No.1324<br>長野県上田市中央4-7-30<br>0268-75-8728<br>https://yanagimachiya.u-brand.jp/<br><br>土産物店<br>カフェ・スイーツ]]></description>
        <styleUrl>#icon-1899-0288D1</styleUrl>
        <Point><coordinates>138.253019,36.405913,0</coordinates></Point>
      </Placemark>

      <Placemark>
        <name>名取製餡　柳町店</name>
        <description><![CDATA[No.1325<br>長野県上田市中央4-8-11<br>0268-22-0164<br>https://natoriseian.jp/special.html<br><br>土産物店]]></description>
        <styleUrl>#icon-1899-0288D1</styleUrl>
        <Point><coordinates>138.2532233,36.4057567,0</coordinates></Point>
      </Placemark>

      <Placemark>
        <name>スタジオケイナ</name>
        <description><![CDATA[No.1326<br>長野県上田市中央4-8-4<br>0268-26-4525<br><br><br>その他土産物店]]></description>
        <styleUrl>#icon-1899-0288D1</styleUrl>
        <Point><coordinates>138.2532023,36.404944,0</coordinates></Point>
      </Placemark>

      <Placemark>
        <name>手打百藝おお西</name>
        <description><![CDATA[No.1327<br>長野県上田市中央4-9-8<br>0268-24-5381<br>http://www.ohnishisoba.com/<br><br>そば・うどん]]></description>
        <styleUrl>#icon-1899-0288D1</styleUrl>
        <Point><coordinates>138.2533333,36.4065,0</coordinates></Point>
      </Placemark>

      <Placemark>
        <name>菅平観光タクシー株式会社　上田営業所</name>
        <description><![CDATA[No.1328<br>長野県上田市中央5丁目13-41<br>0268-22-8484<br><br><br>タクシー]]></description>
        <styleUrl>#icon-1899-0288D1</styleUrl>
        <Point><coordinates>138.2591878,36.405975,0</coordinates></Point>
      </Placemark>

      <Placemark>
        <name>御菓子処花岡　上田中央店</name>
        <description><![CDATA[No.1329<br>長野県上田市中央6-40-10<br>0268-21-1354<br>http://info@okashi-hanaoka.jp<br><br>その他土産物店<br>その他グルメ]]></description>
        <styleUrl>#icon-1899-0288D1</styleUrl>
        <Point><coordinates>138.2653869,36.411285,0</coordinates></Point>
      </Placemark>

      <Placemark>
        <name>みすゞ飴本舗 飯島商店　上田本店</name>
        <description><![CDATA[No.1330<br>長野県上田市中央一丁目1-21<br>0268-75-7620<br>https://misuzuame.com/<br><br>土産物店]]></description>
        <styleUrl>#icon-1899-0288D1</styleUrl>
        <Point><coordinates>138.250136,36.398123,0</coordinates></Point>
      </Placemark>

      <Placemark>
        <name>CoCo壱番屋上田中央東店</name>
        <description><![CDATA[No.1331<br>長野県上田市中央東2-10<br>0268-29-6700<br><br><br>ファミリーレストラン]]></description>
        <styleUrl>#icon-1899-0288D1</styleUrl>
        <Point><coordinates>138.2655805,36.4101382,0</coordinates></Point>
      </Placemark>

      <Placemark>
        <name>上田観光自動車株式会社 　本社営業所</name>
        <description><![CDATA[No.1332<br>長野県上田市中央北1-6-35<br>0268-22-0200<br><br><br>タクシー]]></description>
        <styleUrl>#icon-1899-0288D1</styleUrl>
        <Point><coordinates>138.2576002,36.4072571,0</coordinates></Point>
      </Placemark>

      <Placemark>
        <name>菓樹工房　萠</name>
        <description><![CDATA[No.1333<br>長野県上田市中央北2-8-10<br>0268-25-2933<br><br><br>土産物店<br>カフェ・スイーツ]]></description>
        <styleUrl>#icon-1899-0288D1</styleUrl>
        <Point><coordinates>138.25401,36.410644,0</coordinates></Point>
      </Placemark>

      <Placemark>
        <name>御菓子処花岡　丸子店</name>
        <description><![CDATA[No.1334<br>長野県上田市中丸子1647-7<br>0268-42-0668<br>http://info@okashi-hanaoka.jp<br><br>その他土産物店<br>その他グルメ]]></description>
        <styleUrl>#icon-1899-0288D1</styleUrl>
        <Point><coordinates>138.2715537,36.3360075,0</coordinates></Point>
      </Placemark>

      <Placemark>
        <name>やきとり番長</name>
        <description><![CDATA[No.1335<br>長野県上田市天神1-1-1<br>0268-26-1818<br><br><br>居酒屋・創作料理]]></description>
        <styleUrl>#icon-1899-0288D1</styleUrl>
        <Point><coordinates>138.2489992,36.3966252,0</coordinates></Point>
      </Placemark>

      <Placemark>
        <name>上田からあげセンター</name>
        <description><![CDATA[No.1336<br>長野県上田市天神1-1887-17<br>0268-75-0229<br>https://www.cloocdining.co.jp/<br><br>定食屋]]></description>
        <styleUrl>#icon-1899-0288D1</styleUrl>
        <Point><coordinates>138.2492387,36.3969869,0</coordinates></Point>
      </Placemark>

      <Placemark>
        <name>上田特産品店　科の木</name>
        <description><![CDATA[No.1337<br>長野県上田市天神1-1887-3JR上田駅構内<br><br><br><br>その他土産物店]]></description>
        <styleUrl>#icon-1899-0288D1</styleUrl>
        <Point><coordinates>138.2196939,36.3970314,0</coordinates></Point>
      </Placemark>

      <Placemark>
        <name>飲み食い処幸村</name>
        <description><![CDATA[No.1338<br>長野県上田市天神1-2-1デルトラウムビルBF1<br>0268-27-0240<br><br><br>居酒屋・創作料理]]></description>
        <styleUrl>#icon-1899-0288D1</styleUrl>
        <Point><coordinates>138.249075,36.4019126,0</coordinates></Point>
      </Placemark>

      <Placemark>
        <name>手打ち蕎麦処　東都庵</name>
        <description><![CDATA[No.1339<br>長野県上田市天神1-2-1デルトラウムビル上田駅前ビル地下<br>0268-24-1666<br><br><br>そば・うどん]]></description>
        <styleUrl>#icon-1899-0288D1</styleUrl>
        <Point><coordinates>138.2491433,36.3972208,0</coordinates></Point>
      </Placemark>

      <Placemark>
        <name>楽々居酒家のあ</name>
        <description><![CDATA[No.1340<br>長野県上田市天神1-2-1デルトラウム駅前ビルB1F<br>0268-24-4116<br><br><br>居酒屋・創作料理]]></description>
        <styleUrl>#icon-1899-0288D1</styleUrl>
        <Point><coordinates>138.249064,36.397273,0</coordinates></Point>
      </Placemark>

      <Placemark>
        <name>定食処　さらめし亭</name>
        <description><![CDATA[No.1341<br>長野県上田市天神1-2-1デルトラウム駅前ビルB1F<br>0268-29-1007<br>https://dbill4.wixsite.com/sarameshi<br><br>定食屋]]></description>
        <styleUrl>#icon-1899-0288D1</styleUrl>
        <Point><coordinates>138.2491308,36.3972372,0</coordinates></Point>
      </Placemark>

      <Placemark>
        <name>海鮮ダイニングまぐろやはなの夢上田駅前ロイヤル店</name>
        <description><![CDATA[No.1342<br>長野県上田市天神1-2-31<br>0268-29-8733<br><br><br>居酒屋・創作料理]]></description>
        <styleUrl>#icon-1899-0288D1</styleUrl>
        <Point><coordinates>138.248936,36.397562,0</coordinates></Point>
      </Placemark>

      <Placemark>
        <name>上田ゴールデン酒場</name>
        <description><![CDATA[No.1343<br>長野県上田市天神1-2-36<br>0268-21-2070<br>https://new-concept-resort.jp/<br><br>居酒屋・創作料理]]></description>
        <styleUrl>#icon-1899-0288D1</styleUrl>
        <Point><coordinates>138.2495602,36.3973556,0</coordinates></Point>
      </Placemark>

      <Placemark>
        <name>千年の宴　上田お城口駅前店</name>
        <description><![CDATA[No.1344<br>長野県上田市天神1-2-37上村館1階2階<br>0268-26-5688<br>https://www.monteroza.co.jp/<br><br>居酒屋・創作料理]]></description>
        <styleUrl>#icon-1899-0288D1</styleUrl>
        <Point><coordinates>138.2493458,36.3972882,0</coordinates></Point>
      </Placemark>

      <Placemark>
        <name>ダイニング&amp;カフェ　アニバーサリー駅前本店</name>
        <description><![CDATA[No.1345<br>長野県上田市天神1-3-22小宮山ビル5階<br>0268-29-8280<br>https://cafe-anniversary.com/<br><br>居酒屋・創作料理]]></description>
        <styleUrl>#icon-1899-0288D1</styleUrl>
        <Point><coordinates>138.249075,36.4019126,0</coordinates></Point>
      </Placemark>

      <Placemark>
        <name>美食居酒屋　美蔵　ホテルルートインGrand上田駅前</name>
        <description><![CDATA[No.1346<br>長野県上田市天神1-5-7<br>050-5847-7744<br>https://www.route-inn.co.jp/hotel_list/nagano/index_hotel_id_634/restaurant/<br><br>居酒屋・創作料理]]></description>
        <styleUrl>#icon-1899-0288D1</styleUrl>
        <Point><coordinates>138.248701,36.398769,0</coordinates></Point>
      </Placemark>

      <Placemark>
        <name>そば処 よろづや</name>
        <description><![CDATA[No.1347<br>長野県上田市天神1-6-15<br>0268-22-1426<br><br><br>そば・うどん]]></description>
        <styleUrl>#icon-1899-0288D1</styleUrl>
        <Point><coordinates>138.2498167,36.3975397,0</coordinates></Point>
      </Placemark>

      <Placemark>
        <name>竹風堂　上田店</name>
        <description><![CDATA[No.1348<br>長野県上田市天神1-6-1若菜館ビル1階<br>0268-75-7031<br>https://chikufudo.com/shop/shop12<br><br>土産物店]]></description>
        <styleUrl>#icon-1899-0288D1</styleUrl>
        <Point><coordinates>138.2496876,36.3974331,0</coordinates></Point>
      </Placemark>

      <Placemark>
        <name>くいもの屋わん上田店</name>
        <description><![CDATA[No.1349<br>長野県上田市天神1-8-1上田駅前ビルパレオ2F<br>026-828-6015<br><br><br>居酒屋・創作料理]]></description>
        <styleUrl>#icon-1899-0288D1</styleUrl>
        <Point><coordinates>138.250581,36.397529,0</coordinates></Point>
      </Placemark>

      <Placemark>
        <name>目利きの銀次　上田お城口駅前店</name>
        <description><![CDATA[No.1350<br>長野県上田市天神1-9-3ASANOビル2階<br>0268-21-4488<br>https://www.monteroza.co.jp<br><br>居酒屋・創作料理]]></description>
        <styleUrl>#icon-1899-0288D1</styleUrl>
        <Point><coordinates>138.2505174,36.3967111,0</coordinates></Point>
      </Placemark>

      <Placemark>
        <name>駅レンタカー上田営業所</name>
        <description><![CDATA[No.1351<br>長野県上田市天神1丁目1-1<br>0268-24-1717<br>https://www.jrerl.co.jp/<br><br>レンタカー]]></description>
        <styleUrl>#icon-1899-0288D1</styleUrl>
        <Point><coordinates>138.2499406,36.3964116,0</coordinates></Point>
      </Placemark>

      <Placemark>
        <name>タリーズコーヒー上田駅店</name>
        <description><![CDATA[No.1352<br>長野県上田市天神1丁目JR東日本上田駅構内<br>0268-28-0660<br>https://map.tullys.co.jp/tullys/detailMap?account=tullys&accmd=0&bid=627&fp=top&key=%e9%95%b7%e9%87%8e%e7%9c%8c&bitemtype=1&scl=4999&rot=0&c21=1&pgret=2<br><br>ファーストフード]]></description>
        <styleUrl>#icon-1899-0288D1</styleUrl>
        <Point><coordinates>138.2493535,36.3969084,0</coordinates></Point>
      </Placemark>

      <Placemark>
        <name>浅間石油（ガソリンスタンド・レンタカー）</name>
        <description><![CDATA[No.1353<br>長野県上田市天神2-4-51<br>0268-25-1272<br>https://www.2525r.com/nagano/ueda/store-00700-001.html<br><br>レンタカー]]></description>
        <styleUrl>#icon-1899-0288D1</styleUrl>
        <Point><coordinates>138.2415429,36.4029443,0</coordinates></Point>
      </Placemark>

      <Placemark>
        <name>ＪＴＢ上田アリオ店</name>
        <description><![CDATA[No.1354<br>長野県上田市天神3-5-1アリオ上田1階<br>0268-28-1671<br>https://stores.jtb.co.jp/j5850-0<br><br>土産物店]]></description>
        <styleUrl>#icon-1899-0288D1</styleUrl>
        <Point><coordinates>138.2440548,36.3994516,0</coordinates></Point>
      </Placemark>

      <Placemark>
        <name>小木曽製粉所　アリオ上田店</name>
        <description><![CDATA[No.1355<br>長野県上田市天神3-5-1アリオ上田2Fフードコート<br>0268-71-7678<br>https://www.ogiso-seifunjo.com/<br><br>そば・うどん]]></description>
        <styleUrl>#icon-1899-0288D1</styleUrl>
        <Point><coordinates>138.2438767,36.3995032,0</coordinates></Point>
      </Placemark>

      <Placemark>
        <name>上田東急ＲＥＩホテル内　お食事処　さなだ庵</name>
        <description><![CDATA[No.1356<br>長野県上田市天神4-24-1<br>0268-24-0109<br>https://www.tokyuhotels.co.jp/ueda-r/restaurant/index.html<br><br>和食・寿司・天ぷら]]></description>
        <styleUrl>#icon-1899-0288D1</styleUrl>
        <Point><coordinates>138.2501252,36.3954655,0</coordinates></Point>
      </Placemark>

      <Placemark>
        <name>上田東急ＲＥＩホテル内　レストラン　Sakura</name>
        <description><![CDATA[No.1357<br>長野県上田市天神4-24-1<br>0268-24-0109<br>https://www.tokyuhotels.co.jp/ueda-r/restaurant/index.html<br><br>洋食]]></description>
        <styleUrl>#icon-1899-0288D1</styleUrl>
        <Point><coordinates>138.249771,36.395442,0</coordinates></Point>
      </Placemark>

      <Placemark>
        <name>サンクゼール・久世福商店アリオ上田店</name>
        <description><![CDATA[No.1358<br>長野県上田市天神三丁目5番1号アリオモール区画1-29-1<br>0268-71-5139<br>https://ueda.ario.jp/shop/2500000032/<br><br>土産物店]]></description>
        <styleUrl>#icon-1899-0288D1</styleUrl>
        <Point><coordinates>138.2449211,36.3992612,0</coordinates></Point>
      </Placemark>

      <Placemark>
        <name>ツーリスト美乃和</name>
        <description><![CDATA[No.1359<br>長野県上田市武石沖565-2<br>0268-85-2539<br>https://yadominowa.com/<br>アウトドア・スポーツ体験, レジャー施設<br>その他グルメ]]></description>
        <styleUrl>#icon-1899-0288D1</styleUrl>
        <Point><coordinates>138.24973,36.289219,0</coordinates></Point>
      </Placemark>